[
  {
    "orgId": 1019290805,
    "areaCode": "440304",
    "latitude": 22.5711,
    "longitude": 114.064,
    "orgName": "柯比篮球",
    "orgAddr": "广东省深圳市福田区凯丰路14号",
    "note": "",
    "tags": [
      {
        "value": "评分：3",
        "type": 2
      }
    ],
    "desc": "营业时间：周一至周日 10:00-22:00",
    "phone": ""
  },
  {
    "orgId": 925997631,
    "areaCode": "440309",
    "latitude": 22.6212,
    "longitude": 114.0264,
    "orgName": "迪小将少儿运动中心（龙华红山6979中心）",
    "orgAddr": "广东省深圳市龙华区民宝路",
    "note": "¥9.9起，体能篮球课-¥9.9，【3-4年龄段】趣味篮球课-¥9.9，【4-6年龄段】体能篮球课-¥9.9，【9-12年龄段】体能篮球课-¥9.9，【6-8年龄段】体能篮球课-¥9.9，【6-8】体能篮球4课时-¥999，【4-6】趣味篮球4课时-¥999，【3-4】趣味篮球4课时-¥999",
    "tags": [
      {
        "value": "评分：4.3",
        "type": 2
      },
      {
        "value": "有充电宝",
        "type": 1
      },
      {
        "value": "免费WiFi",
        "type": 1
      }
    ],
    "desc": "营业时间：周一至周日 10:00-22:00",
    "phone": ""
  },
  {
    "orgId": 1978318548,
    "areaCode": "440309",
    "latitude": 22.6027,
    "longitude": 114.0463,
    "orgName": "动因体育青少年篮球培训（cococity店）",
    "orgAddr": "广东省深圳市龙华区龙华大道",
    "note": "¥1起，【年龄10-12】篮球精品体验课-¥8，【年龄13-16】篮球精品体验课-¥25，【年龄7-9】篮球精品体验课-¥8，【爆款推荐】篮球2节体验课+送跳绳/瑜伽垫-¥999，【年龄4-6】篮球精品体验课-¥8，【新客专享】专业体测课+体测报告-¥1",
    "tags": [
      {
        "value": "评分：3.5",
        "type": 2
      },
      {
        "value": "有充电宝",
        "type": 1
      }
    ],
    "desc": "营业时间：周一至周日 09:00-21:30",
    "phone": ""
  },
  {
    "orgId": 1122028364,
    "areaCode": "440309",
    "latitude": 22.7234,
    "longitude": 114.0764,
    "orgName": "卓跃儿童运动馆·体能·篮球·跳绳（深圳观澜湖中心）",
    "orgAddr": "广东省深圳市龙华区新城大道",
    "note": "¥9.9起，「2-8」体能达标课-¥69.9，「春季长高」运动培训课2节-¥600，【2节】体能训练课-¥300，「5-12」跳绳达标课-¥69.9，「会员尊享」会员运动服-¥9.9，「4-12」零基础篮球课-¥69.9，「3-4」平衡车课-¥69.9，「3-8」专业体能测试-¥69.9，「1份」精美礼品-汗巾-¥9.9，【2节】0基础篮球运动课-¥300",
    "tags": [
      {
        "value": "评分：5",
        "type": 2
      },
      {
        "value": "空调开放",
        "type": 1
      },
      {
        "value": "上门授课",
        "type": 1
      },
      {
        "value": "有休息区",
        "type": 1
      },
      {
        "value": "有卫生间",
        "type": 1
      },
      {
        "value": "无烟环境",
        "type": 1
      },
      {
        "value": "免费WiFi",
        "type": 1
      }
    ],
    "desc": "营业时间：周二,周五至周日 09:00-19:00  周三,周四 09:00-20:00",
    "phone": ""
  },
  {
    "orgId": 109986081,
    "areaCode": "440303",
    "latitude": 22.5662,
    "longitude": 114.1243,
    "orgName": "费默思篮球俱乐部（田贝校区）",
    "orgAddr": "广东省深圳市罗湖区田贝四路136号",
    "note": "¥1起，篮球启蒙特色课程-¥9.9，【开学季】精英篮球课程-¥1，【开学季】精英篮球课程-¥1，【开学季】篮球考前培训课-¥9.9，体能训练课-¥1，【开学季】中考篮球培训-¥9.9，【开学季】篮球课程-¥9.9，【开学季】秋季篮球班-¥9.9，室内馆篮球体验课-¥9.9，【送篮球+球包】1节篮球课-¥99",
    "tags": [
      {
        "value": "评分：4",
        "type": 2
      },
      {
        "value": "有充电宝",
        "type": 1
      },
      {
        "value": "无烟环境",
        "type": 1
      },
      {
        "value": "免费WiFi",
        "type": 1
      }
    ],
    "desc": "营业时间：周一至周日 09:00-22:00",
    "phone": ""
  },
  {
    "orgId": 1240510692,
    "areaCode": "440305",
    "latitude": 22.556,
    "longitude": 113.9727,
    "orgName": "迪小将少儿运动中心（南山方大城中心）",
    "orgAddr": "广东省深圳市南山区高发科技园西路",
    "note": "¥9.9起，【3-4年龄段】趣味篮球课-¥9.9，体能篮球课-¥9.9，【4-6年龄段】体能篮球课-¥9.9，【9-12年龄段】体能篮球课-¥9.9，【6-8年龄段】体能篮球课-¥9.9，【4-6】趣味篮球4课时-¥999，【6-8】体能篮球4课时-¥999，【3-4】趣味篮球4课时-¥999",
    "tags": [
      {
        "value": "评分：5",
        "type": 2
      },
      {
        "value": "有充电宝",
        "type": 1
      },
      {
        "value": "免费WiFi",
        "type": 1
      }
    ],
    "desc": "营业时间：周二至周日 10:00-20:00",
    "phone": ""
  },
  {
    "orgId": 1810788697,
    "areaCode": "440303",
    "latitude": 22.5512,
    "longitude": 114.1321,
    "orgName": "优佳羽毛球游泳乒乓球网球篮球培训（罗湖校区）",
    "orgAddr": "广东省深圳市罗湖区爱国路1022号",
    "note": "",
    "tags": [
      {
        "value": "评分：3.5",
        "type": 2
      }
    ],
    "desc": "营业时间：",
    "phone": ""
  },
  {
    "orgId": 1429164819,
    "areaCode": "440306",
    "latitude": 22.7365,
    "longitude": 113.8129,
    "orgName": "飞跃体能·中考·攀岩",
    "orgAddr": "广东省深圳市宝安区明珠二路",
    "note": "¥9.9起，【热门】快乐篮球课程4-10龄段-¥9.9",
    "tags": [
      {
        "value": "评分：4.6",
        "type": 2
      },
      {
        "value": "有储物柜",
        "type": 1
      },
      {
        "value": "无烟环境",
        "type": 1
      },
      {
        "value": "免费茶水",
        "type": 1
      },
      {
        "value": "免费WiFi",
        "type": 1
      }
    ],
    "desc": "营业时间：周一至周日 10:00-22:00",
    "phone": ""
  },
  {
    "orgId": 177737126,
    "areaCode": "440306",
    "latitude": 22.5872,
    "longitude": 113.8863,
    "orgName": "关键球员·室内篮球培训（宝安雍和馆）",
    "orgAddr": "广东省深圳市宝安区前进二路63号",
    "note": "",
    "tags": [
      {
        "value": "评分：3",
        "type": 2
      }
    ],
    "desc": "营业时间：周二至周五 14:30-21:00  周六,周日 09:00-21:00",
    "phone": ""
  },
  {
    "orgId": 1703673228,
    "areaCode": "440307",
    "latitude": 22.7298,
    "longitude": 114.2302,
    "orgName": "Superkid运动馆（翰邻城校区）",
    "orgAddr": "广东省深圳市龙岗区龙平西路",
    "note": "¥1起，【体验课】基础篮球(4-8)-¥9.9，【体验课】篮球体验课4-8-¥1，基础篮球体验课1节-¥19.9",
    "tags": [
      {
        "value": "评分：5",
        "type": 2
      },
      {
        "value": "免费WiFi",
        "type": 1
      }
    ],
    "desc": "营业时间：周一至周日 10:00-19:00",
    "phone": ""
  },
  {
    "orgId": 548360405,
    "areaCode": "440303",
    "latitude": 22.5388,
    "longitude": 114.1208,
    "orgName": "海超成人青少年篮球培训（罗湖店）",
    "orgAddr": "广东省深圳市罗湖区南湖路2017-4号",
    "note": "¥1起，【篮球】成人私教一对一课程-¥280，成人篮球省级联赛运动员私教一对一-¥280，成人私教体验课【一级运动员教学】-¥280，成人篮球省级联赛运动员私教一对一-¥280，6-18基础班篮球体验课-¥19.9，体育篮球专项考试-¥1，【篮球】篮球知识咨询-¥1，成人篮球一级运动员私教课-¥280，6-18精英班篮球体验课-¥19.9，成人省级联赛运动员私教一对二-¥430",
    "tags": [
      {
        "value": "评分：3.5",
        "type": 2
      },
      {
        "value": "有充电宝",
        "type": 1
      },
      {
        "value": "免费WiFi",
        "type": 1
      }
    ],
    "desc": "营业时间：周一至周日 10:00-22:00",
    "phone": ""
  },
  {
    "orgId": 572560901,
    "areaCode": "440306",
    "latitude": 22.5818,
    "longitude": 113.8665,
    "orgName": "林书豪-李群篮球联盟",
    "orgAddr": "广东省深圳市宝安区共和工业路31号",
    "note": "",
    "tags": [
      {
        "value": "评分：3.6",
        "type": 2
      }
    ],
    "desc": "营业时间：周一至周日 09:00-22:00",
    "phone": ""
  },
  {
    "orgId": 1215846804,
    "areaCode": "440307",
    "latitude": 22.703,
    "longitude": 114.2468,
    "orgName": "海浪文体中心",
    "orgAddr": "广东省深圳市龙岗区彩云路6号",
    "note": "",
    "tags": [
      {
        "value": "评分：3.3",
        "type": 2
      },
      {
        "value": "室内",
        "type": 1
      },
      {
        "value": "木质地板 塑料地板",
        "type": 1
      }
    ],
    "desc": "营业时间：周一至周日 09:00-23:00",
    "phone": ""
  },
  {
    "orgId": 1353220078,
    "areaCode": "440304",
    "latitude": 22.5578,
    "longitude": 114.1016,
    "orgName": "SKY体育公园·篮球场·足球场",
    "orgAddr": "广东省深圳市福田区八卦七街37号",
    "note": "",
    "tags": [
      {
        "value": "评分：0",
        "type": 2
      }
    ],
    "desc": "营业时间：周一至周日 09:00-23:00",
    "phone": ""
  },
  {
    "orgId": 766001250,
    "areaCode": "440306",
    "latitude": 22.6753,
    "longitude": 113.8141,
    "orgName": "香蕉体育天台篮球场",
    "orgAddr": "广东省深圳市宝安区福洲大道",
    "note": "",
    "tags": [
      {
        "value": "评分：3",
        "type": 2
      },
      {
        "value": "付费停车",
        "type": 1
      }
    ],
    "desc": "营业时间：周六,周日 08:30-22:00  周一至周五 14:00-22:00",
    "phone": ""
  },
  {
    "orgId": 163148810,
    "areaCode": "440303",
    "latitude": 22.5395,
    "longitude": 114.1201,
    "orgName": "金光华篮球场",
    "orgAddr": "广东省深圳市罗湖区人民南路2028号南门",
    "note": "",
    "tags": [
      {
        "value": "评分：0",
        "type": 2
      }
    ],
    "desc": "营业时间：周一至周五 14:00-22:30  周六,周日 09:00-22:30",
    "phone": ""
  },
  {
    "orgId": 1279523468,
    "areaCode": "440306",
    "latitude": 22.5754,
    "longitude": 113.8655,
    "orgName": "GY篮球实验室",
    "orgAddr": "广东省深圳市宝安区西乡大道",
    "note": "",
    "tags": [
      {
        "value": "评分：3.5",
        "type": 2
      }
    ],
    "desc": "营业时间：周一至周日 10:00-22:00",
    "phone": ""
  },
  {
    "orgId": 1528828208,
    "areaCode": "440306",
    "latitude": 22.5943,
    "longitude": 113.8362,
    "orgName": "TOP篮球场星耀体育",
    "orgAddr": "广东省深圳市宝安区金湾大道",
    "note": "",
    "tags": [
      {
        "value": "评分：0",
        "type": 2
      }
    ],
    "desc": "营业时间：周一至周五 14:00-22:30  周六,周日 09:00-22:30",
    "phone": ""
  },
  {
    "orgId": 1328129029,
    "areaCode": "440306",
    "latitude": 22.6862,
    "longitude": 113.9414,
    "orgName": "UNC冠军球馆",
    "orgAddr": "广东省深圳市宝安区石岩北环路",
    "note": "",
    "tags": [
      {
        "value": "评分：0",
        "type": 2
      }
    ],
    "desc": "营业时间：周一至周日 09:00-22:00",
    "phone": ""
  },
  {
    "orgId": 1349166359,
    "areaCode": "440309",
    "latitude": 22.6191,
    "longitude": 114.0475,
    "orgName": "民治1970篮球馆",
    "orgAddr": "广东省深圳市龙华区G94",
    "note": "",
    "tags": [
      {
        "value": "评分：0",
        "type": 2
      }
    ],
    "desc": "营业时间：周六,周日 09:00-22:00  周一至周五 12:00-22:00",
    "phone": ""
  },
  {
    "orgId": 185776737,
    "areaCode": "440306",
    "latitude": 22.6752,
    "longitude": 113.9298,
    "orgName": "悦动篮球培训中心（岁宝百货店）",
    "orgAddr": "广东省深圳市宝安区宝石南路",
    "note": "",
    "tags": [
      {
        "value": "评分：3",
        "type": 2
      }
    ],
    "desc": "营业时间：周五 16:30-21:00  周三,周四 15:00-21:00  周六,周日 08:30-21:00  周二 15:00-17:00",
    "phone": ""
  },
  {
    "orgId": 88408995,
    "areaCode": "440306",
    "latitude": 22.7355,
    "longitude": 113.8176,
    "orgName": "觉园新村篮球场",
    "orgAddr": "广东省深圳市宝安区将军路",
    "note": "",
    "tags": [
      {
        "value": "评分：0",
        "type": 2
      }
    ],
    "desc": "营业时间：周一至周日 07:00-12:00 14:00-22:00",
    "phone": ""
  },
  {
    "orgId": 1789647016,
    "areaCode": "440303",
    "latitude": 22.5746,
    "longitude": 114.1248,
    "orgName": "蒙华篮球广场",
    "orgAddr": "广东省深圳市罗湖区布心路",
    "note": "",
    "tags": [
      {
        "value": "评分：0",
        "type": 2
      }
    ],
    "desc": "营业时间：周一至周日 10:00-22:00",
    "phone": ""
  },
  {
    "orgId": 1569296563,
    "areaCode": "440305",
    "latitude": 22.4891,
    "longitude": 113.9347,
    "orgName": "正浩篮球公园（湾厦店）",
    "orgAddr": "广东省深圳市南山区后海大道25号",
    "note": "",
    "tags": [
      {
        "value": "评分：3.9",
        "type": 2
      },
      {
        "value": "有充电宝",
        "type": 1
      },
      {
        "value": "免费WiFi",
        "type": 1
      }
    ],
    "desc": "营业时间：周一至周日 09:00-22:00",
    "phone": ""
  },
  {
    "orgId": 719805747,
    "areaCode": "440303",
    "latitude": 22.5558,
    "longitude": 114.1493,
    "orgName": "东湖公园-篮球场",
    "orgAddr": "广东省深圳市罗湖区东湖二路",
    "note": "",
    "tags": [
      {
        "value": "评分：0",
        "type": 2
      }
    ],
    "desc": "营业时间：",
    "phone": ""
  },
  {
    "orgId": 592978838,
    "areaCode": "440308",
    "latitude": 22.5506,
    "longitude": 114.2262,
    "orgName": "蓝郡篮球馆（蓝郡公寓店）",
    "orgAddr": "广东省深圳市盐田区勤工南街",
    "note": "",
    "tags": [
      {
        "value": "评分：0",
        "type": 2
      }
    ],
    "desc": "营业时间：周一至周日 10:00-22:00",
    "phone": ""
  },
  {
    "orgId": 178130534,
    "areaCode": "440309",
    "latitude": 22.6296,
    "longitude": 114.0379,
    "orgName": "万众城QPark篮球公园（民治大道店）",
    "orgAddr": "广东省深圳市龙华区布龙路779-23号",
    "note": "",
    "tags": [
      {
        "value": "评分：0",
        "type": 2
      }
    ],
    "desc": "营业时间：周一至周五 15:00-22:30  周六,周日 09:00-22:30",
    "phone": ""
  },
  {
    "orgId": 1996386781,
    "areaCode": "440307",
    "latitude": 22.7029,
    "longitude": 114.2407,
    "orgName": "新屯东边月篮球场",
    "orgAddr": "广东省深圳市龙岗区屯祥路",
    "note": "",
    "tags": [
      {
        "value": "评分：0",
        "type": 2
      }
    ],
    "desc": "营业时间：",
    "phone": ""
  },
  {
    "orgId": 1670469583,
    "areaCode": "440305",
    "latitude": 22.529,
    "longitude": 113.9496,
    "orgName": "金地威新软件科技园南区篮球场",
    "orgAddr": "广东省深圳市南山区高新南九道",
    "note": "",
    "tags": [
      {
        "value": "评分：0",
        "type": 2
      }
    ],
    "desc": "营业时间：周一至周日 10:00-22:00",
    "phone": ""
  },
  {
    "orgId": 795094432,
    "areaCode": "440307",
    "latitude": 22.6319,
    "longitude": 114.1781,
    "orgName": "大生体育公园篮球场",
    "orgAddr": "广东省深圳市龙岗区G205",
    "note": "",
    "tags": [
      {
        "value": "评分：0",
        "type": 2
      }
    ],
    "desc": "营业时间：周一至周日 10:00-22:00",
    "phone": ""
  },
  {
    "orgId": 165530275,
    "areaCode": "440305",
    "latitude": 22.5194,
    "longitude": 113.9491,
    "orgName": "灌篮篮球场羽毛球场",
    "orgAddr": "广东省深圳市南山区滨海大道",
    "note": "",
    "tags": [
      {
        "value": "评分：0",
        "type": 2
      },
      {
        "value": "室外",
        "type": 1
      },
      {
        "value": "塑料地板",
        "type": 1
      }
    ],
    "desc": "营业时间：周一至周日 06:00-23:00",
    "phone": ""
  },
  {
    "orgId": 112163421,
    "areaCode": "440304",
    "latitude": 22.5265,
    "longitude": 114.0354,
    "orgName": "易建联篮球训练中心",
    "orgAddr": "广东省深圳市福田区滨河大道辅道",
    "note": "",
    "tags": [
      {
        "value": "评分：0",
        "type": 2
      }
    ],
    "desc": "营业时间：周一至周日 10:00-22:00",
    "phone": ""
  },
  {
    "orgId": 861645297,
    "areaCode": "440304",
    "latitude": 22.5146,
    "longitude": 114.0564,
    "orgName": "动因体育室内篮球馆（益田店）",
    "orgAddr": "广东省深圳市福田区福强路",
    "note": "",
    "tags": [
      {
        "value": "评分：-",
        "type": 2
      }
    ],
    "desc": "营业时间：",
    "phone": ""
  },
  {
    "orgId": 1186010961,
    "areaCode": "440309",
    "latitude": 22.6604,
    "longitude": 114.0404,
    "orgName": "青创园篮球场",
    "orgAddr": "广东省深圳市龙华区景龙建设路6号",
    "note": "",
    "tags": [
      {
        "value": "评分：-",
        "type": 2
      }
    ],
    "desc": "营业时间：周一至周日 09:00-22:30",
    "phone": ""
  },
  {
    "orgId": 1512440414,
    "areaCode": "440304",
    "latitude": 22.5634,
    "longitude": 114.0599,
    "orgName": "第六区太空篮球乐园",
    "orgAddr": "广东省深圳市福田区奥士达路6号",
    "note": "",
    "tags": [
      {
        "value": "评分：-",
        "type": 2
      }
    ],
    "desc": "营业时间：周一至周日 09:00-21:30",
    "phone": ""
  },
  {
    "orgId": 1073377085,
    "areaCode": "440305",
    "latitude": 22.6328,
    "longitude": 113.9362,
    "orgName": "皮卡篮球公园",
    "orgAddr": "广东省深圳市南山区松旺五路",
    "note": "",
    "tags": [
      {
        "value": "评分：-",
        "type": 2
      }
    ],
    "desc": "营业时间：周一至周日 12:00-22:30",
    "phone": ""
  },
  {
    "orgId": 738020439,
    "areaCode": "440306",
    "latitude": 22.7092,
    "longitude": 113.8065,
    "orgName": "沙井天空之城篮球馆（深圳国际会展中心馆）",
    "orgAddr": "广东省深圳市宝安区沙井路4-1号",
    "note": "",
    "tags": [
      {
        "value": "评分：-",
        "type": 2
      }
    ],
    "desc": "营业时间：",
    "phone": ""
  },
  {
    "orgId": 1570816107,
    "areaCode": "440305",
    "latitude": 22.5161,
    "longitude": 113.9337,
    "orgName": "正浩体育篮球馆",
    "orgAddr": "广东省深圳市南山区海德一道",
    "note": "",
    "tags": [
      {
        "value": "评分：-",
        "type": 2
      }
    ],
    "desc": "营业时间：周一至周日 09:00-22:00",
    "phone": ""
  },
  {
    "orgId": 1357048874,
    "areaCode": "440310",
    "latitude": 22.6762,
    "longitude": 114.3343,
    "orgName": "关键球员·室内篮球培训（坪山京基御景馆）",
    "orgAddr": "广东省深圳市坪山区牛角龙路",
    "note": "",
    "tags": [
      {
        "value": "评分：3",
        "type": 2
      },
      {
        "value": "免费WiFi",
        "type": 1
      }
    ],
    "desc": "营业时间：周六,周日 09:00-21:00  周二至周五 14:30-21:00",
    "phone": ""
  },
  {
    "orgId": 80190602,
    "areaCode": "440305",
    "latitude": 22.5041,
    "longitude": 113.9344,
    "orgName": "海月花园篮球场",
    "orgAddr": "广东省深圳市南山区海月路",
    "note": "",
    "tags": [
      {
        "value": "评分：-",
        "type": 2
      }
    ],
    "desc": "营业时间：周一至周五 16:00-21:30  周六,周日 09:30-21:30",
    "phone": ""
  },
  {
    "orgId": 77099056,
    "areaCode": "440303",
    "latitude": 22.5643,
    "longitude": 114.1317,
    "orgName": "翠竹苑篮球场",
    "orgAddr": "广东省深圳市罗湖区田贝三路",
    "note": "",
    "tags": [
      {
        "value": "评分：-",
        "type": 2
      }
    ],
    "desc": "营业时间：周一至周日 06:00-23:00",
    "phone": ""
  },
  {
    "orgId": 708428759,
    "areaCode": "440305",
    "latitude": 22.4839,
    "longitude": 113.8929,
    "orgName": "锡才小南山篮球场",
    "orgAddr": "广东省深圳市南山区少帝路",
    "note": "",
    "tags": [
      {
        "value": "评分：-",
        "type": 2
      }
    ],
    "desc": "营业时间：周一至周日 16:00-22:30",
    "phone": ""
  },
  {
    "orgId": 111636358,
    "areaCode": "440306",
    "latitude": 22.5785,
    "longitude": 113.8542,
    "orgName": "篮球俱乐部",
    "orgAddr": "广东省深圳市宝安区银田路",
    "note": "",
    "tags": [
      {
        "value": "评分：-",
        "type": 2
      }
    ],
    "desc": "营业时间：周一至周日 9:00-22:00",
    "phone": ""
  },
  {
    "orgId": 630910239,
    "areaCode": "440305",
    "latitude": 22.54,
    "longitude": 113.9826,
    "orgName": "泡泡体育篮球馆（华侨城店）",
    "orgAddr": "广东省深圳市南山区杜鹃山东街",
    "note": "",
    "tags": [
      {
        "value": "评分：-",
        "type": 2
      }
    ],
    "desc": "营业时间：周一至周日 09:00-22:00",
    "phone": ""
  },
  {
    "orgId": 571620427,
    "areaCode": "440307",
    "latitude": 22.6077,
    "longitude": 114.1414,
    "orgName": "球徒篮球馆",
    "orgAddr": "广东省深圳市龙岗区布沙路",
    "note": "",
    "tags": [
      {
        "value": "评分：3",
        "type": 2
      }
    ],
    "desc": "营业时间：周一至周日 14:00-22:30",
    "phone": ""
  },
  {
    "orgId": 1684133349,
    "areaCode": "440305",
    "latitude": 22.5071,
    "longitude": 113.9284,
    "orgName": "南油篮球场",
    "orgAddr": "广东省深圳市南山区好运街",
    "note": "",
    "tags": [
      {
        "value": "评分：-",
        "type": 2
      }
    ],
    "desc": "营业时间：周一至周日 10:00-22:00",
    "phone": ""
  },
  {
    "orgId": 1534059688,
    "areaCode": "440306",
    "latitude": 22.6818,
    "longitude": 113.8316,
    "orgName": "远明体育篮球训练馆",
    "orgAddr": "广东省深圳市宝安区兴益路",
    "note": "",
    "tags": [
      {
        "value": "评分：-",
        "type": 2
      }
    ],
    "desc": "营业时间：",
    "phone": ""
  },
  {
    "orgId": 195032175,
    "areaCode": "440307",
    "latitude": 22.62,
    "longitude": 114.0615,
    "orgName": "壹号场五和篮球馆",
    "orgAddr": "广东省深圳市龙岗区五和中路",
    "note": "",
    "tags": [
      {
        "value": "评分：-",
        "type": 2
      }
    ],
    "desc": "营业时间：周一至周日 09:00-22:00",
    "phone": ""
  },
  {
    "orgId": 1091503135,
    "areaCode": "440307",
    "latitude": 22.6065,
    "longitude": 114.0619,
    "orgName": "东方启明星篮球培训（职业生涯校区）",
    "orgAddr": "广东省深圳市龙岗区雅南路",
    "note": "",
    "tags": [
      {
        "value": "评分：3.5",
        "type": 2
      }
    ],
    "desc": "营业时间：",
    "phone": ""
  },
  {
    "orgId": 734396064,
    "areaCode": "440305",
    "latitude": 22.5503,
    "longitude": 113.9536,
    "orgName": "关键球员·室内篮球培训（南山科技园馆）",
    "orgAddr": "广东省深圳市南山区沙河西路2029-10号",
    "note": "",
    "tags": [
      {
        "value": "评分：3.5",
        "type": 2
      },
      {
        "value": "免费WiFi",
        "type": 1
      }
    ],
    "desc": "营业时间：周一,周二,周四,周五 14:30-21:00  周六,周日 09:00-21:00",
    "phone": ""
  },
  {
    "orgId": 531022940,
    "areaCode": "440305",
    "latitude": 22.4888,
    "longitude": 113.919,
    "orgName": "EACO运动馆",
    "orgAddr": "广东省深圳市南山区荔园路32号",
    "note": "",
    "tags": [
      {
        "value": "评分：-",
        "type": 2
      }
    ],
    "desc": "营业时间：周一至周日 10:00-22:00",
    "phone": ""
  },
  {
    "orgId": 1282551324,
    "areaCode": "440305",
    "latitude": 22.5194,
    "longitude": 113.9491,
    "orgName": "深圳湾体育中心室外篮球场",
    "orgAddr": "广东省深圳市南山区滨海大道",
    "note": "",
    "tags": [
      {
        "value": "评分：-",
        "type": 2
      }
    ],
    "desc": "营业时间：周六,周日 08:30-22:30  周一至周五 09:30-22:30",
    "phone": ""
  },
  {
    "orgId": 150252480,
    "areaCode": "440307",
    "latitude": 22.6085,
    "longitude": 114.1018,
    "orgName": "篮球场",
    "orgAddr": "广东省深圳市龙岗区石龙路",
    "note": "",
    "tags": [
      {
        "value": "评分：-",
        "type": 2
      }
    ],
    "desc": "营业时间：周一至周日 08:00-20:00",
    "phone": ""
  },
  {
    "orgId": 1150409943,
    "areaCode": "440307",
    "latitude": 22.6105,
    "longitude": 114.1227,
    "orgName": "锡才文化布吉篮球场",
    "orgAddr": "广东省深圳市龙岗区吉政路",
    "note": "",
    "tags": [
      {
        "value": "评分：-",
        "type": 2
      }
    ],
    "desc": "营业时间：周六,周日 08:00-22:00  周一至周五 15:00-22:00",
    "phone": ""
  },
  {
    "orgId": 1148093319,
    "areaCode": "440306",
    "latitude": 22.7117,
    "longitude": 113.8311,
    "orgName": "华普篮球训练中心",
    "orgAddr": "广东省深圳市宝安区乌泥棚路",
    "note": "",
    "tags": [
      {
        "value": "评分：-",
        "type": 2
      }
    ],
    "desc": "营业时间：周一至周日 10:00-23:30",
    "phone": ""
  },
  {
    "orgId": 1934047175,
    "areaCode": "440305",
    "latitude": 22.5863,
    "longitude": 113.9634,
    "orgName": "球奇Amazing篮球公园",
    "orgAddr": "广东省深圳市南山区平山一路",
    "note": "",
    "tags": [
      {
        "value": "评分：-",
        "type": 2
      },
      {
        "value": "室外",
        "type": 1
      }
    ],
    "desc": "营业时间：周一至周日 09:00-22:30",
    "phone": ""
  },
  {
    "orgId": 753501284,
    "areaCode": "440311",
    "latitude": 22.7826,
    "longitude": 113.9487,
    "orgName": "薪火阵营易建联篮球训练中心（光明店）",
    "orgAddr": "广东省深圳市光明区果园中心路",
    "note": "",
    "tags": [
      {
        "value": "评分：-",
        "type": 2
      },
      {
        "value": "有储物柜",
        "type": 1
      },
      {
        "value": "空调开放",
        "type": 1
      },
      {
        "value": "可预订场地",
        "type": 1
      },
      {
        "value": "有淋浴间",
        "type": 1
      },
      {
        "value": "有充电宝",
        "type": 1
      },
      {
        "value": "有休息区",
        "type": 1
      },
      {
        "value": "有卫生间",
        "type": 1
      },
      {
        "value": "无烟环境",
        "type": 1
      },
      {
        "value": "免费WiFi",
        "type": 1
      },
      {
        "value": "付费停车",
        "type": 1
      }
    ],
    "desc": "营业时间：周一至周日 09:00-22:30",
    "phone": ""
  },
  {
    "orgId": 1002992289,
    "areaCode": "440307",
    "latitude": 22.7024,
    "longitude": 114.2191,
    "orgName": "关键球员·室内篮球培训（大运店）",
    "orgAddr": "广东省深圳市龙岗区黄阁路102号",
    "note": "",
    "tags": [
      {
        "value": "评分：3",
        "type": 2
      }
    ],
    "desc": "营业时间：周一至周日 10:00-22:00",
    "phone": ""
  },
  {
    "orgId": 1540384269,
    "areaCode": "440305",
    "latitude": 22.4891,
    "longitude": 113.9347,
    "orgName": "正浩篮球公园（湾厦店）",
    "orgAddr": "广东省深圳市南山区后海大道25号",
    "note": "",
    "tags": [
      {
        "value": "评分：-",
        "type": 2
      }
    ],
    "desc": "营业时间：周一至周日 09:00-22:00",
    "phone": ""
  },
  {
    "orgId": 1580007372,
    "areaCode": "440303",
    "latitude": 22.5813,
    "longitude": 114.1357,
    "orgName": "J23篮球培训（东昌校区）",
    "orgAddr": "广东省深圳市罗湖区东昌路78-1号",
    "note": "",
    "tags": [
      {
        "value": "评分：-",
        "type": 2
      }
    ],
    "desc": "营业时间：周一至周日 10:00-22:00",
    "phone": ""
  },
  {
    "orgId": 1807059518,
    "areaCode": "440307",
    "latitude": 22.7221,
    "longitude": 114.2968,
    "orgName": "星火KIDS篮球培训中心（龙东龙胜新天地店）",
    "orgAddr": "广东省深圳市龙岗区深汕路",
    "note": "",
    "tags": [
      {
        "value": "评分：3",
        "type": 2
      }
    ],
    "desc": "营业时间：周一至周五 16:30-20:30  周六,周日 08:30-22:00",
    "phone": ""
  },
  {
    "orgId": 1851792545,
    "areaCode": "440305",
    "latitude": 22.5188,
    "longitude": 113.9203,
    "orgName": "嘻哈虎篮球（联华校区）",
    "orgAddr": "广东省深圳市南山区新园路",
    "note": "",
    "tags": [
      {
        "value": "评分：4",
        "type": 2
      }
    ],
    "desc": "营业时间：周一至周日 09:00-18:00",
    "phone": ""
  },
  {
    "orgId": 41128636,
    "areaCode": "440304",
    "latitude": 22.5407,
    "longitude": 114.0465,
    "orgName": "特区报社篮球场",
    "orgAddr": "广东省深圳市福田区深南大道",
    "note": "",
    "tags": [
      {
        "value": "评分：-",
        "type": 2
      }
    ],
    "desc": "营业时间：周一至周日 09:00-22:00",
    "phone": ""
  },
  {
    "orgId": 867280236,
    "areaCode": "440307",
    "latitude": 22.6067,
    "longitude": 114.1396,
    "orgName": "白鲨美式篮球馆",
    "orgAddr": "广东省深圳市龙岗区中翠路",
    "note": "",
    "tags": [
      {
        "value": "评分：-",
        "type": 2
      }
    ],
    "desc": "营业时间：周一至周日 10:00-22:00",
    "phone": ""
  },
  {
    "orgId": 178134309,
    "areaCode": "440309",
    "latitude": 22.6026,
    "longitude": 114.0461,
    "orgName": "龙华COCO City. QPark篮球馆",
    "orgAddr": "广东省深圳市龙华区梅龙路2号",
    "note": "",
    "tags": [
      {
        "value": "评分：-",
        "type": 2
      }
    ],
    "desc": "营业时间：周一至周日 10:00-22:00",
    "phone": ""
  },
  {
    "orgId": 1533274136,
    "areaCode": "440305",
    "latitude": 22.4939,
    "longitude": 113.9314,
    "orgName": "海洋篮球馆(Ocean Park)",
    "orgAddr": "广东省深圳市南山区后海大道46号",
    "note": "",
    "tags": [
      {
        "value": "评分：3",
        "type": 2
      }
    ],
    "desc": "营业时间：周一至周日 09:00-24:00",
    "phone": ""
  },
  {
    "orgId": 612826891,
    "areaCode": "440307",
    "latitude": 22.6185,
    "longitude": 114.1626,
    "orgName": "鲸鱼篮球俱乐部",
    "orgAddr": "广东省深圳市龙岗区文坑路2号",
    "note": "",
    "tags": [
      {
        "value": "评分：-",
        "type": 2
      },
      {
        "value": "室内",
        "type": 1
      },
      {
        "value": "木质地板 塑料地板",
        "type": 1
      }
    ],
    "desc": "营业时间：周一至周日 10:00-22:00",
    "phone": ""
  },
  {
    "orgId": 158680321,
    "areaCode": "440305",
    "latitude": 22.5484,
    "longitude": 113.9354,
    "orgName": "QPark篮球公园（科技中一路店）",
    "orgAddr": "广东省深圳市南山区高新中一道19号",
    "note": "",
    "tags": [
      {
        "value": "评分：-",
        "type": 2
      }
    ],
    "desc": "营业时间：周一至周日 14:00-22:00",
    "phone": ""
  },
  {
    "orgId": 1202254556,
    "areaCode": "440311",
    "latitude": 22.7748,
    "longitude": 113.9108,
    "orgName": "立志篮球训练基地",
    "orgAddr": "广东省深圳市光明区公常公路724号",
    "note": "",
    "tags": [
      {
        "value": "评分：3.5",
        "type": 2
      }
    ],
    "desc": "营业时间：",
    "phone": ""
  },
  {
    "orgId": 790975968,
    "areaCode": "440307",
    "latitude": 22.5977,
    "longitude": 114.1306,
    "orgName": "酷里篮球公园(布吉百鸽笼店)",
    "orgAddr": "广东省深圳市龙岗区翔鸽路",
    "note": "",
    "tags": [
      {
        "value": "评分：-",
        "type": 2
      }
    ],
    "desc": "营业时间：周一至周日 10:00-22:00",
    "phone": ""
  },
  {
    "orgId": 909326366,
    "areaCode": "440304",
    "latitude": 22.5484,
    "longitude": 114.1042,
    "orgName": "薪火阵营易建联少儿篮球培训中心",
    "orgAddr": "广东省深圳市福田区红荔路1001号东门",
    "note": "",
    "tags": [
      {
        "value": "评分：-",
        "type": 2
      }
    ],
    "desc": "营业时间：周一至周日 10:00-22:00",
    "phone": ""
  },
  {
    "orgId": 80551007,
    "areaCode": "440307",
    "latitude": 22.7038,
    "longitude": 114.2729,
    "orgName": "大浪社区篮球场",
    "orgAddr": "广东省深圳市龙岗区大浪路25号",
    "note": "",
    "tags": [
      {
        "value": "评分：-",
        "type": 2
      }
    ],
    "desc": "营业时间：",
    "phone": ""
  },
  {
    "orgId": 1723602278,
    "areaCode": "440306",
    "latitude": 22.5608,
    "longitude": 113.8708,
    "orgName": "BALLINKES球链篮球俱乐部",
    "orgAddr": "广东省深圳市宝安区新安六路",
    "note": "",
    "tags": [
      {
        "value": "评分：-",
        "type": 2
      }
    ],
    "desc": "营业时间：周一至周日 10:00-22:00",
    "phone": ""
  },
  {
    "orgId": 859035256,
    "areaCode": "440306",
    "latitude": 22.572,
    "longitude": 113.9045,
    "orgName": "荣耀篮球公园（乐添广场店）",
    "orgAddr": "广东省深圳市宝安区创北三巷1002号",
    "note": "",
    "tags": [
      {
        "value": "评分：-",
        "type": 2
      }
    ],
    "desc": "营业时间：周一至周日 09:00-21:00",
    "phone": ""
  },
  {
    "orgId": 1781885096,
    "areaCode": "440308",
    "latitude": 22.554,
    "longitude": 114.2379,
    "orgName": "糖果篮球",
    "orgAddr": "广东省深圳市盐田区海景二路1038-26号",
    "note": "",
    "tags": [
      {
        "value": "评分：-",
        "type": 2
      }
    ],
    "desc": "营业时间：周二至周日 09:30-18:30",
    "phone": ""
  },
  {
    "orgId": 1322677478,
    "areaCode": "440305",
    "latitude": 22.5431,
    "longitude": 113.9119,
    "orgName": "辛巴篮球馆",
    "orgAddr": "广东省深圳市南山区梵高大道",
    "note": "",
    "tags": [
      {
        "value": "评分：-",
        "type": 2
      }
    ],
    "desc": "营业时间：",
    "phone": ""
  },
  {
    "orgId": 184333676,
    "areaCode": "440307",
    "latitude": 22.6292,
    "longitude": 114.217,
    "orgName": "FIVE BALL篮球馆",
    "orgAddr": "广东省深圳市龙岗区富康路",
    "note": "",
    "tags": [
      {
        "value": "评分：-",
        "type": 2
      },
      {
        "value": "室内",
        "type": 1
      },
      {
        "value": "塑料地板",
        "type": 1
      }
    ],
    "desc": "营业时间：周一至周五 12:00-22:00  周六,周日 09:00-22:00",
    "phone": ""
  },
  {
    "orgId": 154076747,
    "areaCode": "440304",
    "latitude": 22.5535,
    "longitude": 114.0702,
    "orgName": "莲花一村篮球场",
    "orgAddr": "广东省深圳市福田区笋岗路",
    "note": "",
    "tags": [
      {
        "value": "评分：-",
        "type": 2
      }
    ],
    "desc": "营业时间：周一至周日 07:00-22:00",
    "phone": ""
  },
  {
    "orgId": 837461633,
    "areaCode": "440306",
    "latitude": 22.6324,
    "longitude": 113.8349,
    "orgName": "后瑞社区篮球场",
    "orgAddr": "广东省深圳市宝安区新瑞路",
    "note": "",
    "tags": [
      {
        "value": "评分：-",
        "type": 2
      }
    ],
    "desc": "营业时间：周一至周日 07:00-22:00",
    "phone": ""
  },
  {
    "orgId": 921318695,
    "areaCode": "440307",
    "latitude": 22.5923,
    "longitude": 114.132,
    "orgName": "酷里国际明星篮球学院（万象汇店）",
    "orgAddr": "广东省深圳市龙岗区翔鸽路",
    "note": "",
    "tags": [
      {
        "value": "评分：3",
        "type": 2
      }
    ],
    "desc": "营业时间：周一至周日 10:00-22:00",
    "phone": ""
  },
  {
    "orgId": 539309910,
    "areaCode": "440309",
    "latitude": 22.6253,
    "longitude": 114.0223,
    "orgName": "关键球员·室内篮球培训（龙华红山馆）",
    "orgAddr": "广东省深圳市龙华区中梅路",
    "note": "",
    "tags": [
      {
        "value": "评分：3",
        "type": 2
      },
      {
        "value": "免费WiFi",
        "type": 1
      }
    ],
    "desc": "营业时间：周二至周五 14:30-21:00  周六,周日 09:00-21:00",
    "phone": ""
  },
  {
    "orgId": 1232489879,
    "areaCode": "440309",
    "latitude": 22.678,
    "longitude": 113.9889,
    "orgName": "乐里天台篮球场（大浪店）",
    "orgAddr": "广东省深圳市龙华区华兴路",
    "note": "",
    "tags": [
      {
        "value": "评分：-",
        "type": 2
      }
    ],
    "desc": "营业时间：",
    "phone": ""
  },
  {
    "orgId": 1090362190,
    "areaCode": "440308",
    "latitude": 22.5855,
    "longitude": 114.2642,
    "orgName": "龙猫篮球（御景店）",
    "orgAddr": "广东省深圳市盐田区洪安三街32号",
    "note": "",
    "tags": [
      {
        "value": "评分：-",
        "type": 2
      }
    ],
    "desc": "营业时间：周一至周日 10:00-22:00",
    "phone": ""
  },
  {
    "orgId": 171472717,
    "areaCode": "440304",
    "latitude": 22.5232,
    "longitude": 114.0516,
    "orgName": "大宇篮球训练营（石厦店）",
    "orgAddr": "广东省深圳市福田区福民路147号",
    "note": "",
    "tags": [
      {
        "value": "评分：-",
        "type": 2
      }
    ],
    "desc": "营业时间：周一至周日 08:30-20:00",
    "phone": ""
  },
  {
    "orgId": 154048914,
    "areaCode": "440307",
    "latitude": 22.626,
    "longitude": 114.1031,
    "orgName": "上水径篮球场",
    "orgAddr": "广东省深圳市龙岗区石场山路",
    "note": "",
    "tags": [
      {
        "value": "评分：-",
        "type": 2
      }
    ],
    "desc": "营业时间：周一至周日 9:00-22:00",
    "phone": ""
  },
  {
    "orgId": 73896450,
    "areaCode": "440305",
    "latitude": 22.5848,
    "longitude": 113.9536,
    "orgName": "深圳职业技术学院南门篮球场",
    "orgAddr": "广东省深圳市南山区沙河西路",
    "note": "",
    "tags": [
      {
        "value": "评分：-",
        "type": 2
      }
    ],
    "desc": "营业时间：周一至周日 06:00-24:00",
    "phone": ""
  },
  {
    "orgId": 41028076,
    "areaCode": "440307",
    "latitude": 22.5987,
    "longitude": 114.1386,
    "orgName": "悦动篮球馆（南岭店）",
    "orgAddr": "广东省深圳市龙岗区湖中路",
    "note": "",
    "tags": [
      {
        "value": "评分：-",
        "type": 2
      }
    ],
    "desc": "营业时间：周一至周日 09:00-23:00",
    "phone": ""
  },
  {
    "orgId": 154323714,
    "areaCode": "440307",
    "latitude": 22.6913,
    "longitude": 114.1149,
    "orgName": "辅岐路篮球场（22店）",
    "orgAddr": "广东省深圳市龙岗区辅岐路182号",
    "note": "",
    "tags": [
      {
        "value": "评分：-",
        "type": 2
      }
    ],
    "desc": "营业时间：",
    "phone": ""
  },
  {
    "orgId": 1784242868,
    "areaCode": "440306",
    "latitude": 22.6856,
    "longitude": 113.952,
    "orgName": "成长篮球（石岩馆）",
    "orgAddr": "广东省深圳市宝安区石观路",
    "note": "",
    "tags": [
      {
        "value": "评分：-",
        "type": 2
      }
    ],
    "desc": "营业时间：周一至周日 08:00-22:00",
    "phone": ""
  },
  {
    "orgId": 1442371094,
    "areaCode": "440307",
    "latitude": 22.6901,
    "longitude": 114.2835,
    "orgName": "宝龙篮球馆",
    "orgAddr": "广东省深圳市龙岗区高科大道65号",
    "note": "",
    "tags": [
      {
        "value": "评分：-",
        "type": 2
      }
    ],
    "desc": "营业时间：周六,周日 09:00-22:00  周一至周五 15:00-22:00",
    "phone": ""
  },
  {
    "orgId": 549526109,
    "areaCode": "440304",
    "latitude": 22.5422,
    "longitude": 114.0391,
    "orgName": "PW篮球公园（香梅路店）",
    "orgAddr": "广东省深圳市福田区香蜜南四街",
    "note": "",
    "tags": [
      {
        "value": "评分：-",
        "type": 2
      }
    ],
    "desc": "营业时间：周六,周日 08:00-22:00  周一至周五 15:00-22:00",
    "phone": ""
  },
  {
    "orgId": 1317197767,
    "areaCode": "440305",
    "latitude": 22.5578,
    "longitude": 113.9482,
    "orgName": "松坪山公园室外篮球场",
    "orgAddr": "广东省深圳市南山区朗祥二路",
    "note": "",
    "tags": [
      {
        "value": "评分：-",
        "type": 2
      }
    ],
    "desc": "营业时间：周一至周五 07:00-09:00 16:30-21:00  周六,周日 07:00-21:00",
    "phone": ""
  },
  {
    "orgId": 71760812,
    "areaCode": "440305",
    "latitude": 22.549,
    "longitude": 113.9432,
    "orgName": "科兴科学园篮球场足球场",
    "orgAddr": "广东省深圳市南山区高新中一道",
    "note": "",
    "tags": [
      {
        "value": "评分：-",
        "type": 2
      }
    ],
    "desc": "营业时间：周一至周日 全天",
    "phone": ""
  },
  {
    "orgId": 1260434521,
    "areaCode": "440310",
    "latitude": 22.706,
    "longitude": 114.3455,
    "orgName": "关键球员·室内篮球培训",
    "orgAddr": "广东省深圳市坪山区行政二路4-36号",
    "note": "",
    "tags": [
      {
        "value": "评分：3.5",
        "type": 2
      },
      {
        "value": "免费WiFi",
        "type": 1
      }
    ],
    "desc": "营业时间：周一,周二,周四,周五 14:30-21:00  周六,周日 09:00-21:00",
    "phone": ""
  },
  {
    "orgId": 84486134,
    "areaCode": "440304",
    "latitude": 22.5569,
    "longitude": 114.045,
    "orgName": "景田村篮球场",
    "orgAddr": "广东省深圳市福田区回雁路49号",
    "note": "",
    "tags": [
      {
        "value": "评分：-",
        "type": 2
      }
    ],
    "desc": "营业时间：周一至周日 08:00-22:00",
    "phone": ""
  },
  {
    "orgId": 153925240,
    "areaCode": "440311",
    "latitude": 22.7537,
    "longitude": 113.8992,
    "orgName": "石围篮球场",
    "orgAddr": "广东省深圳市光明区周家路",
    "note": "",
    "tags": [
      {
        "value": "评分：-",
        "type": 2
      }
    ],
    "desc": "营业时间：周一至周日 08:30-11:30 17:00-22:30",
    "phone": ""
  },
  {
    "orgId": 1181383413,
    "areaCode": "440307",
    "latitude": 22.5918,
    "longitude": 114.1323,
    "orgName": "酷里体育（布吉万象汇店）",
    "orgAddr": "广东省深圳市龙岗区南环路",
    "note": "",
    "tags": [
      {
        "value": "评分：-",
        "type": 2
      }
    ],
    "desc": "营业时间：周一至周日 09:00-12:00 14:00-22:00",
    "phone": ""
  },
  {
    "orgId": 1341028971,
    "areaCode": "440305",
    "latitude": 22.5961,
    "longitude": 113.9915,
    "orgName": "深圳大学室内篮球场",
    "orgAddr": "广东省深圳市南山区科研环路",
    "note": "",
    "tags": [
      {
        "value": "评分：-",
        "type": 2
      }
    ],
    "desc": "营业时间：",
    "phone": ""
  },
  {
    "orgId": 1940954179,
    "areaCode": "440311",
    "latitude": 22.7582,
    "longitude": 113.9432,
    "orgName": "莱德队长少儿篮球+体适能+跳绳（光明广场校区）",
    "orgAddr": "广东省深圳市光明区光翠路南10-21号",
    "note": "",
    "tags": [
      {
        "value": "评分：3",
        "type": 2
      }
    ],
    "desc": "营业时间：周二至周五 14:00-20:00  周六,周日 09:00-20:00",
    "phone": ""
  },
  {
    "orgId": 539194975,
    "areaCode": "440309",
    "latitude": 22.6728,
    "longitude": 113.994,
    "orgName": "星奥篮球培训（大浪校区）",
    "orgAddr": "广东省深圳市龙华区华繁路66号",
    "note": "",
    "tags": [
      {
        "value": "评分：-",
        "type": 2
      }
    ],
    "desc": "营业时间：周二至周日 10:00-21:30",
    "phone": ""
  },
  {
    "orgId": 763113801,
    "areaCode": "440311",
    "latitude": 22.791,
    "longitude": 113.8951,
    "orgName": "顶峰篮球俱乐部",
    "orgAddr": "广东省深圳市光明区长利路",
    "note": "",
    "tags": [
      {
        "value": "评分：-",
        "type": 2
      }
    ],
    "desc": "营业时间：周一至周日 15:00-22:30",
    "phone": ""
  },
  {
    "orgId": 1960258361,
    "areaCode": "440306",
    "latitude": 22.5742,
    "longitude": 113.9215,
    "orgName": "SouthPark南方公园篮球场",
    "orgAddr": "广东省深圳市宝安区留仙一路",
    "note": "",
    "tags": [
      {
        "value": "评分：-",
        "type": 2
      }
    ],
    "desc": "营业时间：周一至周五 16:00-22:00  周六,周日 10:00-22:00",
    "phone": ""
  },
  {
    "orgId": 1681169081,
    "areaCode": "440309",
    "latitude": 22.6416,
    "longitude": 114.0076,
    "orgName": "龙胜Q-PARK 篮球馆",
    "orgAddr": "广东省深圳市龙华区龙华和平路",
    "note": "",
    "tags": [
      {
        "value": "评分：-",
        "type": 2
      }
    ],
    "desc": "营业时间：周一至周日 09:00-22:30",
    "phone": ""
  },
  {
    "orgId": 1808561747,
    "areaCode": "440310",
    "latitude": 22.7306,
    "longitude": 114.3839,
    "orgName": "态度篮球（嘉邻中心店）",
    "orgAddr": "广东省深圳市坪山区聚龙山B路",
    "note": "",
    "tags": [
      {
        "value": "评分：-",
        "type": 2
      }
    ],
    "desc": "营业时间：周一至周日 08:30-22:00",
    "phone": ""
  },
  {
    "orgId": 86641826,
    "areaCode": "440308",
    "latitude": 22.5546,
    "longitude": 114.2327,
    "orgName": "叶屋村篮球场",
    "orgAddr": "广东省深圳市盐田区叶屋东街28号",
    "note": "",
    "tags": [
      {
        "value": "评分：-",
        "type": 2
      }
    ],
    "desc": "营业时间：",
    "phone": ""
  },
  {
    "orgId": 85694855,
    "areaCode": "440305",
    "latitude": 22.5346,
    "longitude": 113.9283,
    "orgName": "荔香公园篮球场",
    "orgAddr": "广东省深圳市南山区南光路",
    "note": "",
    "tags": [
      {
        "value": "评分：-",
        "type": 2
      }
    ],
    "desc": "营业时间：",
    "phone": ""
  },
  {
    "orgId": 675071954,
    "areaCode": "440307",
    "latitude": 22.7664,
    "longitude": 114.3086,
    "orgName": "星火体育篮球羽毛球培训中心（坪地店）",
    "orgAddr": "广东省深圳市龙岗区泰和路2号126号",
    "note": "",
    "tags": [
      {
        "value": "评分：-",
        "type": 2
      },
      {
        "value": "室内",
        "type": 1
      },
      {
        "value": "塑料地板",
        "type": 1
      }
    ],
    "desc": "营业时间：周一至周日 10:00-22:00",
    "phone": ""
  },
  {
    "orgId": 1851166477,
    "areaCode": "440309",
    "latitude": 22.6298,
    "longitude": 114.0381,
    "orgName": "生涯体育Q-park篮球公园",
    "orgAddr": "广东省深圳市龙华区布龙路779-18号",
    "note": "",
    "tags": [
      {
        "value": "评分：-",
        "type": 2
      }
    ],
    "desc": "营业时间：周一至周日 09:00-22:30",
    "phone": ""
  },
  {
    "orgId": 1707643116,
    "areaCode": "440305",
    "latitude": 22.5882,
    "longitude": 113.984,
    "orgName": "高比篮球俱乐部",
    "orgAddr": "广东省深圳市南山区朗业一路",
    "note": "",
    "tags": [
      {
        "value": "评分：-",
        "type": 2
      }
    ],
    "desc": "营业时间：",
    "phone": ""
  },
  {
    "orgId": 693108384,
    "areaCode": "440307",
    "latitude": 22.6328,
    "longitude": 114.0595,
    "orgName": "关键球员篮球俱乐部",
    "orgAddr": "广东省深圳市龙岗区和西街35号",
    "note": "",
    "tags": [
      {
        "value": "评分：3",
        "type": 2
      }
    ],
    "desc": "营业时间：周六,周日 09:00-21:00  周二至周五 14:30-21:00",
    "phone": ""
  },
  {
    "orgId": 594505478,
    "areaCode": "440309",
    "latitude": 22.6364,
    "longitude": 114.0139,
    "orgName": "关键球员·室内少儿篮球培训（上塘校区）",
    "orgAddr": "广东省深圳市龙华区简上路",
    "note": "",
    "tags": [
      {
        "value": "评分：3",
        "type": 2
      }
    ],
    "desc": "营业时间：周六,周日 09:00-21:00  周二至周五 14:30-21:00",
    "phone": ""
  },
  {
    "orgId": 182457470,
    "areaCode": "440309",
    "latitude": 22.6949,
    "longitude": 114.0491,
    "orgName": "顶峰篮球训练基地（观澜天虹店）",
    "orgAddr": "广东省深圳市龙华区大和路",
    "note": "",
    "tags": [
      {
        "value": "评分：-",
        "type": 2
      }
    ],
    "desc": "营业时间：周一至周日 14:00-22:00",
    "phone": ""
  },
  {
    "orgId": 1775933804,
    "areaCode": "440307",
    "latitude": 22.651,
    "longitude": 114.1172,
    "orgName": "塞兔科技篮球场",
    "orgAddr": "广东省深圳市龙岗区甘李六路",
    "note": "",
    "tags": [
      {
        "value": "评分：-",
        "type": 2
      }
    ],
    "desc": "营业时间：",
    "phone": ""
  },
  {
    "orgId": 165717009,
    "areaCode": "440307",
    "latitude": 22.7351,
    "longitude": 114.2373,
    "orgName": "龙飞篮球（回龙埔校区）",
    "orgAddr": "广东省深圳市龙岗区龙埔路76-1号",
    "note": "",
    "tags": [
      {
        "value": "评分：-",
        "type": 2
      }
    ],
    "desc": "营业时间：周一至周日 全天",
    "phone": ""
  },
  {
    "orgId": 1262721331,
    "areaCode": "440305",
    "latitude": 22.5425,
    "longitude": 113.9122,
    "orgName": "创业广场篮球场·网球场",
    "orgAddr": "广东省深圳市南山区深南大道",
    "note": "",
    "tags": [
      {
        "value": "评分：-",
        "type": 2
      },
      {
        "value": "可淋浴",
        "type": 1
      },
      {
        "value": "储物柜",
        "type": 1
      }
    ],
    "desc": "营业时间：周一至周日 06:00-22:30",
    "phone": ""
  },
  {
    "orgId": 154052741,
    "areaCode": "440306",
    "latitude": 22.582,
    "longitude": 113.9165,
    "orgName": "篮球场",
    "orgAddr": "广东省深圳市宝安区留仙二路二巷1号",
    "note": "",
    "tags": [
      {
        "value": "评分：-",
        "type": 2
      }
    ],
    "desc": "营业时间：周一至周日 09:00-22:00",
    "phone": ""
  },
  {
    "orgId": 77521700,
    "areaCode": "440305",
    "latitude": 22.5427,
    "longitude": 113.9919,
    "orgName": "南山中航沙河篮球场足球场（侨城北店）",
    "orgAddr": "广东省深圳市南山区侨香路",
    "note": "",
    "tags": [
      {
        "value": "评分：-",
        "type": 2
      }
    ],
    "desc": "营业时间：周一至周日 08:00-23:00",
    "phone": ""
  },
  {
    "orgId": 1008997669,
    "areaCode": "440305",
    "latitude": 22.49,
    "longitude": 113.9424,
    "orgName": "吉动体育",
    "orgAddr": "广东省深圳市南山区中心路深圳湾段1104号",
    "note": "",
    "tags": [
      {
        "value": "评分：-",
        "type": 2
      }
    ],
    "desc": "营业时间：周一至周日 10:00-22:00",
    "phone": ""
  },
  {
    "orgId": 159915010,
    "areaCode": "440309",
    "latitude": 22.6891,
    "longitude": 114.0383,
    "orgName": "顶峰篮球俱乐部",
    "orgAddr": "广东省深圳市龙华区田茜路",
    "note": "",
    "tags": [
      {
        "value": "评分：-",
        "type": 2
      },
      {
        "value": "室内 室外",
        "type": 1
      },
      {
        "value": "木质地板",
        "type": 1
      }
    ],
    "desc": "营业时间：周一至周日 09:00-22:00",
    "phone": ""
  },
  {
    "orgId": 1183771177,
    "areaCode": "440305",
    "latitude": 22.542,
    "longitude": 113.9423,
    "orgName": "科技园顶峰篮球培训",
    "orgAddr": "广东省深圳市南山区科技中三路",
    "note": "",
    "tags": [
      {
        "value": "评分：3.5",
        "type": 2
      }
    ],
    "desc": "营业时间：周五至周日 09:00-18:00",
    "phone": ""
  },
  {
    "orgId": 914965566,
    "areaCode": "440306",
    "latitude": 22.7651,
    "longitude": 113.8575,
    "orgName": "阳光体育篮球馆",
    "orgAddr": "广东省深圳市宝安区楼岗大道29-8号",
    "note": "",
    "tags": [
      {
        "value": "评分：-",
        "type": 2
      }
    ],
    "desc": "营业时间：周一至周日 全天",
    "phone": ""
  },
  {
    "orgId": 1431500405,
    "areaCode": "440306",
    "latitude": 22.7844,
    "longitude": 113.8335,
    "orgName": "巨星少儿篮球训练中心",
    "orgAddr": "广东省深圳市宝安区艺展四路",
    "note": "",
    "tags": [
      {
        "value": "评分：3.5",
        "type": 2
      }
    ],
    "desc": "营业时间：周一至周日 10:00-20:30",
    "phone": ""
  },
  {
    "orgId": 719551010,
    "areaCode": "440306",
    "latitude": 22.5717,
    "longitude": 113.872,
    "orgName": "麻布社区篮球场",
    "orgAddr": "广东省深圳市宝安区海城路",
    "note": "",
    "tags": [
      {
        "value": "评分：-",
        "type": 2
      }
    ],
    "desc": "营业时间：",
    "phone": ""
  },
  {
    "orgId": 502311411,
    "areaCode": "440304",
    "latitude": 22.5438,
    "longitude": 114.0194,
    "orgName": "青年王朝篮球俱乐部（福田香榭里花园校区）",
    "orgAddr": "广东省深圳市福田区农轩路",
    "note": "",
    "tags": [
      {
        "value": "评分：3.5",
        "type": 2
      }
    ],
    "desc": "营业时间：周一至周日 10:00-22:00",
    "phone": ""
  },
  {
    "orgId": 1731522402,
    "areaCode": "440307",
    "latitude": 22.5952,
    "longitude": 114.1259,
    "orgName": "众心文体向蓝篮球馆（礼信中心店）",
    "orgAddr": "广东省深圳市龙岗区罗岗路76号",
    "note": "",
    "tags": [
      {
        "value": "评分：-",
        "type": 2
      }
    ],
    "desc": "营业时间：",
    "phone": ""
  },
  {
    "orgId": 1415986660,
    "areaCode": "440309",
    "latitude": 22.6615,
    "longitude": 114.0243,
    "orgName": "锦绣新村篮球场",
    "orgAddr": "广东省深圳市龙华区东环一路",
    "note": "",
    "tags": [
      {
        "value": "评分：-",
        "type": 2
      }
    ],
    "desc": "营业时间：",
    "phone": ""
  },
  {
    "orgId": 909997935,
    "areaCode": "440305",
    "latitude": 22.5979,
    "longitude": 113.9911,
    "orgName": "深大丽湖风雨篮球场",
    "orgAddr": "广东省深圳市南山区科研环路",
    "note": "",
    "tags": [
      {
        "value": "评分：-",
        "type": 2
      }
    ],
    "desc": "营业时间：周一至周日 全天",
    "phone": ""
  },
  {
    "orgId": 791568682,
    "areaCode": "440305",
    "latitude": 22.4855,
    "longitude": 113.9145,
    "orgName": "海洋篮球场",
    "orgAddr": "广东省深圳市南山区太子路",
    "note": "",
    "tags": [
      {
        "value": "评分：3.5",
        "type": 2
      }
    ],
    "desc": "营业时间：周一至周日 10:00-22:00",
    "phone": ""
  },
  {
    "orgId": 1492080979,
    "areaCode": "440307",
    "latitude": 22.5936,
    "longitude": 114.1263,
    "orgName": "关键球员·室内篮球培训（布心校区）",
    "orgAddr": "广东省深圳市龙岗区荣华路31号",
    "note": "",
    "tags": [
      {
        "value": "评分：3",
        "type": 2
      }
    ],
    "desc": "营业时间：周六,周日 09:00-21:00  周二至周五 14:30-21:00",
    "phone": ""
  },
  {
    "orgId": 1560082192,
    "areaCode": "440307",
    "latitude": 22.6099,
    "longitude": 114.1407,
    "orgName": "跃锋体育青少儿篮球",
    "orgAddr": "广东省深圳市龙岗区中翠路32号",
    "note": "",
    "tags": [
      {
        "value": "评分：3",
        "type": 2
      }
    ],
    "desc": "营业时间：周一至周日 全天",
    "phone": ""
  },
  {
    "orgId": 1197427097,
    "areaCode": "440306",
    "latitude": 22.5889,
    "longitude": 113.8943,
    "orgName": "BABYUP星动篮球（西乡校区）",
    "orgAddr": "广东省深圳市宝安区锦和路",
    "note": "",
    "tags": [
      {
        "value": "评分：3.5",
        "type": 2
      }
    ],
    "desc": "营业时间：周一至周日 10:00-20:00",
    "phone": ""
  },
  {
    "orgId": 1741800463,
    "areaCode": "440309",
    "latitude": 22.6435,
    "longitude": 114.0133,
    "orgName": "佑佑少儿篮球（龙华和平里店）",
    "orgAddr": "广东省深圳市龙华区布龙路",
    "note": "",
    "tags": [
      {
        "value": "评分：3",
        "type": 2
      }
    ],
    "desc": "营业时间：周六,周日 08:00-20:00  周一至周五 15:00-20:00",
    "phone": ""
  },
  {
    "orgId": 1711213820,
    "areaCode": "440305",
    "latitude": 22.5502,
    "longitude": 113.9387,
    "orgName": "纪元体育高新篮球场",
    "orgAddr": "广东省深圳市南山区高新中一道",
    "note": "",
    "tags": [
      {
        "value": "评分：-",
        "type": 2
      },
      {
        "value": "室外",
        "type": 1
      }
    ],
    "desc": "营业时间：周六,周日 09:00-12:00 14:00-22:00  周一至周五 16:00-22:00",
    "phone": ""
  },
  {
    "orgId": 1058464457,
    "areaCode": "440305",
    "latitude": 22.5341,
    "longitude": 113.9228,
    "orgName": "关键球员·室内篮球培训（南山桃园七巧国馆）",
    "orgAddr": "广东省深圳市南山区金鸡路1-16号",
    "note": "",
    "tags": [
      {
        "value": "评分：3",
        "type": 2
      },
      {
        "value": "免费WiFi",
        "type": 1
      }
    ],
    "desc": "营业时间：周二至周五 14:30-21:00  周六,周日 09:00-21:00",
    "phone": ""
  },
  {
    "orgId": 565007424,
    "areaCode": "440309",
    "latitude": 22.6333,
    "longitude": 114.0329,
    "orgName": "深诺青少年篮球俱乐部（龙华校区）",
    "orgAddr": "广东省深圳市龙华区布龙路1010号",
    "note": "",
    "tags": [
      {
        "value": "评分：3",
        "type": 2
      },
      {
        "value": "有淋浴间",
        "type": 1
      },
      {
        "value": "有充电宝",
        "type": 1
      },
      {
        "value": "免费WiFi",
        "type": 1
      }
    ],
    "desc": "营业时间：周六,周日 08:00-22:00  周一至周五 14:00-22:00",
    "phone": ""
  },
  {
    "orgId": 1893044897,
    "areaCode": "440304",
    "latitude": 22.5674,
    "longitude": 114.0424,
    "orgName": "东方启明星篮球培训（梅香校区）",
    "orgAddr": "广东省深圳市福田区梅怡路",
    "note": "",
    "tags": [
      {
        "value": "评分：3",
        "type": 2
      }
    ],
    "desc": "营业时间：",
    "phone": ""
  },
  {
    "orgId": 985355133,
    "areaCode": "440303",
    "latitude": 22.563,
    "longitude": 114.1088,
    "orgName": "好百年天台花园篮球场",
    "orgAddr": "广东省深圳市罗湖区宝安北路3019号",
    "note": "",
    "tags": [
      {
        "value": "评分：-",
        "type": 2
      }
    ],
    "desc": "营业时间：周一至周日 10:00-22:00",
    "phone": ""
  },
  {
    "orgId": 1990642082,
    "areaCode": "440307",
    "latitude": 22.627,
    "longitude": 114.0862,
    "orgName": "詹姆斯天空之镜篮球场",
    "orgAddr": "广东省深圳市龙岗区布龙路",
    "note": "",
    "tags": [
      {
        "value": "评分：-",
        "type": 2
      }
    ],
    "desc": "",
    "phone": ""
  },
  {
    "orgId": 596517435,
    "areaCode": "440304",
    "latitude": 22.5635,
    "longitude": 114.0604,
    "orgName": "精神时间屋",
    "orgAddr": "广东省深圳市福田区奥士达路4号",
    "note": "",
    "tags": [
      {
        "value": "评分：4.6",
        "type": 2
      }
    ],
    "desc": "营业时间：",
    "phone": ""
  },
  {
    "orgId": 73333831,
    "areaCode": "440305",
    "latitude": 22.5468,
    "longitude": 113.9412,
    "orgName": "总裁篮球俱乐部",
    "orgAddr": "广东省深圳市南山区科技中三路",
    "note": "",
    "tags": [
      {
        "value": "评分：-",
        "type": 2
      }
    ],
    "desc": "营业时间：周一至周日 09:00-21:00",
    "phone": ""
  },
  {
    "orgId": 1671499194,
    "areaCode": "440305",
    "latitude": 22.5867,
    "longitude": 113.9291,
    "orgName": "万竞老兵篮球场（A区）",
    "orgAddr": "广东省深圳市南山区留仙村路20号",
    "note": "",
    "tags": [
      {
        "value": "评分：-",
        "type": 2
      }
    ],
    "desc": "营业时间：周一至周日 16:00-23:00",
    "phone": ""
  },
  {
    "orgId": 85702317,
    "areaCode": "440311",
    "latitude": 22.7337,
    "longitude": 113.8933,
    "orgName": "宏发高新产业园篮球场",
    "orgAddr": "广东省深圳市光明区光明大道",
    "note": "",
    "tags": [
      {
        "value": "评分：-",
        "type": 2
      }
    ],
    "desc": "营业时间：周一至周日 09:00-22:00",
    "phone": ""
  },
  {
    "orgId": 1803262231,
    "areaCode": "440306",
    "latitude": 22.6851,
    "longitude": 113.8076,
    "orgName": "篮球场小店（维客佳桥头店）",
    "orgAddr": "广东省深圳市宝安区桥荣路26号",
    "note": "",
    "tags": [
      {
        "value": "评分：-",
        "type": 2
      }
    ],
    "desc": "营业时间：",
    "phone": ""
  },
  {
    "orgId": 935995917,
    "areaCode": "440304",
    "latitude": 22.5164,
    "longitude": 114.0533,
    "orgName": "篮果动少儿篮球运动馆",
    "orgAddr": "广东省深圳市福田区福强路3004-2号",
    "note": "",
    "tags": [
      {
        "value": "评分：3",
        "type": 2
      }
    ],
    "desc": "营业时间：周一至周日 10:00-22:00",
    "phone": ""
  },
  {
    "orgId": 77126787,
    "areaCode": "440305",
    "latitude": 22.5468,
    "longitude": 113.9506,
    "orgName": "科苑篮球场",
    "orgAddr": "广东省深圳市南山区青梧路3号",
    "note": "",
    "tags": [
      {
        "value": "评分：-",
        "type": 2
      }
    ],
    "desc": "营业时间：",
    "phone": ""
  },
  {
    "orgId": 1116112602,
    "areaCode": "440305",
    "latitude": 22.5862,
    "longitude": 113.9632,
    "orgName": "训美篮球学院",
    "orgAddr": "广东省深圳市南山区平山一路",
    "note": "",
    "tags": [
      {
        "value": "评分：3",
        "type": 2
      }
    ],
    "desc": "营业时间：周一至周日 10:00-22:00",
    "phone": ""
  },
  {
    "orgId": 1955231179,
    "areaCode": "440305",
    "latitude": 22.4955,
    "longitude": 113.9158,
    "orgName": "大宇篮球（鸣溪谷校区）",
    "orgAddr": "广东省深圳市南山区工业六路21号",
    "note": "",
    "tags": [
      {
        "value": "评分：-",
        "type": 2
      }
    ],
    "desc": "营业时间：周一至周日 08:30-21:00",
    "phone": ""
  },
  {
    "orgId": 87517869,
    "areaCode": "440304",
    "latitude": 22.5588,
    "longitude": 114.0645,
    "orgName": "公交大厦篮球场",
    "orgAddr": "广东省深圳市福田区莲花支路1019-5号",
    "note": "",
    "tags": [
      {
        "value": "评分：-",
        "type": 2
      }
    ],
    "desc": "营业时间：",
    "phone": ""
  },
  {
    "orgId": 911269940,
    "areaCode": "440309",
    "latitude": 22.6449,
    "longitude": 114.0469,
    "orgName": "精英篮球公园",
    "orgAddr": "广东省深圳市龙华区油松路",
    "note": "",
    "tags": [
      {
        "value": "评分：-",
        "type": 2
      }
    ],
    "desc": "营业时间：周一至周日 10:00-22:00",
    "phone": ""
  },
  {
    "orgId": 508703468,
    "areaCode": "440309",
    "latitude": 22.6196,
    "longitude": 114.0321,
    "orgName": "民旺天桥篮球场",
    "orgAddr": "广东省深圳市龙华区白松一路",
    "note": "",
    "tags": [
      {
        "value": "评分：-",
        "type": 2
      }
    ],
    "desc": "营业时间：",
    "phone": ""
  },
  {
    "orgId": 642303397,
    "areaCode": "440307",
    "latitude": 22.6463,
    "longitude": 114.1833,
    "orgName": "PT猛虎出笼天台篮球场",
    "orgAddr": "广东省深圳市龙岗区埔厦路",
    "note": "",
    "tags": [
      {
        "value": "评分：-",
        "type": 2
      }
    ],
    "desc": "营业时间：周一至周日 15:00-22:30",
    "phone": ""
  },
  {
    "orgId": 634976729,
    "areaCode": "440306",
    "latitude": 22.6792,
    "longitude": 113.826,
    "orgName": "蔓延篮球",
    "orgAddr": "广东省深圳市宝安区温馨路",
    "note": "",
    "tags": [
      {
        "value": "评分：-",
        "type": 2
      }
    ],
    "desc": "营业时间：周一至周日 10:00-22:00",
    "phone": ""
  },
  {
    "orgId": 658919895,
    "areaCode": "440303",
    "latitude": 22.5781,
    "longitude": 114.1272,
    "orgName": "酷里国际明星篮球学院（C33创意园校区）",
    "orgAddr": "广东省深圳市罗湖区翠竹北路33号",
    "note": "",
    "tags": [
      {
        "value": "评分：3",
        "type": 2
      }
    ],
    "desc": "营业时间：",
    "phone": ""
  },
  {
    "orgId": 1790782137,
    "areaCode": "440304",
    "latitude": 22.5631,
    "longitude": 114.0528,
    "orgName": "荣耀篮球（梅林生活中心店）",
    "orgAddr": "广东省深圳市福田区北环大道",
    "note": "",
    "tags": [
      {
        "value": "评分：-",
        "type": 2
      }
    ],
    "desc": "营业时间：",
    "phone": ""
  },
  {
    "orgId": 881888508,
    "areaCode": "440305",
    "latitude": 22.5301,
    "longitude": 113.9202,
    "orgName": "育尚篮球",
    "orgAddr": "广东省深圳市南山区常兴一街",
    "note": "",
    "tags": [
      {
        "value": "评分：-",
        "type": 2
      }
    ],
    "desc": "营业时间：周一至周日 09:00-21:00",
    "phone": ""
  },
  {
    "orgId": 1390474115,
    "areaCode": "440309",
    "latitude": 22.6475,
    "longitude": 114.0334,
    "orgName": "火恩斯青少儿篮球训练培训",
    "orgAddr": "广东省深圳市龙华区鸿荣路",
    "note": "",
    "tags": [
      {
        "value": "评分：4.4",
        "type": 2
      },
      {
        "value": "有储物柜",
        "type": 1
      },
      {
        "value": "有充电宝",
        "type": 1
      },
      {
        "value": "免费WiFi",
        "type": 1
      }
    ],
    "desc": "营业时间：周一至周五 14:30-21:00  周六,周日 09:30-21:00",
    "phone": ""
  },
  {
    "orgId": 1741571944,
    "areaCode": "440306",
    "latitude": 22.6722,
    "longitude": 113.7992,
    "orgName": "篮球场",
    "orgAddr": "广东省深圳市宝安区桥新路",
    "note": "",
    "tags": [
      {
        "value": "评分：-",
        "type": 2
      }
    ],
    "desc": "营业时间：",
    "phone": ""
  },
  {
    "orgId": 76738961,
    "areaCode": "440307",
    "latitude": 22.7294,
    "longitude": 114.2805,
    "orgName": "龙岗篮球馆",
    "orgAddr": "广东省深圳市龙岗区桥南街129-10号",
    "note": "",
    "tags": [
      {
        "value": "评分：-",
        "type": 2
      }
    ],
    "desc": "营业时间：",
    "phone": ""
  },
  {
    "orgId": 1548606676,
    "areaCode": "440305",
    "latitude": 22.5674,
    "longitude": 113.92,
    "orgName": "同乐体育公园篮球馆羽毛球B馆",
    "orgAddr": "广东省深圳市南山区四号路",
    "note": "",
    "tags": [
      {
        "value": "评分：-",
        "type": 2
      }
    ],
    "desc": "营业时间：周一至周日 09:00-22:00",
    "phone": ""
  },
  {
    "orgId": 1184047197,
    "areaCode": "440307",
    "latitude": 22.6644,
    "longitude": 114.1343,
    "orgName": "豪主帅篮球训练营",
    "orgAddr": "广东省深圳市龙岗区新木一路",
    "note": "",
    "tags": [
      {
        "value": "评分：-",
        "type": 2
      }
    ],
    "desc": "营业时间：周一至周日 09:00-17:00",
    "phone": ""
  },
  {
    "orgId": 634078211,
    "areaCode": "440305",
    "latitude": 22.5867,
    "longitude": 113.9294,
    "orgName": "大宇篮球",
    "orgAddr": "广东省深圳市南山区留仙村路2号",
    "note": "",
    "tags": [
      {
        "value": "评分：-",
        "type": 2
      }
    ],
    "desc": "营业时间：",
    "phone": ""
  },
  {
    "orgId": 1005546264,
    "areaCode": "440305",
    "latitude": 22.5812,
    "longitude": 113.9445,
    "orgName": "冠篮体育",
    "orgAddr": "广东省深圳市南山区留仙大道2088号",
    "note": "",
    "tags": [
      {
        "value": "评分：-",
        "type": 2
      }
    ],
    "desc": "营业时间：周一至周日 10:00-22:00",
    "phone": ""
  },
  {
    "orgId": 1542603115,
    "areaCode": "440305",
    "latitude": 22.4871,
    "longitude": 113.9382,
    "orgName": "浩哥篮球（澳城分馆）",
    "orgAddr": "广东省深圳市南山区蛇口新街",
    "note": "",
    "tags": [
      {
        "value": "评分：3",
        "type": 2
      }
    ],
    "desc": "营业时间：周一至周日 10:00-22:00",
    "phone": ""
  },
  {
    "orgId": 1576311150,
    "areaCode": "440309",
    "latitude": 22.6552,
    "longitude": 114.0043,
    "orgName": "虎贲篮球体育",
    "orgAddr": "广东省深圳市龙华区元芬路",
    "note": "",
    "tags": [
      {
        "value": "评分：-",
        "type": 2
      }
    ],
    "desc": "营业时间：周一至周五 18:00-22:30  周六,周日 08:00-22:30",
    "phone": ""
  },
  {
    "orgId": 1854471343,
    "areaCode": "440305",
    "latitude": 22.5194,
    "longitude": 113.9228,
    "orgName": "南油篮球场羽毛球场",
    "orgAddr": "广东省深圳市南山区南山大道1110号",
    "note": "",
    "tags": [
      {
        "value": "评分：-",
        "type": 2
      }
    ],
    "desc": "营业时间：周一至周日 09:00-23:00",
    "phone": ""
  },
  {
    "orgId": 77465178,
    "areaCode": "440306",
    "latitude": 22.5587,
    "longitude": 113.8844,
    "orgName": "深圳荣耀篮球训练营",
    "orgAddr": "广东省深圳市宝安区裕安一路",
    "note": "",
    "tags": [
      {
        "value": "评分：-",
        "type": 2
      }
    ],
    "desc": "营业时间：周一至周日 全天",
    "phone": ""
  },
  {
    "orgId": 91375413,
    "areaCode": "440305",
    "latitude": 22.4875,
    "longitude": 113.9237,
    "orgName": "顶峰篮球（蛇口店）",
    "orgAddr": "广东省深圳市南山区海昌街",
    "note": "",
    "tags": [
      {
        "value": "评分：-",
        "type": 2
      }
    ],
    "desc": "营业时间：周一至周日 10:00-22:00",
    "phone": ""
  },
  {
    "orgId": 1010818507,
    "areaCode": "440307",
    "latitude": 22.6525,
    "longitude": 114.0671,
    "orgName": "马蹄山篮球场",
    "orgAddr": "广东省深圳市龙岗区坂雪岗大道7-8号",
    "note": "",
    "tags": [
      {
        "value": "评分：-",
        "type": 2
      }
    ],
    "desc": "营业时间：",
    "phone": ""
  },
  {
    "orgId": 756649009,
    "areaCode": "440308",
    "latitude": 22.5585,
    "longitude": 114.2454,
    "orgName": "CBA领航者糖果篮球公园（盐田店）",
    "orgAddr": "广东省深圳市盐田区海山东三街",
    "note": "",
    "tags": [
      {
        "value": "评分：-",
        "type": 2
      }
    ],
    "desc": "营业时间：",
    "phone": ""
  },
  {
    "orgId": 185605234,
    "areaCode": "440306",
    "latitude": 22.5962,
    "longitude": 113.8853,
    "orgName": "企龙山篮球公园",
    "orgAddr": "广东省深圳市宝安区劬劳路",
    "note": "",
    "tags": [
      {
        "value": "评分：-",
        "type": 2
      }
    ],
    "desc": "营业时间：周一至周日 07:00-21:30",
    "phone": ""
  },
  {
    "orgId": 837690597,
    "areaCode": "440307",
    "latitude": 22.7176,
    "longitude": 114.2479,
    "orgName": "龙飞篮球培训（红立方校区）",
    "orgAddr": "广东省深圳市龙岗区三馆西路",
    "note": "",
    "tags": [
      {
        "value": "评分：-",
        "type": 2
      }
    ],
    "desc": "营业时间：周二至周日 09:00-19:00",
    "phone": ""
  },
  {
    "orgId": 1569562216,
    "areaCode": "440306",
    "latitude": 22.7293,
    "longitude": 113.8314,
    "orgName": "新桥中心公园-篮球场",
    "orgAddr": "广东省深圳市宝安区新沙路",
    "note": "",
    "tags": [
      {
        "value": "评分：-",
        "type": 2
      }
    ],
    "desc": "营业时间：",
    "phone": ""
  },
  {
    "orgId": 1309904299,
    "areaCode": "440309",
    "latitude": 22.6907,
    "longitude": 113.9959,
    "orgName": "新围篮球场",
    "orgAddr": "广东省深圳市龙华区华宁路",
    "note": "",
    "tags": [
      {
        "value": "评分：-",
        "type": 2
      }
    ],
    "desc": "营业时间：",
    "phone": ""
  },
  {
    "orgId": 559190487,
    "areaCode": "440305",
    "latitude": 22.5058,
    "longitude": 113.9283,
    "orgName": "南油文化广场篮球场",
    "orgAddr": "广东省深圳市南山区东滨路4号",
    "note": "",
    "tags": [
      {
        "value": "评分：-",
        "type": 2
      }
    ],
    "desc": "营业时间：周一至周日 09:00-22:00",
    "phone": ""
  },
  {
    "orgId": 73464443,
    "areaCode": "440306",
    "latitude": 22.6756,
    "longitude": 113.8239,
    "orgName": "白石厦篮球场",
    "orgAddr": "广东省深圳市宝安区白石厦二路",
    "note": "",
    "tags": [
      {
        "value": "评分：-",
        "type": 2
      }
    ],
    "desc": "营业时间：",
    "phone": ""
  },
  {
    "orgId": 827646305,
    "areaCode": "440309",
    "latitude": 22.6238,
    "longitude": 114.0392,
    "orgName": "柯比篮球",
    "orgAddr": "广东省深圳市龙华区民治大道346号",
    "note": "",
    "tags": [
      {
        "value": "评分：-",
        "type": 2
      }
    ],
    "desc": "营业时间：周六,周日 10:00-21:00  周二至周五 15:00-20:00",
    "phone": ""
  },
  {
    "orgId": 1760083308,
    "areaCode": "440307",
    "latitude": 22.6932,
    "longitude": 114.1175,
    "orgName": "小虎篮球少儿运动馆",
    "orgAddr": "广东省深圳市龙岗区岐阳路8-221号",
    "note": "",
    "tags": [
      {
        "value": "评分：-",
        "type": 2
      }
    ],
    "desc": "营业时间：周二至周日 14:00-22:00",
    "phone": ""
  },
  {
    "orgId": 826855241,
    "areaCode": "440306",
    "latitude": 22.6058,
    "longitude": 113.8452,
    "orgName": "极乐篮球俱乐部",
    "orgAddr": "广东省深圳市宝安区宝安大道",
    "note": "",
    "tags": [
      {
        "value": "评分：-",
        "type": 2
      }
    ],
    "desc": "营业时间：",
    "phone": ""
  },
  {
    "orgId": 943091704,
    "areaCode": "440305",
    "latitude": 22.5522,
    "longitude": 113.9805,
    "orgName": "深诺篮球",
    "orgAddr": "广东省深圳市南山区侨深路",
    "note": "",
    "tags": [
      {
        "value": "评分：-",
        "type": 2
      }
    ],
    "desc": "营业时间：",
    "phone": ""
  },
  {
    "orgId": 1641932135,
    "areaCode": "440309",
    "latitude": 22.6403,
    "longitude": 114.0234,
    "orgName": "呈谊体育篮球俱乐部",
    "orgAddr": "广东省深圳市龙华区龙胜路",
    "note": "",
    "tags": [
      {
        "value": "评分：-",
        "type": 2
      }
    ],
    "desc": "营业时间：周一至周日 09:00-22:00",
    "phone": ""
  },
  {
    "orgId": 972323823,
    "areaCode": "440309",
    "latitude": 22.6441,
    "longitude": 114.05,
    "orgName": "大人物篮球公园",
    "orgAddr": "广东省深圳市龙华区奋进路",
    "note": "",
    "tags": [
      {
        "value": "评分：-",
        "type": 2
      }
    ],
    "desc": "营业时间：周一至周日 10:00-22:00",
    "phone": ""
  },
  {
    "orgId": 908257213,
    "areaCode": "440307",
    "latitude": 22.5954,
    "longitude": 114.1301,
    "orgName": "万象汇篮球场",
    "orgAddr": "广东省深圳市龙岗区翔鸽路",
    "note": "",
    "tags": [
      {
        "value": "评分：-",
        "type": 2
      }
    ],
    "desc": "营业时间：周一至周日 09:00-22:00",
    "phone": ""
  },
  {
    "orgId": 948535820,
    "areaCode": "440305",
    "latitude": 22.5236,
    "longitude": 113.9108,
    "orgName": "GMF篮球馆",
    "orgAddr": "广东省深圳市南山区桂庙路116-1号",
    "note": "",
    "tags": [
      {
        "value": "评分：-",
        "type": 2
      }
    ],
    "desc": "营业时间：周一至周日 09:00-22:00",
    "phone": ""
  },
  {
    "orgId": 519274687,
    "areaCode": "440306",
    "latitude": 22.6056,
    "longitude": 113.8454,
    "orgName": "QT篮球俱乐部",
    "orgAddr": "广东省深圳市宝安区宝安大道",
    "note": "",
    "tags": [
      {
        "value": "评分：-",
        "type": 2
      }
    ],
    "desc": "营业时间：周一至周日 10:00-22:00",
    "phone": ""
  },
  {
    "orgId": 1565791967,
    "areaCode": "440307",
    "latitude": 22.647,
    "longitude": 114.1282,
    "orgName": "粤信城2期篮球场工地饭堂",
    "orgAddr": "广东省深圳市龙岗区下李北路",
    "note": "",
    "tags": [
      {
        "value": "评分：-",
        "type": 2
      }
    ],
    "desc": "营业时间：",
    "phone": ""
  },
  {
    "orgId": 1904380656,
    "areaCode": "440306",
    "latitude": 22.7371,
    "longitude": 113.8123,
    "orgName": "吉诺队长篮球俱乐部（沙井店）",
    "orgAddr": "广东省深圳市宝安区环镇路109号",
    "note": "",
    "tags": [
      {
        "value": "评分：-",
        "type": 2
      }
    ],
    "desc": "营业时间：周一至周日 10:00-22:00",
    "phone": ""
  },
  {
    "orgId": 967443630,
    "areaCode": "440304",
    "latitude": 22.5487,
    "longitude": 114.0872,
    "orgName": "康乐体育华强北室内青少年篮球",
    "orgAddr": "广东省深圳市福田区华强北路",
    "note": "",
    "tags": [
      {
        "value": "评分：3",
        "type": 2
      }
    ],
    "desc": "营业时间：周一至周日 10:00-22:00",
    "phone": ""
  },
  {
    "orgId": 1221778011,
    "areaCode": "440306",
    "latitude": 22.6965,
    "longitude": 113.8233,
    "orgName": "蔓延篮球训练营",
    "orgAddr": "广东省深圳市宝安区大洋田路",
    "note": "",
    "tags": [
      {
        "value": "评分：-",
        "type": 2
      }
    ],
    "desc": "营业时间：周一至周日 全天",
    "phone": ""
  },
  {
    "orgId": 1668364057,
    "areaCode": "440306",
    "latitude": 22.7157,
    "longitude": 113.8101,
    "orgName": "拓生体育篮球馆",
    "orgAddr": "广东省深圳市宝安区南环路327号",
    "note": "",
    "tags": [
      {
        "value": "评分：-",
        "type": 2
      }
    ],
    "desc": "营业时间：",
    "phone": ""
  },
  {
    "orgId": 1353021638,
    "areaCode": "440306",
    "latitude": 22.5607,
    "longitude": 113.8844,
    "orgName": "宝青篮球场足球场",
    "orgAddr": "广东省深圳市宝安区罗田路",
    "note": "",
    "tags": [
      {
        "value": "评分：-",
        "type": 2
      }
    ],
    "desc": "营业时间：周一至周日 10:00-22:00",
    "phone": ""
  },
  {
    "orgId": 691101223,
    "areaCode": "440303",
    "latitude": 22.5633,
    "longitude": 114.1691,
    "orgName": "关键球员（莲塘店）",
    "orgAddr": "广东省深圳市罗湖区聚宝路101-4号",
    "note": "",
    "tags": [
      {
        "value": "评分：-",
        "type": 2
      }
    ],
    "desc": "营业时间：周六,周日 09:00-20:30  周二至周五 02:30-20:30",
    "phone": ""
  },
  {
    "orgId": 1815048536,
    "areaCode": "440304",
    "latitude": 22.5315,
    "longitude": 114.025,
    "orgName": "星启点篮球俱乐部",
    "orgAddr": "广东省深圳市福田区泰然六路38号",
    "note": "",
    "tags": [
      {
        "value": "评分：-",
        "type": 2
      }
    ],
    "desc": "营业时间：周一至周日 10:00-22:00",
    "phone": ""
  },
  {
    "orgId": 1847628092,
    "areaCode": "440305",
    "latitude": 22.5332,
    "longitude": 113.9272,
    "orgName": "恶魔工厂篮球俱乐部",
    "orgAddr": "广东省深圳市南山区桃园路8-22号号",
    "note": "",
    "tags": [
      {
        "value": "评分：-",
        "type": 2
      }
    ],
    "desc": "营业时间：周一至周日 10:00-22:00",
    "phone": ""
  },
  {
    "orgId": 1814257188,
    "areaCode": "440306",
    "latitude": 22.5868,
    "longitude": 113.8621,
    "orgName": "旭生西发A区篮球场",
    "orgAddr": "广东省深圳市宝安区共和工业路",
    "note": "",
    "tags": [
      {
        "value": "评分：-",
        "type": 2
      }
    ],
    "desc": "营业时间：",
    "phone": ""
  },
  {
    "orgId": 1080775714,
    "areaCode": "440304",
    "latitude": 22.5525,
    "longitude": 114.0924,
    "orgName": "KLKS篮球运动馆",
    "orgAddr": "广东省深圳市福田区百花二路",
    "note": "",
    "tags": [
      {
        "value": "评分：-",
        "type": 2
      }
    ],
    "desc": "营业时间：",
    "phone": ""
  },
  {
    "orgId": 1763568386,
    "areaCode": "440306",
    "latitude": 22.7594,
    "longitude": 113.8647,
    "orgName": "松岗体育中心篮球场羽毛球场网球场",
    "orgAddr": "广东省深圳市宝安区岗顶路",
    "note": "",
    "tags": [
      {
        "value": "评分：-",
        "type": 2
      }
    ],
    "desc": "营业时间：周一至周日 06:00-23:00",
    "phone": ""
  },
  {
    "orgId": 1443892205,
    "areaCode": "440305",
    "latitude": 22.5548,
    "longitude": 113.9214,
    "orgName": "顶峰篮球俱乐部（南头店）",
    "orgAddr": "广东省深圳市南山区南农路",
    "note": "",
    "tags": [
      {
        "value": "评分：-",
        "type": 2
      }
    ],
    "desc": "营业时间：周一至周日 09:00-22:00",
    "phone": ""
  },
  {
    "orgId": 1955391410,
    "areaCode": "440305",
    "latitude": 22.4961,
    "longitude": 113.9303,
    "orgName": "纪元少儿篮球馆",
    "orgAddr": "广东省深圳市南山区爱榕路",
    "note": "",
    "tags": [
      {
        "value": "评分：3",
        "type": 2
      }
    ],
    "desc": "营业时间：周一至周日 10:00-22:00",
    "phone": ""
  },
  {
    "orgId": 946142654,
    "areaCode": "440304",
    "latitude": 22.5681,
    "longitude": 114.0688,
    "orgName": "正能量青少年篮球培训",
    "orgAddr": "广东省深圳市福田区梅林路9-2号",
    "note": "",
    "tags": [
      {
        "value": "评分：-",
        "type": 2
      }
    ],
    "desc": "营业时间：周一至周日 10:00-22:00",
    "phone": ""
  },
  {
    "orgId": 1548521333,
    "areaCode": "440307",
    "latitude": 22.6472,
    "longitude": 114.1928,
    "orgName": "领头羊少儿篮球训练营",
    "orgAddr": "广东省深圳市龙岗区恒心路2-21号",
    "note": "",
    "tags": [
      {
        "value": "评分：-",
        "type": 2
      }
    ],
    "desc": "营业时间：周一至周日 10:00-22:00",
    "phone": ""
  },
  {
    "orgId": 1534226870,
    "areaCode": "440307",
    "latitude": 22.6383,
    "longitude": 114.0564,
    "orgName": "皮皮体育",
    "orgAddr": "广东省深圳市龙岗区泰山路",
    "note": "",
    "tags": [
      {
        "value": "评分：3",
        "type": 2
      }
    ],
    "desc": "营业时间：周一至周日 10:00-22:00",
    "phone": ""
  },
  {
    "orgId": 1513732861,
    "areaCode": "440306",
    "latitude": 22.6108,
    "longitude": 113.8434,
    "orgName": "卓程体育文化",
    "orgAddr": "广东省深圳市宝安区三围工业路",
    "note": "",
    "tags": [
      {
        "value": "评分：-",
        "type": 2
      }
    ],
    "desc": "营业时间：周一至周日 08:00-21:30",
    "phone": ""
  },
  {
    "orgId": 117385957,
    "areaCode": "440305",
    "latitude": 22.5555,
    "longitude": 113.9639,
    "orgName": "大沙河公园篮球场",
    "orgAddr": "广东省深圳市南山区欧环路",
    "note": "",
    "tags": [
      {
        "value": "评分：-",
        "type": 2
      }
    ],
    "desc": "营业时间：周一至周日 06:00-11:00 14:00-22:00",
    "phone": ""
  },
  {
    "orgId": 1027372183,
    "areaCode": "440305",
    "latitude": 22.523,
    "longitude": 113.9362,
    "orgName": "软基篮球场",
    "orgAddr": "广东省深圳市南山区海天二路",
    "note": "",
    "tags": [
      {
        "value": "评分：-",
        "type": 2
      }
    ],
    "desc": "营业时间：周一至周日 16:00-22:00",
    "phone": ""
  },
  {
    "orgId": 971976407,
    "areaCode": "440305",
    "latitude": 22.5575,
    "longitude": 113.9386,
    "orgName": "佳得乐鑫联华科技园篮羽馆",
    "orgAddr": "广东省深圳市南山区朗山路",
    "note": "",
    "tags": [
      {
        "value": "评分：-",
        "type": 2
      },
      {
        "value": "塑料地板",
        "type": 1
      }
    ],
    "desc": "营业时间：周一至周日 08:30-22:00",
    "phone": ""
  },
  {
    "orgId": 997399808,
    "areaCode": "440307",
    "latitude": 22.6797,
    "longitude": 114.1226,
    "orgName": "深圳市华南城星途篮球公园",
    "orgAddr": "广东省深圳市龙岗区平吉大道",
    "note": "",
    "tags": [
      {
        "value": "评分：-",
        "type": 2
      }
    ],
    "desc": "营业时间：周六,周日 08:30-23:00  周一至周五 10:00-22:30",
    "phone": ""
  },
  {
    "orgId": 1581314320,
    "areaCode": "440304",
    "latitude": 22.5057,
    "longitude": 114.0504,
    "orgName": "万利篮球场羽毛球场足球场",
    "orgAddr": "广东省深圳市福田区红柳道51号",
    "note": "",
    "tags": [
      {
        "value": "评分：-",
        "type": 2
      }
    ],
    "desc": "营业时间：周一至周日 10:00-22:00",
    "phone": ""
  },
  {
    "orgId": 1620168713,
    "areaCode": "440306",
    "latitude": 22.6137,
    "longitude": 113.8455,
    "orgName": "篮球场",
    "orgAddr": "广东省深圳市宝安区三围中路34-1号",
    "note": "",
    "tags": [
      {
        "value": "评分：-",
        "type": 2
      }
    ],
    "desc": "营业时间：",
    "phone": ""
  },
  {
    "orgId": 1169909260,
    "areaCode": "440304",
    "latitude": 22.5033,
    "longitude": 114.0573,
    "orgName": "福宝新英足球篮球场",
    "orgAddr": "广东省深圳市福田区桃花路10号",
    "note": "",
    "tags": [
      {
        "value": "评分：-",
        "type": 2
      }
    ],
    "desc": "营业时间：周一至周日 10:00-22:00",
    "phone": ""
  },
  {
    "orgId": 1464261670,
    "areaCode": "440309",
    "latitude": 22.636,
    "longitude": 114.0159,
    "orgName": "青少年篮球",
    "orgAddr": "广东省深圳市龙华区民塘路519号",
    "note": "",
    "tags": [
      {
        "value": "评分：-",
        "type": 2
      }
    ],
    "desc": "营业时间：",
    "phone": ""
  },
  {
    "orgId": 1302557803,
    "areaCode": "440309",
    "latitude": 22.5999,
    "longitude": 114.0416,
    "orgName": "起航体育",
    "orgAddr": "广东省深圳市龙华区赤公坑路",
    "note": "",
    "tags": [
      {
        "value": "评分：-",
        "type": 2
      }
    ],
    "desc": "营业时间：",
    "phone": ""
  },
  {
    "orgId": 1284364752,
    "areaCode": "440307",
    "latitude": 22.6268,
    "longitude": 114.0824,
    "orgName": "启航远洋篮球训练",
    "orgAddr": "广东省深圳市龙岗区上段一巷2号",
    "note": "",
    "tags": [
      {
        "value": "评分：-",
        "type": 2
      }
    ],
    "desc": "营业时间：周一至周五 08:30-22:30  周六,周日 18:30-22:30",
    "phone": ""
  },
  {
    "orgId": 1446176856,
    "areaCode": "440303",
    "latitude": 22.5533,
    "longitude": 114.1049,
    "orgName": "领跑者篮球俱乐部",
    "orgAddr": "广东省深圳市罗湖区红岭中路",
    "note": "",
    "tags": [
      {
        "value": "评分：-",
        "type": 2
      }
    ],
    "desc": "营业时间：周一至周日 10:00-20:00",
    "phone": ""
  },
  {
    "orgId": 82124897,
    "areaCode": "440306",
    "latitude": 22.6721,
    "longitude": 113.8199,
    "orgName": "龙腾阁篮球场",
    "orgAddr": "广东省深圳市宝安区龙腾街105号",
    "note": "",
    "tags": [
      {
        "value": "评分：-",
        "type": 2
      }
    ],
    "desc": "营业时间：",
    "phone": ""
  },
  {
    "orgId": 1812642761,
    "areaCode": "440307",
    "latitude": 22.6948,
    "longitude": 114.2233,
    "orgName": "麒临球场",
    "orgAddr": "广东省深圳市龙岗区新丰路10号",
    "note": "",
    "tags": [
      {
        "value": "评分：-",
        "type": 2
      }
    ],
    "desc": "营业时间：周一至周日 10:00-22:00",
    "phone": ""
  },
  {
    "orgId": 1542227931,
    "areaCode": "440305",
    "latitude": 22.5335,
    "longitude": 113.9475,
    "orgName": "超新星篮球场",
    "orgAddr": "广东省深圳市南山区高新南七道7号",
    "note": "",
    "tags": [
      {
        "value": "评分：-",
        "type": 2
      }
    ],
    "desc": "营业时间：周一至周日 09:00-22:00",
    "phone": ""
  },
  {
    "orgId": 1251931321,
    "areaCode": "440309",
    "latitude": 22.6368,
    "longitude": 114.0078,
    "orgName": "华蒙星少儿篮球俱乐部（翔龙御庭校区）",
    "orgAddr": "广东省深圳市龙华区向荣路",
    "note": "",
    "tags": [
      {
        "value": "评分：5",
        "type": 2
      },
      {
        "value": "上门授课",
        "type": 1
      }
    ],
    "desc": "营业时间：周一至周日 10:00-22:00",
    "phone": ""
  },
  {
    "orgId": 1467851395,
    "areaCode": "440304",
    "latitude": 22.5212,
    "longitude": 114.0689,
    "orgName": "福民新村篮球场",
    "orgAddr": "广东省深圳市福田区福强路1033号",
    "note": "",
    "tags": [
      {
        "value": "评分：-",
        "type": 2
      }
    ],
    "desc": "营业时间：",
    "phone": ""
  },
  {
    "orgId": 1570684862,
    "areaCode": "440310",
    "latitude": 22.6821,
    "longitude": 114.3563,
    "orgName": "传球宝蓝球训练馆",
    "orgAddr": "广东省深圳市坪山区江边东路3号",
    "note": "",
    "tags": [
      {
        "value": "评分：-",
        "type": 2
      }
    ],
    "desc": "营业时间：",
    "phone": ""
  },
  {
    "orgId": 150253228,
    "areaCode": "440306",
    "latitude": 22.5692,
    "longitude": 113.8575,
    "orgName": "凌跃篮球训练营",
    "orgAddr": "广东省深圳市宝安区西乡大道306-44号",
    "note": "",
    "tags": [
      {
        "value": "评分：-",
        "type": 2
      }
    ],
    "desc": "营业时间：周一至周日 09:00-22:00",
    "phone": ""
  },
  {
    "orgId": 648783189,
    "areaCode": "440307",
    "latitude": 22.6939,
    "longitude": 114.1358,
    "orgName": "平湖启航体育篮球训练营",
    "orgAddr": "广东省深圳市龙岗区建设路109号",
    "note": "",
    "tags": [
      {
        "value": "评分：-",
        "type": 2
      }
    ],
    "desc": "营业时间：周一至周日 10:30-21:00",
    "phone": ""
  },
  {
    "orgId": 861311609,
    "areaCode": "440310",
    "latitude": 22.7305,
    "longitude": 114.384,
    "orgName": "关键球员少儿篮球俱乐部（嘉邻中心店）",
    "orgAddr": "广东省深圳市坪山区锦绣西路56号",
    "note": "",
    "tags": [
      {
        "value": "评分：-",
        "type": 2
      }
    ],
    "desc": "营业时间：周六,周日 09:00-21:00  周二至周五 14:30-21:00",
    "phone": ""
  },
  {
    "orgId": 168533026,
    "areaCode": "440306",
    "latitude": 22.5602,
    "longitude": 113.8845,
    "orgName": "美国篮球学院",
    "orgAddr": "广东省深圳市宝安区新湖路2112号东门",
    "note": "",
    "tags": [
      {
        "value": "评分：3",
        "type": 2
      }
    ],
    "desc": "营业时间：",
    "phone": ""
  },
  {
    "orgId": 150286741,
    "areaCode": "440304",
    "latitude": 22.5613,
    "longitude": 114.0912,
    "orgName": "深圳市体育馆篮球训练基地（体育场分部）",
    "orgAddr": "广东省深圳市福田区泥岗西路",
    "note": "",
    "tags": [
      {
        "value": "评分：-",
        "type": 2
      }
    ],
    "desc": "营业时间：周一至周日 9:00-22:00",
    "phone": ""
  },
  {
    "orgId": 1649807332,
    "areaCode": "440306",
    "latitude": 22.5476,
    "longitude": 113.8969,
    "orgName": "海超专业成人青少年篮球培训",
    "orgAddr": "广东省深圳市宝安区新安一路20-16号",
    "note": "",
    "tags": [
      {
        "value": "评分：-",
        "type": 2
      }
    ],
    "desc": "营业时间：周一至周日 10:00-22:00",
    "phone": ""
  },
  {
    "orgId": 150252357,
    "areaCode": "440305",
    "latitude": 22.5519,
    "longitude": 113.9148,
    "orgName": "南头检查站篮球场",
    "orgAddr": "广东省深圳市南山区关口一路",
    "note": "",
    "tags": [
      {
        "value": "评分：-",
        "type": 2
      }
    ],
    "desc": "营业时间：周一至周日 9:00-22:00",
    "phone": ""
  },
  {
    "orgId": 1626788975,
    "areaCode": "440304",
    "latitude": 22.5513,
    "longitude": 114.0182,
    "orgName": "中新篮球（香蜜体育中心）",
    "orgAddr": "广东省深圳市福田区泽田路",
    "note": "",
    "tags": [
      {
        "value": "评分：-",
        "type": 2
      }
    ],
    "desc": "营业时间：周一至周日 10:00-22:00",
    "phone": ""
  },
  {
    "orgId": 175482794,
    "areaCode": "440305",
    "latitude": 22.6211,
    "longitude": 113.9811,
    "orgName": "凯盛天台篮球公园",
    "orgAddr": "广东省深圳市南山区工业一路31-4号",
    "note": "",
    "tags": [
      {
        "value": "评分：-",
        "type": 2
      }
    ],
    "desc": "营业时间：周一至周日 10:00-22:00",
    "phone": ""
  },
  {
    "orgId": 194162457,
    "areaCode": "440305",
    "latitude": 22.5364,
    "longitude": 113.9052,
    "orgName": "无限篮球俱乐部",
    "orgAddr": "广东省深圳市南山区十一号路",
    "note": "",
    "tags": [
      {
        "value": "评分：-",
        "type": 2
      }
    ],
    "desc": "营业时间：周一至周日 09:00-22:00",
    "phone": ""
  },
  {
    "orgId": 1869349730,
    "areaCode": "440307",
    "latitude": 22.6249,
    "longitude": 114.133,
    "orgName": "零动篮球",
    "orgAddr": "广东省深圳市龙岗区科技园路",
    "note": "",
    "tags": [
      {
        "value": "评分：3",
        "type": 2
      }
    ],
    "desc": "营业时间：周一至周日 10:00-22:00",
    "phone": ""
  },
  {
    "orgId": 1040183480,
    "areaCode": "440303",
    "latitude": 22.5643,
    "longitude": 114.1395,
    "orgName": "飞翔体育篮球训练营",
    "orgAddr": "广东省深圳市罗湖区水库新村四街",
    "note": "",
    "tags": [
      {
        "value": "评分：-",
        "type": 2
      }
    ],
    "desc": "营业时间：周一至周日 08:30-20:00 16:00-20:00",
    "phone": ""
  },
  {
    "orgId": 1501555376,
    "areaCode": "440307",
    "latitude": 22.7217,
    "longitude": 114.2335,
    "orgName": "海浪篮球（中心城二店）",
    "orgAddr": "广东省深圳市龙岗区吉福路111号",
    "note": "",
    "tags": [
      {
        "value": "评分：-",
        "type": 2
      }
    ],
    "desc": "营业时间：",
    "phone": ""
  },
  {
    "orgId": 154008047,
    "areaCode": "440309",
    "latitude": 22.7302,
    "longitude": 114.0911,
    "orgName": "牛湖社区篮球场",
    "orgAddr": "广东省深圳市龙华区牛湖兴业路",
    "note": "",
    "tags": [
      {
        "value": "评分：-",
        "type": 2
      }
    ],
    "desc": "营业时间：",
    "phone": ""
  },
  {
    "orgId": 1032369570,
    "areaCode": "440305",
    "latitude": 22.5116,
    "longitude": 113.9202,
    "orgName": "篮球场小店",
    "orgAddr": "广东省深圳市南山区南光路8-1号",
    "note": "",
    "tags": [
      {
        "value": "评分：-",
        "type": 2
      }
    ],
    "desc": "营业时间：周一至周日 08:30-21:00",
    "phone": ""
  },
  {
    "orgId": 732966269,
    "areaCode": "440307",
    "latitude": 22.7245,
    "longitude": 114.2751,
    "orgName": "星火KIDS篮球训练营",
    "orgAddr": "广东省深圳市龙岗区建发路",
    "note": "",
    "tags": [
      {
        "value": "评分：-",
        "type": 2
      }
    ],
    "desc": "营业时间：周一至周五 16:00-21:00  周六,周日 08:30-21:30",
    "phone": ""
  },
  {
    "orgId": 1736901198,
    "areaCode": "440307",
    "latitude": 22.6857,
    "longitude": 114.2291,
    "orgName": "大运软件小镇大生篮球场",
    "orgAddr": "广东省深圳市龙岗区G205",
    "note": "",
    "tags": [
      {
        "value": "评分：-",
        "type": 2
      }
    ],
    "desc": "营业时间：",
    "phone": ""
  },
  {
    "orgId": 1621459862,
    "areaCode": "440307",
    "latitude": 22.7482,
    "longitude": 114.2788,
    "orgName": "星火篮球培训（新生店）",
    "orgAddr": "广东省深圳市龙岗区丰田路52号",
    "note": "",
    "tags": [
      {
        "value": "评分：-",
        "type": 2
      }
    ],
    "desc": "营业时间：",
    "phone": ""
  },
  {
    "orgId": 1380557429,
    "areaCode": "440306",
    "latitude": 22.6882,
    "longitude": 113.8407,
    "orgName": "星火篮球训练营",
    "orgAddr": "广东省深圳市宝安区凤凰山大道",
    "note": "",
    "tags": [
      {
        "value": "评分：-",
        "type": 2
      }
    ],
    "desc": "营业时间：",
    "phone": ""
  },
  {
    "orgId": 794690672,
    "areaCode": "440306",
    "latitude": 22.6129,
    "longitude": 113.8541,
    "orgName": "关键球员·室内篮球培训（宝安领航城馆）",
    "orgAddr": "广东省深圳市宝安区航空路",
    "note": "",
    "tags": [
      {
        "value": "评分：-",
        "type": 2
      }
    ],
    "desc": "营业时间：周二至周五 14:30-21:00  周六,周日 09:00-21:00",
    "phone": ""
  },
  {
    "orgId": 75989813,
    "areaCode": "440307",
    "latitude": 22.63,
    "longitude": 114.4224,
    "orgName": "葵涌篮球馆",
    "orgAddr": "广东省深圳市龙岗区葵新南路147号",
    "note": "",
    "tags": [
      {
        "value": "评分：-",
        "type": 2
      }
    ],
    "desc": "营业时间：周一至周日 09:00-22:00",
    "phone": ""
  },
  {
    "orgId": 582947477,
    "areaCode": "440306",
    "latitude": 22.5727,
    "longitude": 113.8947,
    "orgName": "XG篮球俱乐部",
    "orgAddr": "广东省深圳市宝安区建安一路625号",
    "note": "",
    "tags": [
      {
        "value": "评分：-",
        "type": 2
      }
    ],
    "desc": "营业时间：周一至周日 08:00-22:00",
    "phone": ""
  },
  {
    "orgId": 1052412273,
    "areaCode": "440305",
    "latitude": 22.489,
    "longitude": 113.919,
    "orgName": "西柚少儿篮球俱乐部（水湾校区）",
    "orgAddr": "广东省深圳市南山区太子路111号",
    "note": "",
    "tags": [
      {
        "value": "评分：-",
        "type": 2
      }
    ],
    "desc": "营业时间：",
    "phone": ""
  },
  {
    "orgId": 177733509,
    "areaCode": "440304",
    "latitude": 22.552,
    "longitude": 114.0924,
    "orgName": "冠蓝篮球场（百花店）",
    "orgAddr": "广东省深圳市福田区百花二路",
    "note": "",
    "tags": [
      {
        "value": "评分：-",
        "type": 2
      }
    ],
    "desc": "营业时间：周一至周日 10:00-22:00",
    "phone": ""
  },
  {
    "orgId": 1312849673,
    "areaCode": "440310",
    "latitude": 22.7047,
    "longitude": 114.4023,
    "orgName": "马安岭篮球场",
    "orgAddr": "广东省深圳市坪山区马鞍岭路",
    "note": "",
    "tags": [
      {
        "value": "评分：-",
        "type": 2
      }
    ],
    "desc": "营业时间：",
    "phone": ""
  },
  {
    "orgId": 73772279,
    "areaCode": "440304",
    "latitude": 22.5239,
    "longitude": 114.0463,
    "orgName": "新洲村篮球场",
    "orgAddr": "广东省深圳市福田区新洲九街171号",
    "note": "",
    "tags": [
      {
        "value": "评分：-",
        "type": 2
      }
    ],
    "desc": "营业时间：",
    "phone": ""
  },
  {
    "orgId": 1061118183,
    "areaCode": "440307",
    "latitude": 22.7374,
    "longitude": 114.244,
    "orgName": "青锋体育篮球培训",
    "orgAddr": "广东省深圳市龙岗区长兴北路",
    "note": "",
    "tags": [
      {
        "value": "评分：-",
        "type": 2
      }
    ],
    "desc": "营业时间：周一至周日 09:00-22:30",
    "phone": ""
  },
  {
    "orgId": 546634398,
    "areaCode": "440307",
    "latitude": 22.7271,
    "longitude": 114.2344,
    "orgName": "海浪篮球",
    "orgAddr": "广东省深圳市龙岗区爱龙路69号",
    "note": "",
    "tags": [
      {
        "value": "评分：3",
        "type": 2
      }
    ],
    "desc": "营业时间：周一至周日 10:00-22:00",
    "phone": ""
  },
  {
    "orgId": 987916663,
    "areaCode": "440311",
    "latitude": 22.7747,
    "longitude": 113.9107,
    "orgName": "飞羽体育·游泳·篮球·羽毛球·中考体育",
    "orgAddr": "广东省深圳市光明区南庄中心街25号",
    "note": "",
    "tags": [
      {
        "value": "评分：-",
        "type": 2
      }
    ],
    "desc": "营业时间：",
    "phone": ""
  },
  {
    "orgId": 564238317,
    "areaCode": "440306",
    "latitude": 22.676,
    "longitude": 113.8013,
    "orgName": "Bayzone",
    "orgAddr": "广东省深圳市宝安区福海大道28-6号",
    "note": "",
    "tags": [
      {
        "value": "评分：-",
        "type": 2
      }
    ],
    "desc": "营业时间：",
    "phone": ""
  },
  {
    "orgId": 181978989,
    "areaCode": "440305",
    "latitude": 22.5259,
    "longitude": 113.9347,
    "orgName": "桂庙新村篮球场",
    "orgAddr": "广东省深圳市南山区学府路",
    "note": "",
    "tags": [
      {
        "value": "评分：-",
        "type": 2
      }
    ],
    "desc": "营业时间：",
    "phone": ""
  },
  {
    "orgId": 91241184,
    "areaCode": "440304",
    "latitude": 22.5321,
    "longitude": 114.0864,
    "orgName": "御景篮球场",
    "orgAddr": "广东省深圳市福田区滨河大道3001-17号",
    "note": "",
    "tags": [
      {
        "value": "评分：-",
        "type": 2
      }
    ],
    "desc": "营业时间：周一至周日 15:00-22:00",
    "phone": ""
  },
  {
    "orgId": 824117842,
    "areaCode": "440304",
    "latitude": 22.5527,
    "longitude": 114.0984,
    "orgName": "深圳市福田区园岭外国语小学-篮球场",
    "orgAddr": "广东省深圳市福田区园岭五街19号",
    "note": "",
    "tags": [
      {
        "value": "评分：-",
        "type": 2
      }
    ],
    "desc": "营业时间：",
    "phone": ""
  },
  {
    "orgId": 1370972838,
    "areaCode": "440308",
    "latitude": 22.5995,
    "longitude": 114.303,
    "orgName": "J23篮球培训（体育中心校区）",
    "orgAddr": "广东省深圳市盐田区望翠路10-15号",
    "note": "",
    "tags": [
      {
        "value": "评分：-",
        "type": 2
      }
    ],
    "desc": "营业时间：周一至周日 08:30-22:00",
    "phone": ""
  },
  {
    "orgId": 1884719967,
    "areaCode": "440309",
    "latitude": 22.6728,
    "longitude": 113.994,
    "orgName": "L2篮球培训",
    "orgAddr": "广东省深圳市龙华区华繁路66号",
    "note": "",
    "tags": [
      {
        "value": "评分：-",
        "type": 2
      }
    ],
    "desc": "营业时间：",
    "phone": ""
  },
  {
    "orgId": 1403232133,
    "areaCode": "440307",
    "latitude": 22.6904,
    "longitude": 114.2281,
    "orgName": "东方启明星篮球培训（大运校区）",
    "orgAddr": "广东省深圳市龙岗区G205",
    "note": "",
    "tags": [
      {
        "value": "评分：-",
        "type": 2
      }
    ],
    "desc": "营业时间：",
    "phone": ""
  },
  {
    "orgId": 574677331,
    "areaCode": "440305",
    "latitude": 22.4848,
    "longitude": 113.9065,
    "orgName": "大南山公园篮球场",
    "orgAddr": "广东省深圳市南山区沿山路",
    "note": "",
    "tags": [
      {
        "value": "评分：-",
        "type": 2
      }
    ],
    "desc": "营业时间：",
    "phone": ""
  },
  {
    "orgId": 1953286377,
    "areaCode": "440305",
    "latitude": 22.5381,
    "longitude": 113.9481,
    "orgName": "深圳市悦健达篮球训练营",
    "orgAddr": "广东省深圳市南山区高新南一道17-1号",
    "note": "",
    "tags": [
      {
        "value": "评分：-",
        "type": 2
      },
      {
        "value": "室外",
        "type": 1
      }
    ],
    "desc": "营业时间：周一至周日 14:30-22:00",
    "phone": ""
  },
  {
    "orgId": 1053905678,
    "areaCode": "440306",
    "latitude": 22.6885,
    "longitude": 113.9367,
    "orgName": "林书豪-李群篮球联盟",
    "orgAddr": "广东省深圳市宝安区上屋大道249号",
    "note": "",
    "tags": [
      {
        "value": "评分：-",
        "type": 2
      }
    ],
    "desc": "营业时间：",
    "phone": ""
  },
  {
    "orgId": 1000490127,
    "areaCode": "440309",
    "latitude": 22.7187,
    "longitude": 114.0583,
    "orgName": "准度青少年篮球俱乐部",
    "orgAddr": "广东省深圳市龙华区观澜大道419号兴万达广场",
    "note": "",
    "tags": [
      {
        "value": "评分：-",
        "type": 2
      }
    ],
    "desc": "营业时间：周一至周五 10:00-22:00  周六,周日 09:00-22:00",
    "phone": ""
  },
  {
    "orgId": 577845306,
    "areaCode": "440307",
    "latitude": 22.6986,
    "longitude": 114.2319,
    "orgName": "启步篮球培训中心（爱联店）",
    "orgAddr": "广东省深圳市龙岗区新寮路8号",
    "note": "",
    "tags": [
      {
        "value": "评分：-",
        "type": 2
      }
    ],
    "desc": "营业时间：周一至周日 10:00-22:00",
    "phone": ""
  },
  {
    "orgId": 1241818134,
    "areaCode": "440307",
    "latitude": 22.7109,
    "longitude": 114.2583,
    "orgName": "星火篮球训练营（龙城店）",
    "orgAddr": "广东省深圳市龙岗区向银路32号",
    "note": "",
    "tags": [
      {
        "value": "评分：-",
        "type": 2
      }
    ],
    "desc": "营业时间：周一至周日 全天",
    "phone": ""
  },
  {
    "orgId": 1489797812,
    "areaCode": "440307",
    "latitude": 22.7508,
    "longitude": 114.273,
    "orgName": "星际篮球",
    "orgAddr": "广东省深圳市龙岗区龙凤路",
    "note": "",
    "tags": [
      {
        "value": "评分：-",
        "type": 2
      }
    ],
    "desc": "营业时间：",
    "phone": ""
  },
  {
    "orgId": 1365263137,
    "areaCode": "440305",
    "latitude": 22.4893,
    "longitude": 113.9347,
    "orgName": "正浩体育公园（鼎元宏易中心店）",
    "orgAddr": "广东省深圳市南山区后海大道27号",
    "note": "",
    "tags": [
      {
        "value": "评分：-",
        "type": 2
      }
    ],
    "desc": "营业时间：",
    "phone": ""
  },
  {
    "orgId": 562404381,
    "areaCode": "440305",
    "latitude": 22.4844,
    "longitude": 113.8937,
    "orgName": "赤湾工业园-篮球场-宿舍楼",
    "orgAddr": "广东省深圳市南山区小南山隧道",
    "note": "",
    "tags": [
      {
        "value": "评分：-",
        "type": 2
      }
    ],
    "desc": "营业时间：",
    "phone": ""
  },
  {
    "orgId": 1082170906,
    "areaCode": "440307",
    "latitude": 22.591,
    "longitude": 114.1079,
    "orgName": "投乐篮球",
    "orgAddr": "广东省深圳市龙岗区钱排北一巷4号",
    "note": "",
    "tags": [
      {
        "value": "评分：-",
        "type": 2
      }
    ],
    "desc": "营业时间：周一至周日 10:00-22:00",
    "phone": ""
  },
  {
    "orgId": 1429172177,
    "areaCode": "440306",
    "latitude": 22.6884,
    "longitude": 113.9368,
    "orgName": "乐培少儿篮球馆",
    "orgAddr": "广东省深圳市宝安区上屋大道234号",
    "note": "",
    "tags": [
      {
        "value": "评分：-",
        "type": 2
      }
    ],
    "desc": "营业时间：周一至周日 08:00-18:00",
    "phone": ""
  },
  {
    "orgId": 83918602,
    "areaCode": "440304",
    "latitude": 22.5381,
    "longitude": 114.0995,
    "orgName": "南园派出所埔尾篮球场",
    "orgAddr": "广东省深圳市福田区东园路",
    "note": "",
    "tags": [
      {
        "value": "评分：-",
        "type": 2
      }
    ],
    "desc": "营业时间：周一至周日 16:00-19:00",
    "phone": ""
  },
  {
    "orgId": 605853755,
    "areaCode": "440311",
    "latitude": 22.7313,
    "longitude": 113.9182,
    "orgName": "甲子塘文体公园-篮球场",
    "orgAddr": "广东省深圳市光明区康茂路",
    "note": "",
    "tags": [
      {
        "value": "评分：-",
        "type": 2
      }
    ],
    "desc": "营业时间：",
    "phone": ""
  },
  {
    "orgId": 1578228423,
    "areaCode": "440306",
    "latitude": 22.609,
    "longitude": 113.8565,
    "orgName": "冠军屋篮球培训（宝安店）",
    "orgAddr": "广东省深圳市宝安区州航路",
    "note": "",
    "tags": [
      {
        "value": "评分：-",
        "type": 2
      }
    ],
    "desc": "营业时间：周一至周日 10:00-22:00",
    "phone": ""
  },
  {
    "orgId": 1729463224,
    "areaCode": "440304",
    "latitude": 22.539,
    "longitude": 114.0895,
    "orgName": "福田爱华篮球场",
    "orgAddr": "广东省深圳市福田区华发南路62号",
    "note": "",
    "tags": [
      {
        "value": "评分：-",
        "type": 2
      }
    ],
    "desc": "营业时间：",
    "phone": ""
  },
  {
    "orgId": 665284561,
    "areaCode": "440307",
    "latitude": 22.6551,
    "longitude": 114.0735,
    "orgName": "蚂蚁体育·射手座篮球场",
    "orgAddr": "广东省深圳市龙岗区雪岗路1067号",
    "note": "",
    "tags": [
      {
        "value": "评分：-",
        "type": 2
      }
    ],
    "desc": "营业时间：周一至周五 18:00-23:00  周六,周日 09:00-23:00",
    "phone": ""
  },
  {
    "orgId": 1395612562,
    "areaCode": "440306",
    "latitude": 22.5476,
    "longitude": 113.8969,
    "orgName": "凯旋城篮球场",
    "orgAddr": "广东省深圳市宝安区新安一路20-16号",
    "note": "",
    "tags": [
      {
        "value": "评分：-",
        "type": 2
      }
    ],
    "desc": "营业时间：",
    "phone": ""
  },
  {
    "orgId": 975446461,
    "areaCode": "440307",
    "latitude": 22.6119,
    "longitude": 114.0665,
    "orgName": "万科第五园四期篮球场",
    "orgAddr": "广东省深圳市龙岗区环城南路",
    "note": "",
    "tags": [
      {
        "value": "评分：-",
        "type": 2
      }
    ],
    "desc": "营业时间：周一至周日 10:00-22:00",
    "phone": ""
  },
  {
    "orgId": 631269916,
    "areaCode": "440307",
    "latitude": 22.6155,
    "longitude": 114.1087,
    "orgName": "下水径社区篮球运动场",
    "orgAddr": "广东省深圳市龙岗区坑尾东四巷1号",
    "note": "",
    "tags": [
      {
        "value": "评分：-",
        "type": 2
      }
    ],
    "desc": "营业时间：",
    "phone": ""
  },
  {
    "orgId": 1706513461,
    "areaCode": "440305",
    "latitude": 22.4985,
    "longitude": 113.9383,
    "orgName": "喜乐体育",
    "orgAddr": "广东省深圳市南山区后海滨路2088号",
    "note": "",
    "tags": [
      {
        "value": "评分：3",
        "type": 2
      }
    ],
    "desc": "营业时间：周一至周日 10:00-22:00",
    "phone": ""
  },
  {
    "orgId": 1439476399,
    "areaCode": "440309",
    "latitude": 22.6346,
    "longitude": 114.0325,
    "orgName": "源创空间天台篮球场",
    "orgAddr": "广东省深圳市龙华区明珠支路",
    "note": "",
    "tags": [
      {
        "value": "评分：-",
        "type": 2
      }
    ],
    "desc": "营业时间：",
    "phone": ""
  },
  {
    "orgId": 150256649,
    "areaCode": "440304",
    "latitude": 22.5611,
    "longitude": 114.0914,
    "orgName": "球迷会篮球训练基地便利店",
    "orgAddr": "广东省深圳市福田区泥岗西路",
    "note": "",
    "tags": [
      {
        "value": "评分：-",
        "type": 2
      }
    ],
    "desc": "营业时间：周一至周日 08:30-23:00",
    "phone": ""
  },
  {
    "orgId": 1745558898,
    "areaCode": "440311",
    "latitude": 22.7816,
    "longitude": 113.9086,
    "orgName": "未来体育",
    "orgAddr": "广东省深圳市光明区民生路71号",
    "note": "",
    "tags": [
      {
        "value": "评分：-",
        "type": 2
      }
    ],
    "desc": "营业时间：周一至周日 10:00-22:00",
    "phone": ""
  },
  {
    "orgId": 1862766243,
    "areaCode": "440304",
    "latitude": 22.5525,
    "longitude": 114.0923,
    "orgName": "快乐开始篮球俱乐部",
    "orgAddr": "广东省深圳市福田区百花二路",
    "note": "",
    "tags": [
      {
        "value": "评分：-",
        "type": 2
      }
    ],
    "desc": "营业时间：周一至周日 08:30-22:00",
    "phone": ""
  },
  {
    "orgId": 1426745135,
    "areaCode": "440309",
    "latitude": 22.6312,
    "longitude": 114.0186,
    "orgName": "里跃体育（里跃篮球训练营龙华星河校区）",
    "orgAddr": "广东省深圳市龙华区景龙南路",
    "note": "",
    "tags": [
      {
        "value": "评分：-",
        "type": 2
      }
    ],
    "desc": "营业时间：周六,周日 08:30-12:00 13:30-17:00  周一至周五 16:30-20:00",
    "phone": ""
  },
  {
    "orgId": 971396238,
    "areaCode": "440306",
    "latitude": 22.6471,
    "longitude": 113.8603,
    "orgName": "迈斯途篮球培训馆",
    "orgAddr": "广东省深圳市宝安区九围路",
    "note": "",
    "tags": [
      {
        "value": "评分：-",
        "type": 2
      }
    ],
    "desc": "营业时间：周一至周日 10:00-22:00",
    "phone": ""
  },
  {
    "orgId": 1820276014,
    "areaCode": "440309",
    "latitude": 22.7172,
    "longitude": 114.0224,
    "orgName": "步凡青少年篮球训练营体育",
    "orgAddr": "广东省深圳市龙华区福花路",
    "note": "",
    "tags": [
      {
        "value": "评分：-",
        "type": 2
      }
    ],
    "desc": "营业时间：周二至周日 09:00-21:00",
    "phone": ""
  },
  {
    "orgId": 866988932,
    "areaCode": "440305",
    "latitude": 22.5076,
    "longitude": 113.9325,
    "orgName": "吉粤体育少儿体适能篮球（蔚蓝海岸商城店）",
    "orgAddr": "广东省深圳市南山区后海大道2120号",
    "note": "",
    "tags": [
      {
        "value": "评分：3",
        "type": 2
      }
    ],
    "desc": "营业时间：周一至周日 10:00-22:00",
    "phone": ""
  },
  {
    "orgId": 738414013,
    "areaCode": "440305",
    "latitude": 22.5868,
    "longitude": 113.9292,
    "orgName": "留仙洞村球场",
    "orgAddr": "广东省深圳市南山区留仙村路6号",
    "note": "",
    "tags": [
      {
        "value": "评分：-",
        "type": 2
      }
    ],
    "desc": "营业时间：夏季 周一至周日 10:00-22:00",
    "phone": ""
  },
  {
    "orgId": 1239499364,
    "areaCode": "440311",
    "latitude": 22.7718,
    "longitude": 113.9086,
    "orgName": "山下篮球场",
    "orgAddr": "广东省深圳市光明区公明东环大道",
    "note": "",
    "tags": [
      {
        "value": "评分：-",
        "type": 2
      }
    ],
    "desc": "营业时间：",
    "phone": ""
  },
  {
    "orgId": 74619964,
    "areaCode": "440309",
    "latitude": 22.6046,
    "longitude": 114.0418,
    "orgName": "篮球场便民店",
    "orgAddr": "广东省深圳市龙华区望辉路",
    "note": "",
    "tags": [
      {
        "value": "评分：-",
        "type": 2
      }
    ],
    "desc": "营业时间：周一至周日 7:30-22:30",
    "phone": ""
  },
  {
    "orgId": 1957686294,
    "areaCode": "440307",
    "latitude": 22.639,
    "longitude": 114.1928,
    "orgName": "奥酷篮球公园",
    "orgAddr": "广东省深圳市龙岗区龙岗大道3106号",
    "note": "",
    "tags": [
      {
        "value": "评分：-",
        "type": 2
      }
    ],
    "desc": "营业时间：周一至周日 09:00-22:00",
    "phone": ""
  },
  {
    "orgId": 1693642003,
    "areaCode": "440309",
    "latitude": 22.6367,
    "longitude": 114.0408,
    "orgName": "聚星篮球运动中心",
    "orgAddr": "广东省深圳市龙华区新牛路",
    "note": "",
    "tags": [
      {
        "value": "评分：-",
        "type": 2
      }
    ],
    "desc": "营业时间：周一至周日 16:00-23:00",
    "phone": ""
  },
  {
    "orgId": 1024032240,
    "areaCode": "440305",
    "latitude": 22.5149,
    "longitude": 113.9076,
    "orgName": "馨锐篮球俱乐部",
    "orgAddr": "广东省深圳市南山区东滨路4240号",
    "note": "",
    "tags": [
      {
        "value": "评分：-",
        "type": 2
      }
    ],
    "desc": "营业时间：周一至周日 10:00-22:00",
    "phone": ""
  },
  {
    "orgId": 1046827535,
    "areaCode": "440303",
    "latitude": 22.5471,
    "longitude": 114.1333,
    "orgName": "常青体育青少儿篮球运动馆（京基凤凰印象广场店）",
    "orgAddr": "广东省深圳市罗湖区凤凰路181-10号",
    "note": "",
    "tags": [
      {
        "value": "评分：-",
        "type": 2
      }
    ],
    "desc": "营业时间：周一至周日 09:00-20:30",
    "phone": ""
  },
  {
    "orgId": 694124121,
    "areaCode": "440307",
    "latitude": 22.6187,
    "longitude": 114.148,
    "orgName": "森特篮球培训中心（丹竹头店）",
    "orgAddr": "广东省深圳市龙岗区恋珠东一巷12-3号号",
    "note": "",
    "tags": [
      {
        "value": "评分：3",
        "type": 2
      }
    ],
    "desc": "营业时间：周一至周日 10:00-22:00",
    "phone": ""
  },
  {
    "orgId": 1066523949,
    "areaCode": "440307",
    "latitude": 22.5947,
    "longitude": 114.1134,
    "orgName": "深战狼篮球订场培训",
    "orgAddr": "广东省深圳市龙岗区百龙一街",
    "note": "",
    "tags": [
      {
        "value": "评分：-",
        "type": 2
      }
    ],
    "desc": "营业时间：",
    "phone": ""
  },
  {
    "orgId": 1247576962,
    "areaCode": "440306",
    "latitude": 22.6063,
    "longitude": 113.8627,
    "orgName": "杰出篮球俱乐部",
    "orgAddr": "广东省深圳市宝安区G107",
    "note": "",
    "tags": [
      {
        "value": "评分：-",
        "type": 2
      }
    ],
    "desc": "营业时间：",
    "phone": ""
  },
  {
    "orgId": 184202171,
    "areaCode": "440305",
    "latitude": 22.5243,
    "longitude": 113.9255,
    "orgName": "KINGMAX劲门国际篮球学院",
    "orgAddr": "广东省深圳市南山区桂庙路22号西门",
    "note": "",
    "tags": [
      {
        "value": "评分：3.5",
        "type": 2
      }
    ],
    "desc": "营业时间：",
    "phone": ""
  },
  {
    "orgId": 1677758360,
    "areaCode": "440303",
    "latitude": 22.5553,
    "longitude": 114.1489,
    "orgName": "佰胜雪糕（篮球场店）",
    "orgAddr": "广东省深圳市罗湖区东湖二路",
    "note": "",
    "tags": [
      {
        "value": "评分：-",
        "type": 2
      }
    ],
    "desc": "营业时间：周一至周日 13:00-21:00",
    "phone": ""
  },