[
  {
    "tags": [
      { "type": 2, "value": "评分：4.7" },
      { "type": 1, "value": "室内" },
      { "type": 1, "value": "木质地板" }
    ],
    "orgAddr": "东城街道学前路46号1栋201室",
    "mtId": 688451354,
    "phone": "13318441866",
    "desc": "营业时间：周一至周日 10:00-22:00",
    "areaCode": "441900",
    "longitude": 113.7947,
    "note": "¥19.9起，散客优惠券-¥19.9，单人畅打5次卡（散客）-¥120，单人畅打20次卡（散客）-¥399，半场两小时-¥299，散客优惠券（附一杯美式咖啡）-¥30，【体能+基础训练】篮球体验课-¥29.9，全场两小时-¥598",
    "orgName": "香蕉行动篮球中心",
    "score": 4.7,
    "orgId": 688451354,
    "latitude": 23.0382
  },
  {
    "tags": [
      { "type": 2, "value": "评分：4.6" },
      { "type": 1, "value": "室内" },
      { "type": 1, "value": "暖气" },
      { "type": 1, "value": "木质地板 塑料地板" }
    ],
    "orgAddr": "万江街道银龙路与万道路交叉口东北角家汇生活广场F1层",
    "mtId": 189665586,
    "phone": "18128687673",
    "desc": "营业时间：周一至周日 10:00-22:00",
    "areaCode": "441900",
    "longitude": 113.7167,
    "note": "¥26起，篮球次卡（5次）-¥99，篮球次卡（18次）-¥324，【爆款】散客套餐-¥26，【工作日晚上】半场两小时-¥289，【三人行】散客3次卡-¥48，【性价比】月卡-¥249，【工作日晚上】全场两小时-¥580，【工作日白天】全场两小时-¥549，【性价比】周卡-¥115，【工作日白天】半场两小时-¥265",
    "orgName": "V5体育中心（家汇生活广场店）",
    "score": 4.6,
    "orgId": 189665586,
    "latitude": 23.0363
  },
  {
    "tags": [{ "type": 2, "value": "评分：4.3" }],
    "orgAddr": "大岭山镇金桔优艺街1号2栋103室",
    "mtId": 1313972696,
    "phone": "13926877743/17666202794",
    "desc": "营业时间：周一至周日 09:00-12:00 14:00-22:30",
    "areaCode": "441900",
    "longitude": 113.8583,
    "note": "¥1.99起，室外篮球场半场畅打1小时-¥80，室内篮球馆半场畅打1小时-¥120，6-16篮球体验课（90分钟）-¥1.99，【全天不限时】散客畅打优惠-¥15，室内全场畅打1小时-¥210，室外全场畅打1小时-¥130",
    "orgName": "帝斯篮球馆",
    "score": 4.3,
    "orgId": 1313972696,
    "latitude": 22.9064
  },
  {
    "tags": [
      { "type": 2, "value": "评分：4.0" },
      { "type": 1, "value": "可淋浴" },
      { "type": 1, "value": "储物柜" }
    ],
    "orgAddr": "虎门镇博文路永利商业城四楼（光辉家居楼上）",
    "mtId": 189171954,
    "phone": "0769-82262929",
    "desc": "营业时间：周一至周日 08:00-23:00",
    "areaCode": "441900",
    "longitude": 113.6912,
    "note": "¥32起，【篮球】全天畅打1小时（全场）-¥225",
    "orgName": "壹运动中心",
    "score": 4,
    "orgId": 189171954,
    "latitude": 22.8267
  },
  {
    "tags": [
      { "type": 2, "value": "评分：3.4" },
      { "type": 1, "value": "木质地板" }
    ],
    "orgAddr": "凤岗镇凤岗园龙山公园",
    "mtId": 192257207,
    "phone": "13580367380",
    "desc": "营业时间：周一至周日 09:30-22:00",
    "areaCode": "441900",
    "longitude": 114.1446,
    "note": "",
    "orgName": "华蒙星篮球俱乐部 凤岗馆",
    "score": 3.4,
    "orgId": 192257207,
    "latitude": 22.7383
  },
  {
    "tags": [{ "type": 2, "value": "评分：4.7" }],
    "orgAddr": "大朗镇松山湖管委会工业南路14号3栋207室",
    "mtId": 636356902,
    "phone": "13268690348",
    "desc": "营业时间：周一至周日 09:00-22:00",
    "areaCode": "441900",
    "longitude": 113.8899,
    "note": "¥9.9起，【篮球】培训一对一VIP课程-¥169.9，【篮球】节假日半场1小时-¥180，篮球中考一对一课程定制-¥9.9，【羽毛球/篮球】萌芽班(4-6岁）中教课程-¥29.9",
    "orgName": "弘金地体育中心（松山湖店）",
    "score": 4.7,
    "orgId": 636356902,
    "latitude": 22.9411
  },
  {
    "tags": [
      { "type": 2, "value": "评分：3.0" },
      { "type": 1, "value": "有淋浴间" },
      { "type": 1, "value": "有充电宝" },
      { "type": 1, "value": "免费WiFi" }
    ],
    "orgAddr": "东城街道东宝路175号",
    "mtId": 1957310030,
    "phone": "4000303096-43471",
    "desc": "营业时间：周一至周日 10:30-22:30",
    "areaCode": "441900",
    "longitude": 113.785,
    "note": "¥1起，篮球技能强化体验课-¥1，篮球基础提升体验课-¥1，篮球启蒙体验课-¥1，散客一小时-¥15，半场1小时订购-¥118，散客畅享卡-¥20，全场1小时订购-¥198",
    "orgName": "准德篮球馆",
    "score": 3,
    "orgId": 1957310030,
    "latitude": 23.0414
  },
  {
    "tags": [
      { "type": 2, "value": "评分：3.0" },
      { "type": 1, "value": "上门授课" },
      { "type": 1, "value": "可预订场地" },
      { "type": 1, "value": "专业队输送点" },
      { "type": 1, "value": "有淋浴间" },
      { "type": 1, "value": "有充电宝" },
      { "type": 1, "value": "有卫生间" },
      { "type": 1, "value": "无烟环境" },
      { "type": 1, "value": "免费WiFi" }
    ],
    "orgAddr": "横沥镇富康路20号101室",
    "mtId": 1399049811,
    "phone": "4000303096-58692",
    "desc": "营业时间：周一至周日 全天",
    "areaCode": "441900",
    "longitude": 113.9773,
    "note": "¥14.5起，篮球特训-提高班体验课-¥14.8，篮球基础班体验课-¥14.5，篮球短课包-5节课-¥198，散客打球-¥18.8，成人1v1私教体验课-¥99，幼儿启蒙篮球-体适能体验课-¥14.5",
    "orgName": "曼巴特篮球训练营",
    "score": 3,
    "orgId": 1399049811,
    "latitude": 23.0123
  },
  {
    "tags": [{ "type": 2, "value": "评分：3.0" }],
    "orgAddr": "东城街道堑头新楼裕光产业园18栋6楼",
    "mtId": 194326354,
    "phone": "",
    "desc": "营业时间：周一至周日 08:30-23:30",
    "areaCode": "441900",
    "longitude": 113.7575,
    "note": "",
    "orgName": "莞之体篮球训练馆",
    "score": 3,
    "orgId": 194326354,
    "latitude": 23.0513
  },
  {
    "tags": [
      { "type": 2, "value": "评分：4.7" },
      { "type": 1, "value": "有储物柜" },
      { "type": 1, "value": "有淋浴间" },
      { "type": 1, "value": "有充电宝" },
      { "type": 1, "value": "有卫生间" },
      { "type": 1, "value": "无烟环境" },
      { "type": 1, "value": "器材租赁" },
      { "type": 1, "value": "免费WiFi" }
    ],
    "orgAddr": "莞城街道鳒鱼洲文创园43号楼",
    "mtId": 1751810658,
    "phone": "4001016029-9370",
    "desc": "营业时间：周一至周日 09:30-12:00 14:00-22:00",
    "areaCode": "441900",
    "longitude": 113.7328,
    "note": "¥8.8起，篮球馆散客门票-¥14.9，【春季班】篮球体验薪赛事训练6-14-¥9.9，【春季班】篮球体验薪基础训练7-16-¥9.9，【春季班】篮球体验薪强化训练7-16-¥9.9，【春季班】篮球体验萌芽班零基础-¥69.9，室内小班篮球培训1课时(萌芽班)-¥9.9，学生散客门票-¥8.8",
    "orgName": "薪火阵营篮球培训中心（莞城店）",
    "score": 4.7,
    "orgId": 1751810658,
    "latitude": 23.0319
  },
  {
    "tags": [{ "type": 2, "value": "评分：3.0" }],
    "orgAddr": "黄江镇黄江天虹富康花园",
    "mtId": 1103880013,
    "phone": "13556627076",
    "desc": "营业时间：周一至周日 06:00-24:00",
    "areaCode": "441900",
    "longitude": 114.0152,
    "note": "¥9.9起，篮球训练营体验课-¥9.9",
    "orgName": "富康会所",
    "score": 3,
    "orgId": 1103880013,
    "latitude": 22.9164
  },
  {
    "tags": [
      { "type": 2, "value": "评分：4.6" },
      { "type": 1, "value": "上门授课" },
      { "type": 1, "value": "可预订场地" },
      { "type": 1, "value": "有淋浴间" },
      { "type": 1, "value": "有充电宝" },
      { "type": 1, "value": "有休息区" },
      { "type": 1, "value": "有卫生间" },
      { "type": 1, "value": "无烟环境" },
      { "type": 1, "value": "免费茶水" },
      { "type": 1, "value": "免费WiFi" }
    ],
    "orgName": "十一少儿篮球训练营",
    "mtId": 1473789551,
    "phone": "4000303096-85162",
    "desc": "营业时间：周一至周日 10:00-22:00",
    "areaCode": "441900",
    "longitude": 113.7254,
    "note": "¥9起，【7~10Y】1节基础篮球课（支付时勾选同意到店）-¥19，【送篮球】1v1s私教课（支付时勾选同意到店）-¥69.9，【4~6Y】1节幼儿篮球课（支付时勾选同意到店）-¥19，【送运动发带】体能测试（支付时勾选同意到店）-¥9，【11~14Y】1节进阶课（支付时勾选同意到店）-¥19，【新生特惠】零基础超值体验卡（支付时勾选同意到店）-¥60",
    "orgAddr": "南城街道艺展路1号",
    "score": 4.6,
    "orgId": 1473789551,
    "latitude": 22.9911
  },
  {
    "tags": [
      { "type": 2, "value": "评分：5.0" },
      { "type": 1, "value": "有储物柜" },
      { "type": 1, "value": "空调开放" },
      { "type": 1, "value": "有充电宝" },
      { "type": 1, "value": "有休息区" },
      { "type": 1, "value": "有卫生间" },
      { "type": 1, "value": "免费茶水" },
      { "type": 1, "value": "免费WiFi" }
    ],
    "orgName": "IKIDFIT爱酷少儿体能中心（东城西路店）",
    "mtId": 1905822229,
    "phone": "4000303096-34150",
    "desc": "营业时间：周六,周日 09:00-21:00  周二至周五 14:00-21:00",
    "areaCode": "441900",
    "longitude": 113.7662,
    "note": "¥39.9起，【4-7】篮球体能培训-¥39.9",
    "orgAddr": "莞城街道东城西路128号聚福豪苑东门（电梯上3楼）",
    "score": 5,
    "orgId": 1905822229,
    "latitude": 23.0326
  },
  {
    "tags": [{ "type": 2, "value": "评分：4.3" }],
    "orgName": "华蒙星少儿篮球俱乐部（莞城运河校区）",
    "mtId": 1641165107,
    "phone": "4000303096-70456",
    "desc": "营业时间：周一至周日 00:00-23:30",
    "areaCode": "441900",
    "longitude": 113.7395,
    "note": "¥99起，【3--12】篮球常规课8节-¥680，7-12岁少儿篮球体验课3节-¥99，3-6岁幼儿篮球体验课3节-¥99",
    "orgAddr": "莞城街道运河东三路80号（伟才教育机构二楼）",
    "score": 4.3,
    "orgId": 1641165107,
    "latitude": 23.0305
  },
  {
    "tags": [
      { "type": 2, "value": "评分：4.2" },
      { "type": 1, "value": "有充电宝" },
      { "type": 1, "value": "免费WiFi" }
    ],
    "orgName": "华蒙星少儿篮球俱乐部（茶山校区）",
    "mtId": 1601483009,
    "phone": "4000303096-01107",
    "desc": "营业时间：周一至周日 08:30-23:30",
    "areaCode": "441900",
    "longitude": 113.8414,
    "note": "¥1起，（4-5）篮球培训-¥8.8，（3-7）篮球培训-¥1，（8-9）篮球培训-¥8.8，（10-13）篮球培训-¥8.8，（7-8）篮球培训-¥8.8",
    "orgAddr": "茶山镇茶山北路29号1号楼101室",
    "score": 4.2,
    "orgId": 1601483009,
    "latitude": 23.0902
  },
  {
    "tags": [
      { "type": 2, "value": "评分：4.3" },
      { "type": 1, "value": "有淋浴间" },
      { "type": 1, "value": "免费WiFi" }
    ],
    "orgName": "Fast Break快攻球馆（南城蛤地店）",
    "mtId": 1685881258,
    "phone": "4000303096-52898",
    "desc": "营业时间：周一至周日 08:00-22:30",
    "areaCode": "441900",
    "longitude": 113.7321,
    "note": "¥9.9起，成人篮球散客门票-¥30，国标篮球半场/全场（空调）租场押金-¥9.9，U7-U16篮球体适能训练课程（体验课）-¥9.9，U7-U12【超值2节体验课】篮球体适能训练课程-¥78，U3-U6【超值2节体验课】篮球体适能训练课程-¥78，U3-U6篮球体适能训练课程（体验课）-¥9.9，国标羽毛球（空调）租场押金-¥9.9，3-6岁【1节体验课】篮球体适能课程-¥9.9，国标羽毛球场（空调）租场-¥9.9，3-12岁【超值3节体验课】篮球体适能课程-¥98",
    "orgAddr": "南城街道蛤地新农路粤镁特工业园",
    "score": 4.3,
    "orgId": 1685881258,
    "latitude": 22.9746
  },
  {
    "tags": [
      { "type": 2, "value": "评分：4.2" },
      { "type": 1, "value": "面积12000㎡ | 可容纳500人" }
    ],
    "orgName": "D1梦想游泳健身中心",
    "mtId": 1094393281,
    "phone": "19200299689/19200299289",
    "desc": "营业时间：周一至周日 08:30-22:30",
    "areaCode": "441900",
    "longitude": 113.7337,
    "note": "¥9.9起，【热血篮球】团课体验课一节-¥9.9",
    "orgAddr": "南城街道长生水街30号108室",
    "score": 4.2,
    "orgId": 1094393281,
    "latitude": 22.9999
  },
  {
    "tags": [
      { "type": 2, "value": "评分：4.6" },
      { "type": 1, "value": "有储物柜" },
      { "type": 1, "value": "空调开放" },
      { "type": 1, "value": "上门授课" },
      { "type": 1, "value": "有充电宝" },
      { "type": 1, "value": "有休息区" },
      { "type": 1, "value": "有卫生间" },
      { "type": 1, "value": "无烟环境" },
      { "type": 1, "value": "免费茶水" },
      { "type": 1, "value": "器材租赁" },
      { "type": 1, "value": "免费WiFi" }
    ],
    "orgName": "华蒙星少儿篮球俱乐部（塘厦校区）",
    "mtId": 1716112865,
    "phone": "4000303096-28381",
    "desc": "营业时间：周二至周日 08:00-21:00",
    "areaCode": "441900",
    "longitude": 114.0836,
    "note": "¥8.8起，（5-6）篮球体验课-¥9.9，（7-8）篮球体验课-¥9.9，（7-12）篮球体验课-¥8.8，（6-7）篮球体验课-¥9.9，（4-5）篮球体验课-¥9.9，（3-4）篮球体验课-¥9.9",
    "orgAddr": "塘厦镇环市西路3号云创e谷1楼",
    "score": 4.6,
    "orgId": 1716112865,
    "latitude": 22.8091
  },
  {
    "tags": [
      { "type": 2, "value": "评分：4.1" },
      { "type": 1, "value": "室内泳池" },
      { "type": 1, "value": "标准泳池" }
    ],
    "orgName": "双英体育恒温游泳池（天安数码城店）",
    "mtId": 1340405089,
    "phone": "18925546699/0769-82566336",
    "desc": "营业时间：周一至周日 08:00-22:00",
    "areaCode": "441900",
    "longitude": 114.1775,
    "note": "¥39.9起，【篮球】团体大班体验课（6-14岁）-¥39.9",
    "orgAddr": "凤岗镇天安数码城",
    "score": 4.1,
    "orgId": 1340405089,
    "latitude": 22.6915
  },
  {
    "tags": [
      { "type": 2, "value": "评分：5.0" },
      { "type": 1, "value": "有充电宝" },
      { "type": 1, "value": "免费WiFi" }
    ],
    "orgName": "凯瑞篮球·少儿运动体能训练营",
    "mtId": 1915396959,
    "phone": "4000303096-86362",
    "desc": "营业时间：周二至周日 09:00-12:00 14:00-22:00  周一 15:00-22:00",
    "areaCode": "441900",
    "longitude": 113.7482,
    "note": "¥29.9起，【年龄13~15】线下趣味篮球小班体验课1节-¥29.9，【年龄4~6】线下趣味篮球小班体验课1节-¥29.9，【到店送篮球】4节课学会简单运球-¥99，【全龄段VIP私教】1对1定制篮球体验课1节-¥298，【年龄10~12】线下趣味篮球小班体验课1节-¥29.9，【年龄7~9】线下趣味篮球小班体验课1节-¥29.9",
    "orgAddr": "南城街道北一巷37号113室（24号篮球馆）",
    "score": 5,
    "orgId": 1915396959,
    "latitude": 22.9799
  },
  {
    "tags": [
      { "type": 2, "value": "评分：4.3" },
      { "type": 1, "value": "有储物柜" },
      { "type": 1, "value": "有充电宝" },
      { "type": 1, "value": "免费茶水" },
      { "type": 1, "value": "免费WiFi" }
    ],
    "orgName": "华蒙星少儿篮球俱乐部（虎门校区）",
    "mtId": 1771249979,
    "phone": "4000303096-68936",
    "desc": "营业时间：周二至周五 09:30-21:30  周六,周日 08:00-21:30",
    "areaCode": "441900",
    "longitude": 113.7066,
    "note": "¥9.9起，（7-8）篮球体验课-¥9.9，（5-6）篮球体验课-¥9.9，（5-6）篮球体验课-¥9.9，（7-8）篮球体验课-¥9.9，（6-7）篮球体验课-¥9.9，假期训练营-¥9.9",
    "orgAddr": "虎门镇长德路虎门万科里必胜客楼上",
    "score": 4.3,
    "orgId": 1771249979,
    "latitude": 22.8144
  },
  {
    "tags": [
      { "type": 2, "value": "评分：5.0" },
      { "type": 1, "value": "有储物柜" },
      { "type": 1, "value": "空调开放" },
      { "type": 1, "value": "可预订场地" },
      { "type": 1, "value": "有淋浴间" },
      { "type": 1, "value": "有充电宝" },
      { "type": 1, "value": "有休息区" },
      { "type": 1, "value": "有卫生间" },
      { "type": 1, "value": "无烟环境" },
      { "type": 1, "value": "免费茶水" },
      { "type": 1, "value": "器材租赁" },
      { "type": 1, "value": "免费WiFi" }
    ],
    "orgAddr": "厚街镇莞太路厚街段52号",
    "mtId": 563565151,
    "phone": "4000303096-07951",
    "desc": "营业时间：周六,周日 09:00-21:00  周二至周五 14:00-21:00",
    "areaCode": "441900",
    "longitude": 113.6953,
    "note": "¥8起，【4-12】篮球体能训练课-¥68，【4-12】篮球体能训练课-¥9.9",
    "orgName": "IKIDFIT爱酷少儿体能中心（厚街店）",
    "score": 5,
    "orgId": 563565151,
    "latitude": 22.965
  },
  {
    "tags": [
      { "type": 2, "value": "评分：-" },
      { "type": 1, "value": "有淋浴间" },
      { "type": 1, "value": "有卫生间" },
      { "type": 1, "value": "免费WiFi" }
    ],
    "orgAddr": "大朗镇康丰路29号",
    "mtId": 877979792,
    "phone": "4000303096-95374",
    "desc": "营业时间：周一至周五 10:00-22:00  周六,周日 09:00-22:00",
    "areaCode": "441900",
    "longitude": 113.9245,
    "note": "¥9.9起，【6-8日常专享】篮球体验课一节-¥9.9，【7-17周末专享】篮球体验课一节-¥19.9，【9-11周末专享】篮球体验课一节-¥19.9，【12-14日常专享】篮球体验课一节-¥9.9，【9-11日常专享】篮球体验课一节-¥9.9，【人气热销】7-14夏令营体验课-¥9.9",
    "orgName": "壹加壹篮球俱乐部",
    "score": 0,
    "orgId": 877979792,
    "latitude": 22.9609
  },
  {
    "tags": [
      { "type": 2, "value": "评分：-" },
      { "type": 1, "value": "可预订场地" },
      { "type": 1, "value": "有充电宝" },
      { "type": 1, "value": "有休息区" },
      { "type": 1, "value": "有卫生间" },
      { "type": 1, "value": "无烟环境" },
      { "type": 1, "value": "器材租赁" }
    ],
    "orgAddr": "虎门镇教育路与连升中路交叉口西南120米",
    "mtId": 794108530,
    "phone": "4000303096-18086",
    "desc": "营业时间：周一至周日 09:00-22:00",
    "areaCode": "441900",
    "longitude": 113.6841,
    "note": "¥500起，室内篮球培训8节课（各教学点通用）-¥500",
    "orgName": "篮子组篮球训练营（大润发校区）",
    "score": 0,
    "orgId": 794108530,
    "latitude": 22.8148
  },
  {
    "tags": [{ "type": 2, "value": "评分：3.7" }],
    "orgAddr": "南城街道科创路御花苑健康运动中心",
    "mtId": 1949167574,
    "phone": "18826834128/13925791836",
    "desc": "营业时间：周一至周日 06:00-23:00",
    "areaCode": "441900",
    "longitude": 113.7239,
    "note": "¥1起，篮球集体课-¥1",
    "orgName": "迪赛网球俱乐部（御花苑店）",
    "score": 3.7,
    "orgId": 1949167574,
    "latitude": 22.9605
  },
  {
    "tags": [{ "type": 2, "value": "评分：3.3" }],
    "orgAddr": "常平镇上坑北路32号",
    "mtId": 158468435,
    "phone": "13631700567",
    "desc": "营业时间：周一至周日 08:30-23:30",
    "areaCode": "441900",
    "longitude": 114.0093,
    "note": "",
    "orgName": "博润世纪体育篮球足球馆",
    "score": 3.3,
    "orgId": 158468435,
    "latitude": 22.9947
  },
  {
    "tags": [
      { "type": 2, "value": "评分：4.4" },
      { "type": 1, "value": "免费WiFi" }
    ],
    "orgAddr": "东城街道南城街道鸿福路200号第一国际财富中心6栋204室",
    "mtId": 1729553543,
    "phone": "4001016029-2198",
    "desc": "营业时间：周三,周四 09:30-20:30  周二,周五 14:30-20:30  周六,周日 08:30-18:00",
    "areaCode": "441900",
    "longitude": 113.7564,
    "note": "¥9.9起，「4-12」零基础篮球课-¥69.9，【2节】0基础篮球运动课-¥300，【2节】体能训练课-¥300，「5-12」跳绳达标课-¥69.9，「2-8」体能达标课-¥69.9，「3-4」平衡车课-¥69.9，「春季长高」运动培训课2节-¥600，「3-8」专业体能测试-¥69.9，「会员尊享」会员运动服-¥9.9，「1份」精美礼品-汗巾-¥9.9",
    "orgName": "卓跃儿童运动馆·体能·篮球·跳绳（第一国际中心店）",
    "score": 4.4,
    "orgId": 1729553543,
    "latitude": 23.0106
  },
  {
    "tags": [
      { "type": 2, "value": "评分：3.5" },
      { "type": 1, "value": "专业队输送点" },
      { "type": 1, "value": "有淋浴间" },
      { "type": 1, "value": "有充电宝" },
      { "type": 1, "value": "有休息区" },
      { "type": 1, "value": "有卫生间" },
      { "type": 1, "value": "无烟环境" },
      { "type": 1, "value": "免费茶水" },
      { "type": 1, "value": "器材租赁" },
      { "type": 1, "value": "免费WiFi" }
    ],
    "orgAddr": "东城街道东城体育公园篮球场",
    "mtId": 1639183433,
    "phone": "4000303096-20891",
    "desc": "营业时间：周六,周日 08:00-22:30  周一至周五 08:00-22:00",
    "areaCode": "441900",
    "longitude": 113.7751,
    "note": "¥49.9起，【年龄3-16】篮球训练私教课1节-¥150，【2次课】篮球培训提高课+骨龄、身高发育评估报告-¥49.9，【2次课】篮球培训基础课+骨龄、身高发育评估报告-¥49.9",
    "orgName": "巨人体育篮球中心（东城体育公园店）",
    "score": 3.5,
    "orgId": 1639183433,
    "latitude": 23.0065
  },
  {
    "tags": [{ "type": 2, "value": "评分：-" }],
    "orgAddr": "石排镇埔心浅潭街2号",
    "mtId": 1266632153,
    "phone": "13380175638",
    "desc": "营业时间：周一至周日 10:00-22:00",
    "areaCode": "441900",
    "longitude": 113.9327,
    "note": "¥19.9起，篮球体验课课包【2节体验课+课评】-¥19.9",
    "orgName": "传奇篮球馆",
    "score": 0,
    "orgId": 1266632153,
    "latitude": 23.0917
  },
  {
    "tags": [{ "type": 2, "value": "评分：3.0" }],
    "orgAddr": "南城街道香园路20号万科769文化创意园1栋2层221-222",
    "mtId": 683725015,
    "phone": "4000303096-70451",
    "desc": "营业时间：周一至周日 00:00-23:30",
    "areaCode": "441900",
    "longitude": 113.7362,
    "note": "¥99起，【3--12】篮球常规课8节-¥680，7-12岁少儿篮球体验课3节-¥99，3-6岁幼儿篮球体验课3节-¥99",
    "orgName": "华蒙星少儿篮球俱乐部（南城文创校区）",
    "score": 3,
    "orgId": 683725015,
    "latitude": 23.0004
  },
  {
    "tags": [
      { "type": 2, "value": "评分：4.8" },
      { "type": 1, "value": "空调开放" },
      { "type": 1, "value": "有淋浴间" },
      { "type": 1, "value": "有休息区" },
      { "type": 1, "value": "有卫生间" },
      { "type": 1, "value": "无烟环境" },
      { "type": 1, "value": "免费茶水" },
      { "type": 1, "value": "免费WiFi" }
    ],
    "orgAddr": "常平镇创业一路25号305室",
    "mtId": 1252963335,
    "phone": "4000303096-46074",
    "desc": "营业时间：周二至周五 14:00-18:00 19:00-21:00  周六,周日 09:00-12:00 14:00-18:00",
    "areaCode": "441900",
    "longitude": 113.9883,
    "note": "¥19.9起，启蒙篮球-¥19.9",
    "orgName": "智拓少儿体能运动馆",
    "score": 4.8,
    "orgId": 1252963335,
    "latitude": 22.9834
  },
  {
    "tags": [
      { "type": 2, "value": "评分：-" },
      { "type": 1, "value": "有淋浴间" },
      { "type": 1, "value": "有卫生间" },
      { "type": 1, "value": "无烟环境" },
      { "type": 1, "value": "免费茶水" }
    ],
    "orgName": "昕盛体育青少年篮球培训基地（大井头校区）",
    "mtId": 539446286,
    "phone": "4000303096-05868",
    "desc": "营业时间：周一至周日 09:30-22:30",
    "areaCode": "441900",
    "longitude": 113.9439,
    "note": "¥1起，室内小班篮球培训4课时-¥248，室内小班篮球培训4课时-¥248，［8—10］篮球基础班体验课-¥1，室内小班篮球培训4课时-¥248，［3—7］篮球启蒙体验课-¥1，订场-¥9.9",
    "orgAddr": "大朗镇宏育路18号101室",
    "score": 0,
    "orgId": 539446286,
    "latitude": 22.9463
  },
  {
    "tags": [
      { "type": 2, "value": "评分：5.0" },
      { "type": 1, "value": "有充电宝" },
      { "type": 1, "value": "有卫生间" },
      { "type": 1, "value": "免费WiFi" }
    ],
    "orgName": "悦动篮球培训（中堂店）",
    "mtId": 852732515,
    "phone": "4000303096-19298",
    "desc": "营业时间：周一至周日 09:00-21:00",
    "areaCode": "441900",
    "longitude": 113.6538,
    "note": "¥9.9起，2次篮球课+1套篮球服-¥88，专业篮球体验课1次-¥9.9，专业篮球课2次-¥88",
    "orgAddr": "中堂镇振兴路6号中天城市广场2楼203室悦动篮球培训中心",
    "score": 5,
    "orgId": 852732515,
    "latitude": 23.0967
  },
  {
    "tags": [
      { "type": 2, "value": "评分：5.0" },
      { "type": 1, "value": "免费WiFi" }
    ],
    "orgName": "萌虎少儿体适能运动馆",
    "mtId": 195101434,
    "phone": "4000303096-78563",
    "desc": "营业时间：周六,周日 09:00-18:00  周一至周五 14:00-20:00",
    "areaCode": "441900",
    "longitude": 113.6729,
    "note": "¥1起，【3-12龄段】基础篮球训练课1节-¥9.9，【3-12龄段】基础体能/篮球/跳绳/平衡车课3节-¥138",
    "orgAddr": "虎门镇太沙路64号3楼323室",
    "score": 5,
    "orgId": 195101434,
    "latitude": 22.8108
  },
  {
    "tags": [{ "type": 2, "value": "评分：4.6" }],
    "orgName": "华蒙星少儿篮球俱乐部（道滘济川校区）",
    "mtId": 1470490475,
    "phone": "4000303096-12406",
    "desc": "营业时间：周一至周日 00:00-23:30",
    "areaCode": "441900",
    "longitude": 113.6799,
    "note": "¥99起，【3--12】篮球常规课8节-¥680，7-12岁少儿篮球体验课3节-¥99，3-6岁幼儿篮球体验课3节-¥99",
    "orgAddr": "道滘镇道滘中路济川体育馆（济川中学对面）",
    "score": 4.6,
    "orgId": 1470490475,
    "latitude": 23.0015
  },
  {
    "tags": [
      { "type": 2, "value": "评分：4.2" },
      { "type": 1, "value": "免费WiFi" }
    ],
    "orgName": "趣跃猩运动中心（大朗店）",
    "mtId": 1112973848,
    "phone": "4000303096-76512",
    "desc": "营业时间：周六,周日 09:00-21:00  周二至周五 14:00-21:00",
    "areaCode": "441900",
    "longitude": 113.9244,
    "note": "¥9.9起，【篮球体验课】2节-¥69",
    "orgAddr": "大朗镇明上街33号1栋211室",
    "score": 4.2,
    "orgId": 1112973848,
    "latitude": 22.9303
  },
  {
    "tags": [
      { "type": 2, "value": "评分：4.5" },
      { "type": 1, "value": "有充电宝" },
      { "type": 1, "value": "免费WiFi" }
    ],
    "orgName": "趣跃猩运动中心（南城店）",
    "mtId": 1807715017,
    "phone": "4000303096-52123",
    "desc": "营业时间：周六,周日 09:00-21:00  周二至周五 14:00-21:00",
    "areaCode": "441900",
    "longitude": 113.7558,
    "note": "¥9.9起，【篮球体验课】2节-¥69",
    "orgAddr": "南城街道文鼎大厦7楼701室",
    "score": 4.5,
    "orgId": 1807715017,
    "latitude": 22.993
  },
  {
    "tags": [{ "type": 2, "value": "评分：3.5" }],
    "orgName": "巨人体育篮球中心（星河城店）",
    "mtId": 195153282,
    "phone": "0769-22296080/13925520621",
    "desc": "营业时间：周一至周日 09:00-22:30",
    "areaCode": "441900",
    "longitude": 113.7918,
    "note": "",
    "orgAddr": "东城街道东昇路东城段88号莞翠邨1栋",
    "score": 3.5,
    "orgId": 195153282,
    "latitude": 23.0193
  },
  {
    "tags": [
      { "type": 2, "value": "评分：4.3" },
      { "type": 1, "value": "免费WiFi" }
    ],
    "orgName": "华蒙星少儿篮球俱乐部（园龙山校区）",
    "mtId": 1122151878,
    "phone": "18024465835",
    "desc": "营业时间：周一至周日 08:30-23:30",
    "areaCode": "441900",
    "longitude": 114.1455,
    "note": "",
    "orgAddr": "凤岗镇康佳路园龙山公园西门旁",
    "score": 4.3,
    "orgId": 1122151878,
    "latitude": 22.7377
  },
  {
    "tags": [
      { "type": 2, "value": "评分：3.0" },
      { "type": 1, "value": "有充电宝" },
      { "type": 1, "value": "免费WiFi" }
    ],
    "orgName": "巴雷篮球运动培训中心",
    "mtId": 628214751,
    "phone": "17722367823",
    "desc": "营业时间：周二至周五 14:00-19:00  周六,周日 09:00-21:00",
    "areaCode": "441900",
    "longitude": 113.783,
    "note": "",
    "orgAddr": "东城街道东城东路16号新世界广场2栋301室",
    "score": 3,
    "orgId": 628214751,
    "latitude": 23.018
  },
  {
    "tags": [{ "type": 2, "value": "评分：3.5" }],
    "orgName": "东莞篮球中心售票处",
    "mtId": 166270538,
    "phone": "",
    "desc": "营业时间：周一至周日 09:00-18:30",
    "areaCode": "441900",
    "longitude": 113.8413,
    "note": "",
    "orgAddr": "寮步镇金富路东莞银行篮球中心",
    "score": 3.5,
    "orgId": 166270538,
    "latitude": 22.9969
  },
  {
    "tags": [
      { "type": 2, "value": "评分：4.5" },
      { "type": 1, "value": "有储物柜" },
      { "type": 1, "value": "空调开放" },
      { "type": 1, "value": "可预订场地" },
      { "type": 1, "value": "有充电宝" },
      { "type": 1, "value": "有休息区" },
      { "type": 1, "value": "有卫生间" },
      { "type": 1, "value": "无烟环境" },
      { "type": 1, "value": "免费茶水" },
      { "type": 1, "value": "器材租赁" },
      { "type": 1, "value": "免费WiFi" }
    ],
    "orgAddr": "高埗镇高埗广场南路11号237室",
    "mtId": 635854711,
    "phone": "4001016029-7418",
    "desc": "营业时间：周日 09:00-18:00  周六 09:00-12:00 14:00-21:00  周二至周五 14:00-21:00",
    "areaCode": "441900",
    "longitude": 113.7549,
    "note": "¥9.9起",
    "orgName": "IKIDFIT爱酷少儿体能中心（高埗店）",
    "score": 4.5,
    "orgId": 635854711,
    "latitude": 23.0887
  },
  {
    "tags": [
      { "type": 2, "value": "评分：4.4" },
      { "type": 1, "value": "有储物柜" },
      { "type": 1, "value": "免费WiFi" }
    ],
    "orgAddr": "大岭山镇意百培训中心",
    "mtId": 1108165744,
    "phone": "4000303096-85740",
    "desc": "营业时间：周一至周日 08:00-22:00",
    "areaCode": "441900",
    "longitude": 113.847,
    "note": "¥1起，5-12Y篮球-¥9.9",
    "orgName": "乐绮天熊平衡车感统体能运动早教中心",
    "score": 4.4,
    "orgId": 1108165744,
    "latitude": 22.9039
  },
  {
    "tags": [
      { "type": 2, "value": "评分：4.6" },
      { "type": 1, "value": "免费WiFi" }
    ],
    "orgAddr": "东城街道卓越时代广场3楼",
    "mtId": 1309116727,
    "phone": "4000303096-58385",
    "desc": "营业时间：周六,周日 09:00-21:00  周一至周五 14:00-21:00",
    "areaCode": "441900",
    "longitude": 113.779,
    "note": "¥9.9起，【篮球体验课】2节-¥69",
    "orgName": "趣跃猩运动中心（东城店）",
    "score": 4.6,
    "orgId": 1309116727,
    "latitude": 23.0341
  },
  {
    "tags": [
      { "type": 2, "value": "评分：3.0" },
      { "type": 1, "value": "免费WiFi" }
    ],
    "orgAddr": "东城街道东城路莞城段228号中天VPARK商业广场三楼",
    "mtId": 1786143545,
    "phone": "15338020790",
    "desc": "营业时间：周一至周五 14:30-21:00  周六,周日 09:00-21:00",
    "areaCode": "441900",
    "longitude": 113.769,
    "note": "",
    "orgName": "关键球员·室内少儿篮球培训（中天Vpark馆）",
    "score": 3,
    "orgId": 1786143545,
    "latitude": 23.031
  },
  {
    "tags": [{ "type": 2, "value": "评分：4.1" }],
    "orgAddr": "东城街道莞温路与东宝路交叉口东南约220米",
    "mtId": 1428497460,
    "phone": "4000303096-38839",
    "desc": "营业时间：周一至周日 09:00-22:00",
    "areaCode": "441900",
    "longitude": 113.7876,
    "note": "¥99起，7-12岁少儿篮球体验课3节-¥99，3-6岁幼儿篮球体验课3节-¥99，【3--12】篮球常规课8节-¥680",
    "orgName": "华蒙星少儿篮球（东城汇众校区）",
    "score": 4.1,
    "orgId": 1428497460,
    "latitude": 23.044
  },
  {
    "tags": [
      { "type": 2, "value": "评分：4.1" },
      { "type": 1, "value": "空调开放" },
      { "type": 1, "value": "有充电宝" },
      { "type": 1, "value": "免费WiFi" }
    ],
    "orgAddr": "长安镇长安长青北路314号悦城广场312室",
    "mtId": 626534130,
    "phone": "4000303096-49238",
    "desc": "营业时间：周六,周日 09:00-21:00  周二至周五 14:00-21:00",
    "areaCode": "441900",
    "longitude": 113.8013,
    "note": "¥9.9起，【篮球体验课】2节-¥69",
    "orgName": "趣跃猩运动中心（长安店）",
    "score": 4.1,
    "orgId": 626534130,
    "latitude": 22.8183
  },
  {
    "tags": [{ "type": 2, "value": "评分：-" }],
    "orgAddr": "茶山镇雅苑三街10号101室",
    "mtId": 571078747,
    "phone": "13416971555",
    "desc": "营业时间：周一至周日 09:00-23:30",
    "areaCode": "441900",
    "longitude": 113.8692,
    "note": "¥19.9起，篮球体验课课包【2节体验课+课评】-¥19.9",
    "orgName": "茶山传奇篮球俱乐部",
    "score": 0,
    "orgId": 571078747,
    "latitude": 23.0761
  },
  {
    "tags": [{ "type": 2, "value": "评分：3.0" }],
    "orgAddr": "东城街道新世界花园(东城南路北)C区怡枫酒店大堂上3楼",
    "mtId": 1718985136,
    "phone": "13712770633",
    "desc": "营业时间：周一至周日 10:00-22:00",
    "areaCode": "441900",
    "longitude": 113.7835,
    "note": "",
    "orgName": "东方启明星草根篮球培训馆（东城新世界店）",
    "score": 3,
    "orgId": 1718985136,
    "latitude": 23.018
  },
  {
    "tags": [
      { "type": 2, "value": "评分：-" },
      { "type": 1, "value": "有储物柜" },
      { "type": 1, "value": "有淋浴间" },
      { "type": 1, "value": "有充电宝" },
      { "type": 1, "value": "有卫生间" },
      { "type": 1, "value": "无烟环境" },
      { "type": 1, "value": "器材租赁" },
      { "type": 1, "value": "免费WiFi" }
    ],
    "orgAddr": "石龙镇石龙头路龙珠花园38号",
    "mtId": 1360489177,
    "phone": "18825147574",
    "desc": "营业时间：周一至周五 18:00-22:00  周六,周日 10:00-21:00",
    "areaCode": "441900",
    "longitude": 113.8601,
    "note": "¥9.9起，【春季班】篮球体验薪赛事训练6-14-¥9.9，【春季班】篮球体验薪强化训练7-16-¥9.9，室内小班篮球培训1课时(萌芽班)-¥9.9，【春季班】篮球体验薪基础训练7-16-¥9.9，【春季班】篮球体验萌芽班零基础-¥69.9，全场租赁2小时（仅限打球）-¥588",
    "orgName": "薪火阵营篮球培训中心（石龙店）",
    "score": 0,
    "orgId": 1360489177,
    "latitude": 23.1059
  },
  {
    "tags": [
      { "type": 2, "value": "评分：-" },
      { "type": 1, "value": "有淋浴间" },
      { "type": 1, "value": "有卫生间" },
      { "type": 1, "value": "免费WiFi" }
    ],
    "orgAddr": "万江街道万道路万江段24号华南摩尔BC区3楼（八方酒店电梯上三楼）",
    "mtId": 1878962038,
    "phone": "4000303096-75185",
    "desc": "营业时间：周二至周五 13:30-21:00  周日 09:00-18:30  周六 09:00-21:00",
    "areaCode": "441900",
    "longitude": 113.7262,
    "note": "¥9.9起，【幼儿启蒙】篮球体验课-¥9.9，【少儿基础】篮球体验课-¥9.9，【青少儿提高】篮球体验课-¥9.9，【暑假特惠】青少儿篮球体验课程包-¥29.9",
    "orgName": "我赛尔篮球训练中心-东莞华南摩尔校区",
    "score": 0,
    "orgId": 1878962038,
    "latitude": 23.035
  },
  {
    "tags": [
      { "type": 2, "value": "评分：4.5" },
      { "type": 1, "value": "有储物柜" },
      { "type": 1, "value": "空调开放" },
      { "type": 1, "value": "可预订场地" },
      { "type": 1, "value": "有充电宝" },
      { "type": 1, "value": "有休息区" },
      { "type": 1, "value": "有卫生间" },
      { "type": 1, "value": "无烟环境" },
      { "type": 1, "value": "免费茶水" },
      { "type": 1, "value": "器材租赁" },
      { "type": 1, "value": "免费WiFi" }
    ],
    "orgName": "IKIDFIT爱酷少儿体能中心（麻涌店）",
    "mtId": 191929821,
    "phone": "4000303096-96075",
    "desc": "营业时间：周六,周日 09:00-21:00  周二至周五 14:00-21:00",
    "areaCode": "441900",
    "longitude": 113.5792,
    "note": "¥9.9起，【4-12】篮球体能训练课-¥68，【4-12】篮球体能训练课-¥9.9",
    "orgAddr": "麻涌镇中心大道37号荣邦财富中心208室",
    "score": 4.5,
    "orgId": 191929821,
    "latitude": 23.0369
  },
  {
    "tags": [
      { "type": 2, "value": "评分：3.0" },
      { "type": 1, "value": "免费WiFi" }
    ],
    "orgName": "华蒙星少儿篮球俱乐部",
    "mtId": 1709849919,
    "phone": "13885482203",
    "desc": "营业时间：周一至周日 08:30-23:30",
    "areaCode": "441900",
    "longitude": 113.683,
    "note": "",
    "orgAddr": "厚街镇三屯社区厚道路西12号万科生活广场F3层",
    "score": 3,
    "orgId": 1709849919,
    "latitude": 22.9528
  },
  {
    "tags": [
      { "type": 2, "value": "评分：5.0" },
      { "type": 1, "value": "免费WiFi" }
    ],
    "orgName": "小小运动馆（长安中心）",
    "mtId": 779755961,
    "phone": "4000303096-26539",
    "desc": "营业时间：周三至周日 09:00-18:00",
    "areaCode": "441900",
    "longitude": 113.7994,
    "note": "¥9.9起，启蒙篮球班1课时-¥69",
    "orgAddr": "长安镇德政中路222号长安国际酒店创造营3楼303室",
    "score": 5,
    "orgId": 779755961,
    "latitude": 22.8146
  },
  {
    "tags": [{ "type": 2, "value": "评分：3.0" }],
    "orgName": "星奥翔篮球训练营（蔚蓝星湖店）",
    "mtId": 159591231,
    "phone": "13539031102/13168966456",
    "desc": "营业时间：周一至周日 10:00-22:00",
    "areaCode": "441900",
    "longitude": 113.786,
    "note": "",
    "orgAddr": "东城街道东宝路99号蔚蓝星湖花园",
    "score": 3,
    "orgId": 159591231,
    "latitude": 23.0518
  },
  {
    "tags": [
      { "type": 2, "value": "评分：4.1" },
      { "type": 1, "value": "有充电宝" },
      { "type": 1, "value": "免费WiFi" }
    ],
    "orgName": "华蒙星少儿篮球俱乐部（石排校区）",
    "mtId": 1534734510,
    "phone": "13580367380",
    "desc": "营业时间：周一至周日 08:30-23:30",
    "areaCode": "441900",
    "longitude": 113.9397,
    "note": "",
    "orgAddr": "石排镇石岗大道创赢大厦3楼",
    "score": 4.1,
    "orgId": 1534734510,
    "latitude": 23.0738
  },
  {
    "tags": [
      { "type": 2, "value": "评分：4.1" },
      { "type": 1, "value": "有卫生间" },
      { "type": 1, "value": "无烟环境" },
      { "type": 1, "value": "免费茶水" },
      { "type": 1, "value": "免费WiFi" }
    ],
    "orgName": "启航少儿篮球运动中心",
    "mtId": 1861879844,
    "phone": "13662933978",
    "desc": "营业时间：周二至周五 14:00-21:30  周六,周日 09:00-21:30",
    "areaCode": "441900",
    "longitude": 113.7988,
    "note": "",
    "orgAddr": "东城街道塘边头东区一街2号103室",
    "score": 4.1,
    "orgId": 1861879844,
    "latitude": 23.0411
  },
  {
    "tags": [{ "type": 2, "value": "评分：3.0" }],
    "orgName": "乐兔少儿体能运动馆（高埗店）",
    "mtId": 1051850475,
    "phone": "4000303096-58295",
    "desc": "营业时间：周三,周五 14:30-21:00  周二,周四,周六,周日 09:30-21:00",
    "areaCode": "441900",
    "longitude": 113.7467,
    "note": "¥19.9起，【5-12】篮球体能课-¥19.9",
    "orgAddr": "高埗镇广场南路2号振兴城3楼301-308室",
    "score": 3,
    "orgId": 1051850475,
    "latitude": 23.0862
  },
  {
    "tags": [
      { "type": 2, "value": "评分：4.3" },
      { "type": 1, "value": "有储物柜" },
      { "type": 1, "value": "免费WiFi" }
    ],
    "orgName": "杰星少儿篮球培训中心（金月湾店）",
    "mtId": 1970931837,
    "phone": "4000303096-82543",
    "desc": "营业时间：周日 09:00-18:00  周六 09:00-20:30  周二至周五 10:30-20:30",
    "areaCode": "441900",
    "longitude": 113.7827,
    "note": "",
    "orgAddr": "东城街道东源路金月湾广场B区二楼（蒲发楼上）",
    "score": 4.3,
    "orgId": 1970931837,
    "latitude": 23.0309
  },
  {
    "tags": [
      { "type": 2, "value": "评分：4.6" },
      { "type": 1, "value": "空调开放" },
      { "type": 1, "value": "有休息区" },
      { "type": 1, "value": "有卫生间" },
      { "type": 1, "value": "无烟环境" },
      { "type": 1, "value": "免费茶水" },
      { "type": 1, "value": "免费WiFi" }
    ],
    "orgName": "卓跃儿童运动馆（常平中心）",
    "mtId": 195066041,
    "phone": "4000303096-85457",
    "desc": "营业时间：周六,周日 09:00-18:30  周二至周五 14:00-21:00",
    "areaCode": "441900",
    "longitude": 114.0141,
    "note": "¥69.9起，「4--12」篮球体能课-¥69.9",
    "orgAddr": "常平镇常马路世纪康城兰桂坊街5号101",
    "score": 4.6,
    "orgId": 195066041,
    "latitude": 22.9778
  },
  {
    "tags": [
      { "type": 2, "value": "评分：4.5" },
      { "type": 1, "value": "有淋浴间" },
      { "type": 1, "value": "有充电宝" },
      { "type": 1, "value": "免费WiFi" }
    ],
    "orgName": "乐兔少儿体能运动馆（黄江校区）",
    "mtId": 1398785733,
    "phone": "4000303096-84365",
    "desc": "营业时间：周二至周五 14:00-21:00  周六,周日 09:00-20:00",
    "areaCode": "441900",
    "longitude": 114.0182,
    "note": "¥19.9起，【5-12】篮球体能课-¥19.9",
    "orgAddr": "黄江镇板湖路30号汇隆中心1楼113室（大堂左侧)",
    "score": 4.5,
    "orgId": 1398785733,
    "latitude": 22.9221
  },
  {
    "tags": [
      { "type": 2, "value": "评分：4.5" },
      { "type": 1, "value": "有卫生间" },
      { "type": 1, "value": "免费WiFi" }
    ],
    "orgAddr": "大朗镇富民中路399号大和国际购物中心4楼404室",
    "mtId": 1116959739,
    "phone": "4000303096-70316",
    "desc": "营业时间：周二至周五 14:00-21:00  周六,周日 08:30-19:00",
    "areaCode": "441900",
    "longitude": 113.9347,
    "note": "¥19.9起，【5-12】篮球体能课-¥19.9",
    "orgName": "乐兔少儿体能运动馆（大朗店）",
    "score": 4.5,
    "orgId": 1116959739,
    "latitude": 22.9271
  },
  {
    "tags": [{ "type": 2, "value": "评分：3.0" }],
    "orgAddr": "厚街镇湖景大道环冈农贸市场西侧约250米",
    "mtId": 185697176,
    "phone": "",
    "desc": "营业时间：",
    "areaCode": "441900",
    "longitude": 113.7112,
    "note": "",
    "orgName": "杜锋篮球培训班",
    "score": 3,
    "orgId": 185697176,
    "latitude": 22.9226
  },
  {
    "tags": [
      { "type": 2, "value": "评分：4.2" },
      { "type": 1, "value": "有卫生间" },
      { "type": 1, "value": "无烟环境" },
      { "type": 1, "value": "免费茶水" },
      { "type": 1, "value": "免费WiFi" }
    ],
    "orgAddr": "东城街道长泰路中信风云汇3楼315号",
    "mtId": 1596299849,
    "phone": "13713223737",
    "desc": "营业时间：周一至周日 09:00-21:30",
    "areaCode": "441900",
    "longitude": 113.7592,
    "note": "",
    "orgName": "卓启少儿篮球",
    "score": 4.2,
    "orgId": 1596299849,
    "latitude": 22.9991
  },
  {
    "tags": [{ "type": 2, "value": "评分：-" }],
    "orgAddr": "东城街道元美中路9号",
    "mtId": 1400411009,
    "phone": "4000303096-34172",
    "desc": "营业时间：周一至周日 10:00-22:00",
    "areaCode": "441900",
    "longitude": 113.7541,
    "note": "¥1起，【2-16】美式篮球·初体验-¥1，【2-12】体适能训练-¥1，美式篮球·技能培训4节+礼物-¥340，美式篮球·兴趣培养4节+礼品-¥340，美式体适能·增高课4节+礼品-¥340，代金券-¥1000，美式篮球·启蒙课4节+礼品-¥340，美式体适能·跳绳4节+礼品-¥340",
    "orgName": "莱德队长儿童篮球体适能运动中心（汇一城校区）",
    "score": 0,
    "orgId": 1400411009,
    "latitude": 23.0083
  },
  {
    "tags": [
      { "type": 2, "value": "评分：-" },
      { "type": 1, "value": "空调开放" },
      { "type": 1, "value": "有充电宝" },
      { "type": 1, "value": "有休息区" },
      { "type": 1, "value": "免费茶水" },
      { "type": 1, "value": "免费WiFi" }
    ],
    "orgAddr": "虎门镇太沙路130号君悦花园12栋202室",
    "mtId": 1549200238,
    "phone": "4000303096-34845",
    "desc": "营业时间：周六,周日 09:00-12:00 14:00-21:00  周二至周五 14:00-21:00",
    "areaCode": "441900",
    "longitude": 113.6855,
    "note": "¥39起，篮球体能训练课-¥39",
    "orgName": "IKIDFIT爱酷少儿体能中心（虎门店）",
    "score": 0,
    "orgId": 1549200238,
    "latitude": 22.8067
  },
  {
    "tags": [
      { "type": 2, "value": "评分：5.0" },
      { "type": 1, "value": "共3个房间" }
    ],
    "orgAddr": "凤岗镇镇田中路20号108室",
    "mtId": 739454183,
    "phone": "13650461289",
    "desc": "营业时间：周一至周日 10:00-21:00",
    "areaCode": "441900",
    "longitude": 114.1707,
    "note": "¥58起，运动损伤手法调整(篮球 足球 网球 羽毛球 游泳)-¥128",
    "orgName": "筋骨康跌打馆（凤岗店）",
    "score": 5,
    "orgId": 739454183,
    "latitude": 22.697
  },
  {
    "tags": [
      { "type": 2, "value": "评分：4.0" },
      { "type": 1, "value": "面积600㎡ | 可容纳30人" }
    ],
    "orgAddr": "东城街道东昇路东升商厦3楼",
    "mtId": 1935631763,
    "phone": "0769-22682020",
    "desc": "营业时间：周一至周日 08:00-22:00",
    "areaCode": "441900",
    "longitude": 113.7984,
    "note": "¥16.8起，篮球专项体能-¥180",
    "orgName": "20+TWENTY PLUS 健身工作室",
    "score": 4,
    "orgId": 1935631763,
    "latitude": 23.0215
  },
  {
    "tags": [
      { "type": 2, "value": "评分：4.0" },
      { "type": 1, "value": "免费WiFi" }
    ],
    "orgAddr": "南城街道元美路第一国际百安中心",
    "mtId": 1669926609,
    "phone": "4000303096-56415",
    "desc": "营业时间：周一至周日 10:00-18:00",
    "areaCode": "441900",
    "longitude": 113.7531,
    "note": "¥1起，趣味篮球课体验-¥50",
    "orgName": "海德易趣园·托育（南城店）",
    "score": 4,
    "orgId": 1669926609,
    "latitude": 23.0055
  },
  {
    "tags": [
      { "type": 2, "value": "评分：4.6" },
      { "type": 1, "value": "有卫生间" },
      { "type": 1, "value": "免费WiFi" }
    ],
    "orgAddr": "桥头镇桥光大道163号3号楼111室",
    "mtId": 195141567,
    "phone": "4000303096-28097",
    "desc": "营业时间：周六,周日 08:30-20:00  周二至周五 14:00-21:00",
    "areaCode": "441900",
    "longitude": 114.0979,
    "note": "¥19.9起，【5-12】篮球体能课-¥19.9",
    "orgName": "乐兔少儿体能运动馆（桥头总校区）",
    "score": 4.6,
    "orgId": 195141567,
    "latitude": 23.0169
  },
  {
    "tags": [
      { "type": 2, "value": "评分：4.4" },
      { "type": 1, "value": "面积210㎡ | 可容纳20人" }
    ],
    "orgAddr": "道滘镇小河路宝泰大厦A座4楼",
    "mtId": 1027382227,
    "phone": "15625857879",
    "desc": "营业时间：周一至周日 09:00-22:00",
    "areaCode": "441900",
    "longitude": 113.6748,
    "note": "¥1起，【篮球/足球体能】新学员完整1V1体验课一节-¥99",
    "orgName": "一公里健身普拉提产后",
    "score": 4.4,
    "orgId": 1027382227,
    "latitude": 23.0086
  },
  {
    "tags": [{ "type": 2, "value": "评分：5.0" }],
    "orgName": "遇见花开（篮球场店）",
    "mtId": 188447145,
    "phone": "13538360575/13798823186",
    "desc": "营业时间：周一至周日 08:00-23:30",
    "areaCode": "441900",
    "longitude": 113.9173,
    "note": "",
    "orgAddr": "大朗镇水平村松水路358号天润发时代广场35号",
    "score": 5,
    "orgId": 188447145,
    "latitude": 22.8776
  },
  {
    "tags": [
      { "type": 2, "value": "评分：5.0" },
      { "type": 1, "value": "共1个房间" },
      { "type": 1, "value": "沐浴房" }
    ],
    "orgName": "助力运动康复（大朗店）",
    "mtId": 1096168280,
    "phone": "13827228905",
    "desc": "营业时间：周五 09:00-18:00  周一至周四,周六,周日 10:00-19:00",
    "areaCode": "441900",
    "longitude": 113.9245,
    "note": "¥8起，【训练体验课】篮球体能训练｜运动损伤｜术后训练-¥238",
    "orgAddr": "大朗镇康丰路29号（广东省小篮球培训基地内）",
    "score": 5,
    "orgId": 1096168280,
    "latitude": 22.961
  },
  {
    "tags": [
      { "type": 2, "value": "评分：4.7" },
      { "type": 1, "value": "有充电宝" },
      { "type": 1, "value": "无烟环境" },
      { "type": 1, "value": "免费茶水" },
      { "type": 1, "value": "免费WiFi" }
    ],
    "orgName": "领跑童年运动馆",
    "mtId": 500952832,
    "phone": "4001016029-0798",
    "desc": "营业时间：周二至周五 14:30-21:00  周六,周日 09:00-21:00",
    "areaCode": "441900",
    "longitude": 113.665,
    "note": "¥1起",
    "orgAddr": "望牛墩镇恒大翡翠华庭1期2楼领跑童年运动馆",
    "score": 4.7,
    "orgId": 500952832,
    "latitude": 23.0549
  },
  {
    "tags": [
      { "type": 2, "value": "评分：-" },
      { "type": 1, "value": "有储物柜" },
      { "type": 1, "value": "空调开放" },
      { "type": 1, "value": "有休息区" },
      { "type": 1, "value": "有卫生间" },
      { "type": 1, "value": "无烟环境" },
      { "type": 1, "value": "免费茶水" },
      { "type": 1, "value": "免费WiFi" }
    ],
    "orgName": "乐兔少儿体能运动馆（茶山校区）",
    "mtId": 1239367494,
    "phone": "13412997879",
    "desc": "营业时间：周六,周日 08:30-19:30  周二至周五 14:00-20:30",
    "areaCode": "441900",
    "longitude": 113.8563,
    "note": "¥19.9起，【4-7】篮球体能课-¥19.9",
    "orgAddr": "茶山镇安泰路茶山体育馆北区1楼",
    "score": 0,
    "orgId": 1239367494,
    "latitude": 23.0652
  },
  {
    "tags": [{ "type": 2, "value": "评分：-" }],
    "orgName": "旋风少儿篮球工作室",
    "mtId": 1381639517,
    "phone": "4000303096-37563",
    "desc": "营业时间：周一至周日 08:30-21:00",
    "areaCode": "441900",
    "longitude": 113.8077,
    "note": "¥9.9起，室内小班篮球培训1课时-¥9.9，室内大班篮球培训3课时-¥9.9，室内小班篮球培训1课时-¥9.9",
    "orgAddr": "东城街道庆星路1号1079室",
    "score": 0,
    "orgId": 1381639517,
    "latitude": 23.036
  },
  {
    "tags": [
      { "type": 2, "value": "评分：5.0" },
      { "type": 1, "value": "有母婴室" },
      { "type": 1, "value": "儿童卫生间" },
      { "type": 1, "value": "儿童游乐区" },
      { "type": 1, "value": "免费点心" },
      { "type": 1, "value": "室内恒温" },
      { "type": 1, "value": "有充电宝" },
      { "type": 1, "value": "有休息区" },
      { "type": 1, "value": "有储物柜" },
      { "type": 1, "value": "无烟环境" },
      { "type": 1, "value": "免费茶水" },
      { "type": 1, "value": "育儿讲座" },
      { "type": 1, "value": "亲子活动" },
      { "type": 1, "value": "免费WiFi" },
      { "type": 1, "value": "付费停车" }
    ],
    "orgName": "致上童心城·早教托育体能（寮步总店）",
    "mtId": 184692427,
    "phone": "4000303096-87851",
    "desc": "营业时间：周一至周日 08:00-20:00",
    "areaCode": "441900",
    "longitude": 113.8804,
    "note": "¥9.9起，【热销】篮球体能训练课-¥19.9",
    "orgAddr": "寮步镇塘边社区碧园路东方商业街乐荟城f区（皮记大排档对面）",
    "score": 5,
    "orgId": 184692427,
    "latitude": 22.9941
  },
  {
    "tags": [{ "type": 2, "value": "评分：3.0" }],
    "orgName": "东城篮球俱乐部",
    "mtId": 165951321,
    "phone": "",
    "desc": "营业时间：周一至周日 08:30-22:00",
    "areaCode": "441900",
    "longitude": 113.774,
    "note": "",
    "orgAddr": "东城街道东城体育公园北门",
    "score": 3,
    "orgId": 165951321,
    "latitude": 23.0048
  },
  {
    "tags": [{ "type": 2, "value": "评分：5.0" }],
    "orgName": "爱花居鲜花店（37℃花植店）",
    "mtId": 1929909807,
    "phone": "13809632408",
    "desc": "营业时间：周一至周日 10:00-21:00",
    "areaCode": "441900",
    "longitude": 113.5906,
    "note": "¥119起",
    "orgAddr": "麻涌镇规划八路万科三期商业街66栋205室（啊一柠檬茶隔壁）",
    "score": 5,
    "orgId": 1929909807,
    "latitude": 23.0264
  },
  {
    "tags": [{ "type": 2, "value": "评分：-" }],
    "orgName": "篮球场（唐洪店）",
    "mtId": 691557508,
    "phone": "",
    "desc": "营业时间：周一至周日 全天",
    "areaCode": "441900",
    "longitude": 113.8423,
    "note": "",
    "orgAddr": "石碣镇滨江东路65号",
    "score": 0,
    "orgId": 691557508,
    "latitude": 23.1015
  },
  {
    "tags": [{ "type": 2, "value": "评分：-" }],
    "orgName": "上沙篮球场",
    "mtId": 154224686,
    "phone": "",
    "desc": "营业时间：",
    "areaCode": "441900",
    "longitude": 113.9622,
    "note": "",
    "orgAddr": "石排镇解放路智元小学北侧约130米",
    "score": 0,
    "orgId": 154224686,
    "latitude": 23.0612
  },
  {
    "tags": [{ "type": 2, "value": "评分：-" }],
    "orgAddr": "厚街镇菊塘书院新村31号",
    "mtId": 153943921,
    "phone": "13434069978",
    "desc": "营业时间：",
    "areaCode": "441900",
    "longitude": 113.6539,
    "note": "",
    "orgName": "厚街村篮球场",
    "score": 0,
    "orgId": 153943921,
    "latitude": 22.9354
  },
  {
    "tags": [{ "type": 2, "value": "评分：-" }],
    "orgAddr": "长安镇江贝第三工业区新康路2号",
    "mtId": 1978656429,
    "phone": "",
    "desc": "营业时间：",
    "areaCode": "441900",
    "longitude": 113.7813,
    "note": "",
    "orgName": "江贝篮球场",
    "score": 0,
    "orgId": 1978656429,
    "latitude": 22.7844
  },
  {
    "tags": [{ "type": 2, "value": "评分：3.5" }],
    "orgAddr": "东城街道火炼树金香路1号",
    "mtId": 1976463729,
    "phone": "13686040731",
    "desc": "营业时间：周一至周日 10:00-22:00",
    "areaCode": "441900",
    "longitude": 113.7643,
    "note": "",
    "orgName": "超新星篮球俱乐部（SUPERNOVA球馆）",
    "score": 3.5,
    "orgId": 1976463729,
    "latitude": 23.0058
  },
  {
    "tags": [{ "type": 2, "value": "评分：3.0" }],
    "orgAddr": "常平镇常平新城大道188号碧桂园5栋104室",
    "mtId": 889770822,
    "phone": "13760742609",
    "desc": "营业时间：周一至周日 10:00-22:00",
    "areaCode": "441900",
    "longitude": 114.0194,
    "note": "",
    "orgName": "高乐帅体育篮球馆",
    "score": 3,
    "orgId": 889770822,
    "latitude": 22.942
  },
  {
    "tags": [{ "type": 2, "value": "评分：-" }],
    "orgAddr": "长安镇福海路五巷海颖楼东南侧约50米",
    "mtId": 1480709752,
    "phone": "",
    "desc": "营业时间：",
    "areaCode": "441900",
    "longitude": 113.7413,
    "note": "",
    "orgName": "篮球场",
    "score": 0,
    "orgId": 1480709752,
    "latitude": 22.7801
  },
  {
    "tags": [
      { "type": 2, "value": "评分：3.5" },
      { "type": 1, "value": "可淋浴" },
      { "type": 1, "value": "储物柜" }
    ],
    "orgAddr": "东城街道主山社区学前路46号",
    "mtId": 1291135980,
    "phone": "13318441866",
    "desc": "营业时间：周一至周日 10:00-12:00 14:00-21:00",
    "areaCode": "441900",
    "longitude": 113.7948,
    "note": "",
    "orgName": "粤雪篮球运动中心",
    "score": 3.5,
    "orgId": 1291135980,
    "latitude": 23.0382
  },
  {
    "tags": [{ "type": 2, "value": "评分：-" }],
    "orgAddr": "茶山镇塘威路茶山嘉盛实验小学南侧约190米",
    "mtId": 154283952,
    "phone": "",
    "desc": "营业时间：",
    "areaCode": "441900",
    "longitude": 113.8504,
    "note": "",
    "orgName": "塘边村1号篮球场",
    "score": 0,
    "orgId": 154283952,
    "latitude": 23.0516
  },
  {
    "tags": [{ "type": 2, "value": "评分：-" }],
    "orgAddr": "石碣镇崇焕中路111号致爽羽毛球俱乐部三楼",
    "mtId": 1106201688,
    "phone": "",
    "desc": "营业时间：",
    "areaCode": "441900",
    "longitude": 113.8018,
    "note": "",
    "orgName": "向上派石碣篮球馆",
    "score": 0,
    "orgId": 1106201688,
    "latitude": 23.1018
  },
  {
    "tags": [{ "type": 2, "value": "评分：-" }],
    "orgAddr": "东城街道新田街13号",
    "mtId": 154359741,
    "phone": "",
    "desc": "营业时间：周一至周日 09:00-22:00",
    "areaCode": "441900",
    "longitude": 113.8066,
    "note": "",
    "orgName": "柏洲边灯光篮球场",
    "score": 0,
    "orgId": 154359741,
    "latitude": 23.0824
  },
  {
    "tags": [{ "type": 2, "value": "评分：-" }],
    "orgAddr": "南城街道金丰路4号",
    "mtId": 1583691813,
    "phone": "18098228752",
    "desc": "营业时间：周一至周日 08:00-18:00",
    "areaCode": "441900",
    "longitude": 113.7281,
    "note": "",
    "orgName": "广东宏远篮球训练营",
    "score": 0,
    "orgId": 1583691813,
    "latitude": 23.0143
  },
  {
    "tags": [{ "type": 2, "value": "评分：-" }],
    "orgName": "塘角水围村篮球场",
    "mtId": 153942363,
    "phone": "",
    "desc": "营业时间：",
    "areaCode": "441900",
    "longitude": 113.8884,
    "note": "",
    "orgAddr": "茶山镇茶石路111号附近",
    "score": 0,
    "orgId": 153942363,
    "latitude": 23.0824
  },
  {
    "tags": [{ "type": 2, "value": "评分：-" }],
    "orgName": "曼巴球馆",
    "mtId": 1194944183,
    "phone": "13925871815",
    "desc": "营业时间：周一至周日 08:00-12:00 14:00-23:30",
    "areaCode": "441900",
    "longitude": 113.8538,
    "note": "",
    "orgAddr": "大岭山镇大岭山元岭综合市场三楼310室",
    "score": 0,
    "orgId": 1194944183,
    "latitude": 22.9027
  },
  {
    "tags": [{ "type": 2, "value": "评分：-" }],
    "orgName": "享受篮球馆",
    "mtId": 1288236873,
    "phone": "15377738153",
    "desc": "营业时间：周一至周日 09:00-22:30",
    "areaCode": "441900",
    "longitude": 113.8463,
    "note": "",
    "orgAddr": "大岭山镇南一路116号1栋二单元501室",
    "score": 0,
    "orgId": 1288236873,
    "latitude": 22.8962
  },
  {
    "tags": [{ "type": 2, "value": "评分：-" }],
    "orgName": "高乐帅体育篮球馆羽毛球馆（常平大京九店）",
    "mtId": 1690282585,
    "phone": "15625866669",
    "desc": "营业时间：周一至周五 15:00-22:30  周六,周日 08:30-22:30",
    "areaCode": "441900",
    "longitude": 114.0456,
    "note": "",
    "orgAddr": "常平镇大京九塑料城生活区3楼",
    "score": 0,
    "orgId": 1690282585,
    "latitude": 22.9766
  },
  {
    "tags": [{ "type": 2, "value": "评分：-" }],
    "orgName": "向上派篮球联盟",
    "mtId": 193581860,
    "phone": "13113164321",
    "desc": "营业时间：",
    "areaCode": "441900",
    "longitude": 113.8371,
    "note": "",
    "orgAddr": "寮步镇油麻岗路良平综合市场3楼",
    "score": 0,
    "orgId": 193581860,
    "latitude": 23.017
  },
  {
    "tags": [{ "type": 2, "value": "评分：-" }],
    "orgName": "碧湖村篮球场",
    "mtId": 154207847,
    "phone": "",
    "desc": "营业时间：",
    "areaCode": "441900",
    "longitude": 114.1524,
    "note": "",
    "orgAddr": "凤岗镇碧湖路6号西北方向170米",
    "score": 0,
    "orgId": 154207847,
    "latitude": 22.7366
  },
  {
    "tags": [{ "type": 2, "value": "评分：-" }],
    "orgName": "篮球场",
    "mtId": 1040775592,
    "phone": "",
    "desc": "营业时间：",
    "areaCode": "441900",
    "longitude": 113.7398,
    "note": "",
    "orgAddr": "长安镇建安路与复兴路交叉口西北角",
    "score": 0,
    "orgId": 1040775592,
    "latitude": 22.7752
  },
  {
    "tags": [{ "type": 2, "value": "评分：-" }],
    "orgName": "welove威乐球馆（东城馆）",
    "mtId": 1704845068,
    "phone": "13340112815/13423362291",
    "desc": "营业时间：周一至周日 10:00-22:00",
    "areaCode": "441900",
    "longitude": 113.7802,
    "note": "",
    "orgAddr": "东城街道莞温路545号105室",
    "score": 0,
    "orgId": 1704845068,
    "latitude": 23.048
  },
  {
    "tags": [{ "type": 2, "value": "评分：-" }],
    "orgName": "三屯草根篮球羽毛球运动馆",
    "mtId": 568013937,
    "phone": "13712770633/13412697660",
    "desc": "营业时间：周一至周日 07:00-23:30",
    "areaCode": "441900",
    "longitude": 113.6841,
    "note": "",
    "orgAddr": "厚街镇厚道路1号",
    "score": 0,
    "orgId": 568013937,
    "latitude": 22.9547
  },
  {
    "tags": [{ "type": 2, "value": "评分：-" }],
    "orgName": "向东球场",
    "mtId": 150249284,
    "phone": "",
    "desc": "营业时间：",
    "areaCode": "441900",
    "longitude": 113.6566,
    "note": "",
    "orgAddr": "厚街镇白濠平安街30号",
    "score": 0,
    "orgId": 150249284,
    "latitude": 22.8732
  },
  {
    "tags": [{ "type": 2, "value": "评分：-" }],
    "orgAddr": "东坑镇文阁路19号",
    "mtId": 681664204,
    "phone": "15338033873",
    "desc": "营业时间：周一至周日 14:00-22:00",
    "areaCode": "441900",
    "longitude": 113.9459,
    "note": "",
    "orgName": "向上派蓝球馆",
    "score": 0,
    "orgId": 681664204,
    "latitude": 22.9917
  },
  {
    "tags": [
      { "type": 2, "value": "评分：3.0" },
      { "type": 1, "value": "免费停车" }
    ],
    "orgAddr": "莞城街道东正路11号东莞宾馆艾特篮球训练营",
    "mtId": 1224681432,
    "phone": "13713599954",
    "desc": "营业时间：周一至周日 10:00-22:00",
    "areaCode": "441900",
    "longitude": 113.7565,
    "note": "",
    "orgName": "艾特专业篮球训练营",
    "score": 3,
    "orgId": 1224681432,
    "latitude": 23.0409
  },
  {
    "tags": [{ "type": 2, "value": "评分：-" }],
    "orgAddr": "桥头镇",
    "mtId": 925850320,
    "phone": "17160838188",
    "desc": "营业时间：周一至周日 10:00-22:00",
    "areaCode": "441900",
    "longitude": 114.0778,
    "note": "",
    "orgName": "向上派桥头篮球馆",
    "score": 0,
    "orgId": 925850320,
    "latitude": 23.0103
  },
  {
    "tags": [{ "type": 2, "value": "评分：-" }],
    "orgAddr": "大朗镇西坊三街二巷1号",
    "mtId": 1436912856,
    "phone": "",
    "desc": "营业时间：",
    "areaCode": "441900",
    "longitude": 113.9478,
    "note": "",
    "orgName": "蔡边室内篮球球馆",
    "score": 0,
    "orgId": 1436912856,
    "latitude": 22.9347
  },
  {
    "tags": [{ "type": 2, "value": "评分：-" }],
    "orgAddr": "南城街道大新路3号附近",
    "mtId": 154151441,
    "phone": "",
    "desc": "营业时间：周一至周日 9:00-22:00",
    "areaCode": "441900",
    "longitude": 113.7236,
    "note": "",
    "orgName": "蛤地篮球场",
    "score": 0,
    "orgId": 154151441,
    "latitude": 22.9716
  },
  {
    "tags": [{ "type": 2, "value": "评分：-" }],
    "orgAddr": "清溪镇鹿湖东路53号",
    "mtId": 1522905029,
    "phone": "0769-86000080/13537353510",
    "desc": "营业时间：周一至周日 08:00-22:30",
    "areaCode": "441900",
    "longitude": 114.1775,
    "note": "",
    "orgName": "莞篮 清溪少年篮球训练基地",
    "score": 0,
    "orgId": 1522905029,
    "latitude": 22.8269
  },
  {
    "tags": [{ "type": 2, "value": "评分：-" }],
    "orgAddr": "凤岗镇同富路锦兴利汽配中心北40米",
    "mtId": 82011765,
    "phone": "",
    "desc": "营业时间：周一至周日 09:00-21:00",
    "areaCode": "441900",
    "longitude": 114.1699,
    "note": "",
    "orgName": "醒狮篮球场",
    "score": 0,
    "orgId": 82011765,
    "latitude": 22.7276
  },
  {
    "tags": [{ "type": 2, "value": "评分：3.0" }],
    "orgAddr": "凤岗镇益田假日奥特莱斯南区4楼404室",
    "mtId": 897566986,
    "phone": "15019584621",
    "desc": "营业时间：",
    "areaCode": "441900",
    "longitude": 114.2071,
    "note": "",
    "orgName": "小炫龙篮球俱乐部",
    "score": 3,
    "orgId": 897566986,
    "latitude": 22.7175
  },
  {
    "tags": [{ "type": 2, "value": "评分：3.0" }],
    "orgAddr": "凤岗镇永盛北路1号财富新地大厦F2层",
    "mtId": 1495118017,
    "phone": "18825113189",
    "desc": "营业时间：",
    "areaCode": "441900",
    "longitude": 114.1447,
    "note": "",
    "orgName": "耐斯少儿体能篮球馆",
    "score": 3,
    "orgId": 1495118017,
    "latitude": 22.7475
  },
  {
    "tags": [{ "type": 2, "value": "评分：-" }],
    "orgAddr": "万江街道泰新路大莲塘工业区18号",
    "mtId": 186806823,
    "phone": "13902619093/18688890552",
    "desc": "营业时间：",
    "areaCode": "441900",
    "longitude": 113.7205,
    "note": "",
    "orgName": "广东宏远篮球训练营（长迈店）",
    "score": 0,
    "orgId": 186806823,
    "latitude": 23.0439
  },
  {
    "tags": [{ "type": 2, "value": "评分：-" }],
    "orgName": "横沥村篮球场",
    "mtId": 712899888,
    "phone": "",
    "desc": "营业时间：",
    "areaCode": "441900",
    "longitude": 113.6233,
    "note": "",
    "orgAddr": "望牛墩镇滨海路与石横路交叉口西北方向180米",
    "score": 0,
    "orgId": 712899888,
    "latitude": 23.038
  },
  {
    "tags": [{ "type": 2, "value": "评分：-" }],
    "orgName": "灌篮篮球中心",
    "mtId": 1151965199,
    "phone": "13560827777",
    "desc": "营业时间：",
    "areaCode": "441900",
    "longitude": 113.8594,
    "note": "",
    "orgAddr": "寮步镇祥富路261号",
    "score": 0,
    "orgId": 1151965199,
    "latitude": 22.9978
  },
  {
    "tags": [{ "type": 2, "value": "评分：-" }],
    "orgName": "篮球场",
    "mtId": 170591530,
    "phone": "",
    "desc": "营业时间：",
    "areaCode": "441900",
    "longitude": 113.7796,
    "note": "",
    "orgAddr": "石碣镇江南路22号",
    "score": 0,
    "orgId": 170591530,
    "latitude": 23.1192
  },
  {
    "tags": [{ "type": 2, "value": "评分：-" }],
    "orgName": "中堂篮球馆",
    "mtId": 191205944,
    "phone": "",
    "desc": "营业时间：周一至周日 10:00-21:00",
    "areaCode": "441900",
    "longitude": 113.6618,
    "note": "",
    "orgAddr": "中堂镇广场路9号",
    "score": 0,
    "orgId": 191205944,
    "latitude": 23.0909
  },
  {
    "tags": [{ "type": 2, "value": "评分：-" }],
    "orgName": "乌石岗村篮球场",
    "mtId": 113324596,
    "phone": "",
    "desc": "营业时间：周一至周日 09:00-22:00",
    "areaCode": "441900",
    "longitude": 113.7897,
    "note": "",
    "orgAddr": "东城街道商业街路与平岭路交叉口西南150米",
    "score": 0,
    "orgId": 113324596,
    "latitude": 23.0243
  },
  {
    "tags": [{ "type": 2, "value": "评分：3.0" }],
    "orgName": "得胜道篮球特训营（鼎鑫球馆店）",
    "mtId": 1742343641,
    "phone": "13128102979",
    "desc": "营业时间：周一至周日 10:00-22:00",
    "areaCode": "441900",
    "longitude": 113.7714,
    "note": "",
    "orgAddr": "东城街道金湖苑西南光大路128号",
    "score": 3,
    "orgId": 1742343641,
    "latitude": 22.9973
  },
  {
    "tags": [{ "type": 2, "value": "评分：-" }],
    "orgName": "篮球场",
    "mtId": 1275608872,
    "phone": "",
    "desc": "营业时间：",
    "areaCode": "441900",
    "longitude": 114.0786,
    "note": "",
    "orgAddr": "塘厦镇蛟乙塘商业大道南附近",
    "score": 0,
    "orgId": 1275608872,
    "latitude": 22.7801
  },
  {
    "tags": [{ "type": 2, "value": "评分：-" }],
    "orgName": "室外篮球场",
    "mtId": 153835379,
    "phone": "",
    "desc": "营业时间：",
    "areaCode": "441900",
    "longitude": 113.7177,
    "note": "",
    "orgAddr": "虎门镇中兴路2号",
    "score": 0,
    "orgId": 153835379,
    "latitude": 22.8253
  },
  {
    "tags": [{ "type": 2, "value": "评分：-" }],
    "orgName": "追风体育",
    "mtId": 1408502949,
    "phone": "13925712864",
    "desc": "营业时间：周一至周日 10:00-22:00",
    "areaCode": "441900",
    "longitude": 113.6749,
    "note": "",
    "orgAddr": "虎门镇长堤路205号128室（货柜码头里面）",
    "score": 0,
    "orgId": 1408502949,
    "latitude": 22.806
  },
  {
    "tags": [{ "type": 2, "value": "评分：-" }],
    "orgName": "篮球场",
    "mtId": 1770522985,
    "phone": "",
    "desc": "营业时间：",
    "areaCode": "441900",
    "longitude": 113.6393,
    "note": "",
    "orgAddr": "厚街镇沙田镇西太隆",
    "score": 0,
    "orgId": 1770522985,
    "latitude": 22.8895
  },
  {
    "tags": [{ "type": 2, "value": "评分：-" }],
    "orgAddr": "石碣镇沙腰林屋洲街七巷3号",
    "mtId": 655785760,
    "phone": "",
    "desc": "营业时间：",
    "areaCode": "441900",
    "longitude": 113.7797,
    "note": "",
    "orgName": "沙腰村蓝球场",
    "score": 0,
    "orgId": 655785760,
    "latitude": 23.1096
  },
  {
    "tags": [{ "type": 2, "value": "评分：-" }],
    "orgAddr": "黄江镇黄牛埔兴盛街一号之一102室",
    "mtId": 1238420746,
    "phone": "15014899838",
    "desc": "营业时间：",
    "areaCode": "441900",
    "longitude": 114.0047,
    "note": "",
    "orgName": "承胜篮球馆",
    "score": 0,
    "orgId": 1238420746,
    "latitude": 22.8755
  },
  {
    "tags": [{ "type": 2, "value": "评分：-" }],
    "orgAddr": "南城街道美丰路三元里东南侧",
    "mtId": 1981284537,
    "phone": "",
    "desc": "营业时间：",
    "areaCode": "441900",
    "longitude": 113.7433,
    "note": "",
    "orgName": "篮球场",
    "score": 0,
    "orgId": 1981284537,
    "latitude": 23.0084
  },
  {
    "tags": [{ "type": 2, "value": "评分：-" }],
    "orgAddr": "横沥镇中心路与隔坑荔园路交叉口东北方向70米",
    "mtId": 1382832107,
    "phone": "",
    "desc": "营业时间：",
    "areaCode": "441900",
    "longitude": 113.9536,
    "note": "",
    "orgName": "烈阳篮球羽毛球馆",
    "score": 0,
    "orgId": 1382832107,
    "latitude": 23.0226
  },
  {
    "tags": [{ "type": 2, "value": "评分：3.0" }],
    "orgAddr": "南城街道宏图路39号12栋112室",
    "mtId": 981472096,
    "phone": "15024190108",
    "desc": "营业时间：周一至周日 10:00-22:00",
    "areaCode": "441900",
    "longitude": 113.7311,
    "note": "",
    "orgName": "初星体育少儿篮球俱乐部",
    "score": 3,
    "orgId": 981472096,
    "latitude": 22.9962
  },
  {
    "tags": [{ "type": 2, "value": "评分：-" }],
    "orgAddr": "虎门镇仁中岗路",
    "mtId": 154007734,
    "phone": "",
    "desc": "营业时间：",
    "areaCode": "441900",
    "longitude": 113.7121,
    "note": "",
    "orgName": "上灯篮球场",
    "score": 0,
    "orgId": 154007734,
    "latitude": 22.8276
  },
  {
    "tags": [{ "type": 2, "value": "评分：-" }],
    "orgAddr": "常平镇木棆工业区横路",
    "mtId": 71343231,
    "phone": "13580861466",
    "desc": "营业时间：",
    "areaCode": "441900",
    "longitude": 113.9883,
    "note": "",
    "orgName": "骏捷篮球场（常平店）",
    "score": 0,
    "orgId": 71343231,
    "latitude": 22.9835
  },
  {
    "tags": [{ "type": 2, "value": "评分：-" }],
    "orgAddr": "寮步镇新安中街13号附近",
    "mtId": 154282082,
    "phone": "",
    "desc": "营业时间：",
    "areaCode": "441900",
    "longitude": 113.8795,
    "note": "",
    "orgName": "杨梅树球场",
    "score": 0,
    "orgId": 154282082,
    "latitude": 22.9691
  },
  {
    "tags": [{ "type": 2, "value": "评分：-" }],
    "orgAddr": "南城街道彭眼村西南路140号",
    "mtId": 1841149436,
    "phone": "13392733653",
    "desc": "营业时间：周一至周日 10:00-22:00",
    "areaCode": "441900",
    "longitude": 113.744,
    "note": "",
    "orgName": "KD篮球训练中心",
    "score": 0,
    "orgId": 1841149436,
    "latitude": 22.9896
  },
  {
    "tags": [{ "type": 2, "value": "评分：-" }],
    "orgAddr": "万江街道泰新路大莲塘工业区18号",
    "mtId": 539481532,
    "phone": "13902619093",
    "desc": "营业时间：",
    "areaCode": "441900",
    "longitude": 113.7205,
    "note": "",
    "orgName": "先锋篮球馆（长迈店）",
    "score": 0,
    "orgId": 539481532,
    "latitude": 23.0437
  },
  {
    "tags": [{ "type": 2, "value": "评分：-" }],
    "orgName": "元岭篮球场",
    "mtId": 1615443266,
    "phone": "",
    "desc": "营业时间：",
    "areaCode": "441900",
    "longitude": 113.8572,
    "note": "",
    "orgAddr": "大岭山镇元岭村香园街十三巷11号",
    "score": 0,
    "orgId": 1615443266,
    "latitude": 22.9017
  },
  {
    "tags": [{ "type": 2, "value": "评分：-" }],
    "orgName": "星启航",
    "mtId": 1109205687,
    "phone": "",
    "desc": "营业时间：",
    "areaCode": "441900",
    "longitude": 114.1672,
    "note": "",
    "orgAddr": "清溪镇鹿湖西路32号",
    "score": 0,
    "orgId": 1109205687,
    "latitude": 22.8315
  },
  {
    "tags": [{ "type": 2, "value": "评分：-" }],
    "orgName": "KD篮球训练中心",
    "mtId": 1765242073,
    "phone": "13392733653",
    "desc": "营业时间：周一至周日 10:00-22:00",
    "areaCode": "441900",
    "longitude": 113.7573,
    "note": "",
    "orgAddr": "南城街道宏伟六路溢园街1号103室",
    "score": 0,
    "orgId": 1765242073,
    "latitude": 22.9803
  },
  {
    "tags": [{ "type": 2, "value": "评分：-" }],
    "orgName": "长安体育公园-篮球场",
    "mtId": 626076221,
    "phone": "0769-85673838",
    "desc": "营业时间：",
    "areaCode": "441900",
    "longitude": 113.7993,
    "note": "",
    "orgAddr": "长安镇锦绣路160号",
    "score": 0,
    "orgId": 626076221,
    "latitude": 22.8213
  },
  {
    "tags": [{ "type": 2, "value": "评分：-" }],
    "orgName": "篮球场",
    "mtId": 1440701512,
    "phone": "13144976865",
    "desc": "营业时间：",
    "areaCode": "441900",
    "longitude": 114.0892,
    "note": "",
    "orgAddr": "塘厦镇西荣路100号",
    "score": 0,
    "orgId": 1440701512,
    "latitude": 22.8366
  },
  {
    "tags": [{ "type": 2, "value": "评分：-" }],
    "orgName": "向上派篮球馆",
    "mtId": 1369361876,
    "phone": "18675248008",
    "desc": "营业时间：周一至周日 18:00-23:00",
    "areaCode": "441900",
    "longitude": 114.0302,
    "note": "",
    "orgAddr": "黄江镇社贝二路1号111室",
    "score": 0,
    "orgId": 1369361876,
    "latitude": 22.9161
  },
  {
    "tags": [{ "type": 2, "value": "评分：3.0" }],
    "orgName": "东莞篮球学校",
    "mtId": 87483898,
    "phone": "0769-23830930",
    "desc": "营业时间：",
    "areaCode": "441900",
    "longitude": 113.7666,
    "note": "",
    "orgAddr": "东城街道纵三路牛山社区涡岭工业园5号百财牛山科技园二栋三楼西南方向180米",
    "score": 3,
    "orgId": 87483898,
    "latitude": 22.9648
  },
  {
    "tags": [{ "type": 2, "value": "评分：-" }],
    "orgName": "松湖智谷产业园篮球场",
    "mtId": 552519132,
    "phone": "",
    "desc": "营业时间：",
    "areaCode": "441900",
    "longitude": 113.8749,
    "note": "",
    "orgAddr": "寮步镇沿河南路振业·松湖雅苑东侧约210米",
    "score": 0,
    "orgId": 552519132,
    "latitude": 22.9648
  },
  {
    "tags": [{ "type": 2, "value": "评分：-" }],
    "orgName": "草根篮球馆",
    "mtId": 678437029,
    "phone": "",
    "desc": "营业时间：",
    "areaCode": "441900",
    "longitude": 113.8061,
    "note": "",
    "orgAddr": "长安镇西安路怡景花园北侧",
    "score": 0,
    "orgId": 678437029,
    "latitude": 22.8196
  },
  {
    "tags": [{ "type": 2, "value": "评分：-" }],
    "orgName": "凯乐天空篮球馆",
    "mtId": 866330760,
    "phone": "18929132417",
    "desc": "营业时间：",
    "areaCode": "441900",
    "longitude": 113.7238,
    "note": "",
    "orgAddr": "虎门镇陈丰路陈村市场401室",
    "score": 0,
    "orgId": 866330760,
    "latitude": 22.8461
  },
  {
    "tags": [{ "type": 2, "value": "评分：-" }],
    "orgAddr": "万江街道万江拔蛟窝东一路3号（建材市场恒大帝景）",
    "mtId": 1520343926,
    "phone": "17722326090",
    "desc": "营业时间：",
    "areaCode": "441900",
    "longitude": 113.7109,
    "note": "",
    "orgName": "十一少儿篮球训练营（万江校区）",
    "score": 0,
    "orgId": 1520343926,
    "latitude": 23.0602
  },
  {
    "tags": [{ "type": 2, "value": "评分：-" }],
    "orgAddr": "南城街道体育路3号体育馆",
    "mtId": 906610113,
    "phone": "",
    "desc": "营业时间：",
    "areaCode": "441900",
    "longitude": 113.7481,
    "note": "",
    "orgName": "东莞体育馆-篮球馆",
    "score": 0,
    "orgId": 906610113,
    "latitude": 23.0241
  },
  {
    "tags": [{ "type": 2, "value": "评分：-" }],
    "orgAddr": "南城街道濂山路33号清华居会所",
    "mtId": 154189092,
    "phone": "",
    "desc": "营业时间：周一至周日 9:00-22:00",
    "areaCode": "441900",
    "longitude": 113.7208,
    "note": "",
    "orgName": "新世纪篮球俱乐部",
    "score": 0,
    "orgId": 154189092,
    "latitude": 22.9606
  },
  {
    "tags": [
      { "type": 2, "value": "评分：3.0" },
      { "type": 1, "value": "免费WiFi" }
    ],
    "orgAddr": "莞城街道东纵大道地王广场二区三楼宏远训练营关键球员",
    "mtId": 590118696,
    "phone": "15338020790",
    "desc": "营业时间：周一至周五 14:30-21:00  周六,周日 09:00-21:00",
    "areaCode": "441900",
    "longitude": 113.7627,
    "note": "",
    "orgName": "关键球员·室内少儿篮球培训（地王广场店）",
    "score": 3,
    "orgId": 590118696,
    "latitude": 23.0389
  },
  {
    "tags": [{ "type": 2, "value": "评分：-" }],
    "orgAddr": "清溪镇大利大窝路6号3号楼104室",
    "mtId": 990234396,
    "phone": "15920677471",
    "desc": "营业时间：",
    "areaCode": "441900",
    "longitude": 114.185,
    "note": "",
    "orgName": "星蓝少年篮球训练馆",
    "score": 0,
    "orgId": 990234396,
    "latitude": 22.8263
  },
  {
    "tags": [{ "type": 2, "value": "评分：-" }],
    "orgAddr": "寮步镇横坑村松溪路131号",
    "mtId": 1725555938,
    "phone": "13417564195",
    "desc": "营业时间：周一至周日 10:00-22:00",
    "areaCode": "441900",
    "longitude": 113.8137,
    "note": "",
    "orgName": "集客篮球公园（东莞店）",
    "score": 0,
    "orgId": 1725555938,
    "latitude": 23.0182
  },
  {
    "tags": [{ "type": 2, "value": "评分：-" }],
    "orgAddr": "大朗镇银朗南路456号",
    "mtId": 1299622257,
    "phone": "18374275609",
    "desc": "营业时间：周一至周日 08:00-23:00",
    "areaCode": "441900",
    "longitude": 113.9544,
    "note": "",
    "orgName": "高乐帅篮羽球馆（水口校区）",
    "score": 0,
    "orgId": 1299622257,
    "latitude": 22.9363
  },
  {
    "tags": [{ "type": 2, "value": "评分：-" }],
    "orgAddr": "黄江镇中山街71号",
    "mtId": 1321915885,
    "phone": "",
    "desc": "营业时间：",
    "areaCode": "441900",
    "longitude": 114.006,
    "note": "",
    "orgName": "黄江城建-篮球场",
    "score": 0,
    "orgId": 1321915885,
    "latitude": 22.9108
  },
  {
    "tags": [{ "type": 2, "value": "评分：-" }],
    "orgAddr": "长安镇盘福南街西23号",
    "mtId": 153825217,
    "phone": "",
    "desc": "营业时间：",
    "areaCode": "441900",
    "longitude": 113.7407,
    "note": "",
    "orgName": "厦岗村委篮球场",
    "score": 0,
    "orgId": 153825217,
    "latitude": 22.7941
  },
  {
    "tags": [
      { "type": 2, "value": "评分：-" },
      { "type": 1, "value": "有储物柜" },
      { "type": 1, "value": "免费WiFi" }
    ],
    "orgAddr": "南城街道学峰文化城2楼228室",
    "mtId": 1065424980,
    "phone": "18664029935",
    "desc": "营业时间：周六,周日 09:00-18:30  周一至周五 14:00-18:30",
    "areaCode": "441900",
    "longitude": 113.7604,
    "note": "",
    "orgName": "杰星少儿篮球培训中心（西平店）",
    "score": 0,
    "orgId": 1065424980,
    "latitude": 22.9803
  },
  {
    "tags": [{ "type": 2, "value": "评分：-" }],
    "orgName": "壹翔篮球训练营",
    "mtId": 1228369353,
    "phone": "18928273959",
    "desc": "营业时间：",
    "areaCode": "441900",
    "longitude": 113.9462,
    "note": "",
    "orgAddr": "东坑镇骏发一路与银塘路交叉口东南方向120米",
    "score": 0,
    "orgId": 1228369353,
    "latitude": 22.9858
  },
  {
    "tags": [{ "type": 2, "value": "评分：-" }],
    "orgName": "高赢篮球馆",
    "mtId": 1791253623,
    "phone": "13763176321",
    "desc": "营业时间：周一至周日 09:00-22:00",
    "areaCode": "441900",
    "longitude": 113.7594,
    "note": "",
    "orgAddr": "南城街道雅园兴园街2号",
    "score": 0,
    "orgId": 1791253623,
    "latitude": 22.9803
  },
  {
    "tags": [{ "type": 2, "value": "评分：-" }],
    "orgName": "黄草朗篮球场",
    "mtId": 1749536151,
    "phone": "",
    "desc": "营业时间：",
    "areaCode": "441900",
    "longitude": 113.9131,
    "note": "",
    "orgAddr": "大朗镇福进西路52号黄草朗广场",
    "score": 0,
    "orgId": 1749536151,
    "latitude": 22.9153
  },
  {
    "tags": [{ "type": 2, "value": "评分：-" }],
    "orgName": "启赋少儿篮球运动馆",
    "mtId": 1955079414,
    "phone": "18566181418",
    "desc": "营业时间：周一至周日 10:00-22:00",
    "areaCode": "441900",
    "longitude": 113.6782,
    "note": "",
    "orgAddr": "虎门镇太宝路80号18楼虎门寨社区居委会大楼五楼501室启赋体育少儿篮球运动馆",
    "score": 0,
    "orgId": 1955079414,
    "latitude": 22.8279
  },
  {
    "tags": [{ "type": 2, "value": "评分：-" }],
    "orgName": "超燃篮球场",
    "mtId": 1809382247,
    "phone": "",
    "desc": "营业时间：",
    "areaCode": "441900",
    "longitude": 113.7056,
    "note": "",
    "orgAddr": "虎门镇金宁路32号虎门百利玛国际家居生活MALL3号门电梯上7楼",
    "score": 0,
    "orgId": 1809382247,
    "latitude": 22.8062
  },
  {
    "tags": [{ "type": 2, "value": "评分：-" }],
    "orgName": "昕盛篮球馆",
    "mtId": 1700284141,
    "phone": "13168986787",
    "desc": "营业时间：",
    "areaCode": "441900",
    "longitude": 114.0592,
    "note": "",
    "orgAddr": "桥头镇大兴路26号",
    "score": 0,
    "orgId": 1700284141,
    "latitude": 23.0037
  },
  {
    "tags": [{ "type": 2, "value": "评分：-" }],
    "orgName": "理想篮球体育俱乐部",
    "mtId": 1399174635,
    "phone": "13580950838",
    "desc": "营业时间：",
    "areaCode": "441900",
    "longitude": 114.0188,
    "note": "",
    "orgAddr": "企石镇豪苑街3号",
    "score": 0,
    "orgId": 1399174635,
    "latitude": 23.0506
  },
  {
    "tags": [{ "type": 2, "value": "评分：-" }],
    "orgName": "小麦篮球训练馆",
    "mtId": 1685231845,
    "phone": "13559752021",
    "desc": "营业时间：",
    "areaCode": "441900",
    "longitude": 113.8748,
    "note": "",
    "orgAddr": "大朗镇雅瑶头二街七巷37号",
    "score": 0,
    "orgId": 1685231845,
    "latitude": 22.8688
  },
  {
    "tags": [{ "type": 2, "value": "评分：-" }],
    "orgName": "星奥翔篮球训练营（泰福球馆店）",
    "mtId": 1725768561,
    "phone": "13539031102",
    "desc": "营业时间：周一至周日 10:00-22:00",
    "areaCode": "441900",
    "longitude": 113.7445,
    "note": "",
    "orgAddr": "南城街道彭眼西南路动漫城幼儿园西南侧约60米",
    "score": 0,
    "orgId": 1725768561,
    "latitude": 22.9898
  },
  {
    "tags": [{ "type": 2, "value": "评分：-" }],
    "orgName": "Horizon·篮球乐园（虎门店）",
    "mtId": 1425128632,
    "phone": "",
    "desc": "营业时间：",
    "areaCode": "441900",
    "longitude": 113.6931,
    "note": "",
    "orgAddr": "虎门镇虎门大道139号102室",
    "score": 0,
    "orgId": 1425128632,
    "latitude": 22.8261
  },
  {
    "tags": [{ "type": 2, "value": "评分：-" }],
    "orgAddr": "大岭山镇松山湖科信路5号146室",
    "mtId": 635753805,
    "phone": "",
    "desc": "营业时间：",
    "areaCode": "441900",
    "longitude": 113.8704,
    "note": "",
    "orgName": "蓝鲸体育",
    "score": 0,
    "orgId": 635753805,
    "latitude": 22.9406
  },
  {
    "tags": [{ "type": 2, "value": "评分：-" }],
    "orgAddr": "常平镇木棆工业横路骏捷大厦四楼",
    "mtId": 1259430115,
    "phone": "15322839820",
    "desc": "营业时间：",
    "areaCode": "441900",
    "longitude": 113.9883,
    "note": "",
    "orgName": "先锋篮球培训（常平店）",
    "score": 0,
    "orgId": 1259430115,
    "latitude": 22.9834
  },
  {
    "tags": [{ "type": 2, "value": "评分：-" }],
    "orgAddr": "虎门镇金贸国际家居中心三楼",
    "mtId": 1841672677,
    "phone": "",
    "desc": "营业时间：",
    "areaCode": "441900",
    "longitude": 113.7024,
    "note": "",
    "orgName": "篮子组篮球训练营（南部湾校区）",
    "score": 0,
    "orgId": 1841672677,
    "latitude": 22.804
  },
  {
    "tags": [{ "type": 2, "value": "评分：-" }],
    "orgAddr": "茶山镇环城路东莞市茶山路发厂对过",
    "mtId": 1472335582,
    "phone": "",
    "desc": "营业时间：",
    "areaCode": "441900",
    "longitude": 113.8928,
    "note": "",
    "orgName": "上周塘风雨篮球场",
    "score": 0,
    "orgId": 1472335582,
    "latitude": 23.044
  },
  {
    "tags": [{ "type": 2, "value": "评分：-" }],
    "orgAddr": "南城街道宏图路62号正北方向96米",
    "mtId": 1763412480,
    "phone": "18825894782/13763119971",
    "desc": "营业时间：周一至周日 10:00-22:00",
    "areaCode": "441900",
    "longitude": 113.7296,
    "note": "",
    "orgName": "萌友体育篮球训练营",
    "score": 0,
    "orgId": 1763412480,
    "latitude": 22.9911
  },
  {
    "tags": [{ "type": 2, "value": "评分：-" }],
    "orgAddr": "大朗镇朗东路18号",
    "mtId": 594561750,
    "phone": "",
    "desc": "营业时间：",
    "areaCode": "441900",
    "longitude": 113.948,
    "note": "",
    "orgName": "大朗碧桂园篮球场",
    "score": 0,
    "orgId": 594561750,
    "latitude": 22.9596
  },
  {
    "tags": [{ "type": 2, "value": "评分：-" }],
    "orgAddr": "南城街道西宏伟一路6号109室一楼",
    "mtId": 1938659242,
    "phone": "15016455975",
    "desc": "营业时间：周一至周日 10:00-22:00",
    "areaCode": "441900",
    "longitude": 113.7565,
    "note": "",
    "orgName": "辰星少儿篮球俱乐部",
    "score": 0,
    "orgId": 1938659242,
    "latitude": 22.9925
  },
  {
    "tags": [{ "type": 2, "value": "评分：-" }],
    "orgAddr": "东城街道东城南路新世界花园",
    "mtId": 833453045,
    "phone": "",
    "desc": "营业时间：",
    "areaCode": "441900",
    "longitude": 113.7831,
    "note": "",
    "orgName": "东莞草根篮球馆(东城)",
    "score": 0,
    "orgId": 833453045,
    "latitude": 23.0179
  },
  {
    "tags": [{ "type": 2, "value": "评分：-" }],
    "orgAddr": "东坑镇凤大村凤大街四季松湖西北侧约100米",
    "mtId": 524415349,
    "phone": "",
    "desc": "营业时间：",
    "areaCode": "441900",
    "longitude": 113.9421,
    "note": "",
    "orgName": "凤大篮球场",
    "score": 0,
    "orgId": 524415349,
    "latitude": 22.9989
  },
  {
    "tags": [{ "type": 2, "value": "评分：-" }],
    "orgAddr": "大朗镇长盛南路178号先锋科技园一楼",
    "mtId": 893437081,
    "phone": "15323475292",
    "desc": "营业时间：周一至周日 10:00-22:00",
    "areaCode": "441900",
    "longitude": 113.9292,
    "note": "",
    "orgName": "莱德队长儿童篮球体适能运动中心（长盛广场校区）",
    "score": 0,
    "orgId": 893437081,
    "latitude": 22.937
  },
  {
    "tags": [{ "type": 2, "value": "评分：-" }],
    "orgName": "寮步8号篮球公园",
    "mtId": 1223109537,
    "phone": "13549225025",
    "desc": "营业时间：周一至周日 09:00-22:00",
    "areaCode": "441900",
    "longitude": 113.8367,
    "note": "",
    "orgAddr": "寮步镇良平路12号305室",
    "score": 0,
    "orgId": 1223109537,
    "latitude": 23.0166
  },
  {
    "tags": [{ "type": 2, "value": "评分：-" }],
    "orgName": "厚街体育公园东方启明星草根篮球训练馆",
    "mtId": 1190077797,
    "phone": "13712770633/13713308887",
    "desc": "营业时间：周一至周日 09:00-22:30",
    "areaCode": "441900",
    "longitude": 113.6689,
    "note": "",
    "orgAddr": "厚街镇体育公园羽毛球馆内篮球场",
    "score": 0,
    "orgId": 1190077797,
    "latitude": 22.9473
  },
  {
    "tags": [{ "type": 2, "value": "评分：-" }],
    "orgName": "新搏篮球馆",
    "mtId": 551152891,
    "phone": "",
    "desc": "营业时间：",
    "areaCode": "441900",
    "longitude": 113.7275,
    "note": "",
    "orgAddr": "南城街道高盛横路与高盛路交叉口东南200米东莞创升印铁有限公司西南侧",
    "score": 0,
    "orgId": 551152891,
    "latitude": 22.9837
  },
  {
    "tags": [{ "type": 2, "value": "评分：-" }],
    "orgName": "江南篮球场",
    "mtId": 153875202,
    "phone": "",
    "desc": "营业时间：",
    "areaCode": "441900",
    "longitude": 113.6533,
    "note": "",
    "orgAddr": "中堂镇沿江路汇文实验学校东侧约250米",
    "score": 0,
    "orgId": 153875202,
    "latitude": 23.1129
  },
  {
    "tags": [{ "type": 2, "value": "评分：-" }],
    "orgName": "联益村球场",
    "mtId": 1351588687,
    "phone": "",
    "desc": "营业时间：",
    "areaCode": "441900",
    "longitude": 113.7388,
    "note": "",
    "orgAddr": "南城街道银丰路小精灵幼儿园（联益二村新围一巷)",
    "score": 0,
    "orgId": 1351588687,
    "latitude": 23.0193
  },
  {
    "tags": [{ "type": 2, "value": "评分：-" }],
    "orgName": "好地方篮球场",
    "mtId": 1110453266,
    "phone": "",
    "desc": "营业时间：",
    "areaCode": "441900",
    "longitude": 113.8486,
    "note": "",
    "orgAddr": "茶山镇京山中路与京山西路交叉口东140米",
    "score": 0,
    "orgId": 1110453266,
    "latitude": 23.09
  },
  {
    "tags": [{ "type": 2, "value": "评分：-" }],
    "orgName": "石角公园-篮球场",
    "mtId": 1707923318,
    "phone": "",
    "desc": "营业时间：",
    "areaCode": "441900",
    "longitude": 113.639,
    "note": "",
    "orgAddr": "厚街镇富民路43号",
    "score": 0,
    "orgId": 1707923318,
    "latitude": 22.9318
  },
  {
    "tags": [{ "type": 2, "value": "评分：-" }],
    "orgName": "健儿篮球训练营（寮步校区）",
    "mtId": 1829551758,
    "phone": "13437358656",
    "desc": "营业时间：",
    "areaCode": "441900",
    "longitude": 113.8656,
    "note": "",
    "orgAddr": "寮步镇教育路84号",
    "score": 0,
    "orgId": 1829551758,
    "latitude": 23.0007
  },
  {
    "tags": [{ "type": 2, "value": "评分：-" }],
    "orgName": "篮球馆",
    "mtId": 1309453379,
    "phone": "",
    "desc": "营业时间：",
    "areaCode": "441900",
    "longitude": 113.6764,
    "note": "",
    "orgAddr": "中堂镇蕉利西巷沙地海傍",
    "score": 0,
    "orgId": 1309453379,
    "latitude": 23.0813
  },
  {
    "tags": [{ "type": 2, "value": "评分：-" }],
    "orgName": "星奥翔篮球训练营（光明球馆店）",
    "mtId": 1580232980,
    "phone": "13030244745",
    "desc": "营业时间：周一至周日 10:00-22:00",
    "areaCode": "441900",
    "longitude": 113.7867,
    "note": "",
    "orgAddr": "东城街道光明路21号2栋301室",
    "score": 0,
    "orgId": 1580232980,
    "latitude": 22.9864
  },
  {
    "tags": [{ "type": 2, "value": "评分：-" }],
    "orgAddr": "南城街道新科路7号105铺(",
    "mtId": 1280649158,
    "phone": "13580927197",
    "desc": "营业时间：周一至周日 10:00-22:00",
    "areaCode": "441900",
    "longitude": 113.7257,
    "note": "",
    "orgName": "初星少儿篮球俱乐部",
    "score": 0,
    "orgId": 1280649158,
    "latitude": 23.0152
  },
  {
    "tags": [{ "type": 2, "value": "评分：-" }],
    "orgAddr": "谢岗镇357省道辅路与谢岗大道交叉口东480米",
    "mtId": 1504166186,
    "phone": "",
    "desc": "营业时间：",
    "areaCode": "441900",
    "longitude": 114.1834,
    "note": "",
    "orgName": "未来星室内篮球培训",
    "score": 0,
    "orgId": 1504166186,
    "latitude": 22.9555
  },
  {
    "tags": [{ "type": 2, "value": "评分：-" }],
    "orgAddr": "东城街道蓢基湖二路正南方向30米",
    "mtId": 1251394100,
    "phone": "",
    "desc": "营业时间：",
    "areaCode": "441900",
    "longitude": 113.799,
    "note": "",
    "orgName": "蓢基湖村-篮球场",
    "score": 0,
    "orgId": 1251394100,
    "latitude": 23.0289
  },
  {
    "tags": [{ "type": 2, "value": "评分：-" }],
    "orgAddr": "东城街道新源南路21号4栋105-108号铺",
    "mtId": 935273879,
    "phone": "18122957956/19925690602",
    "desc": "营业时间：周一至周日 09:30-19:00",
    "areaCode": "441900",
    "longitude": 113.762,
    "note": "",
    "orgName": "旗盛篮球训练中心",
    "score": 0,
    "orgId": 935273879,
    "latitude": 22.9853
  },
  {
    "tags": [{ "type": 2, "value": "评分：-" }],
    "orgAddr": "樟木头镇旗岭球场三巷5号",
    "mtId": 1077234906,
    "phone": "",
    "desc": "营业时间：",
    "areaCode": "441900",
    "longitude": 114.0794,
    "note": "",
    "orgName": "旗岭球场",
    "score": 0,
    "orgId": 1077234906,
    "latitude": 22.924
  },
  {
    "tags": [{ "type": 2, "value": "评分：-" }],
    "orgAddr": "虎门镇体育路万科云城3区10栋二楼",
    "mtId": 1363993160,
    "phone": "18128511886",
    "desc": "营业时间：周一至周日 10:00-22:00",
    "areaCode": "441900",
    "longitude": 113.6877,
    "note": "",
    "orgName": "追风体育少儿篮球运动馆",
    "score": 0,
    "orgId": 1363993160,
    "latitude": 22.833
  },
  {
    "tags": [{ "type": 2, "value": "评分：-" }],
    "orgAddr": "南城街道板岭路恒丰大厦一楼",
    "mtId": 1503901681,
    "phone": "18665151667",
    "desc": "营业时间：周一至周日 10:00-22:00",
    "areaCode": "441900",
    "longitude": 113.7365,
    "note": "",
    "orgName": "阳光少儿篮球训练营（恒丰大厦店）",
    "score": 0,
    "orgId": 1503901681,
    "latitude": 22.9734
  },
  {
    "tags": [{ "type": 2, "value": "评分：-" }],
    "orgAddr": "常平镇塑招东路228号",
    "mtId": 716920756,
    "phone": "",
    "desc": "营业时间：",
    "areaCode": "441900",
    "longitude": 114.0433,
    "note": "",
    "orgName": "大京九塑胶城篮球场",
    "score": 0,
    "orgId": 716920756,
    "latitude": 22.9729
  },
  {
    "tags": [{ "type": 2, "value": "评分：-" }],
    "orgAddr": "虎门镇大坑路基础幼儿园东北侧约160米",
    "mtId": 184566481,
    "phone": "",
    "desc": "营业时间：",
    "areaCode": "441900",
    "longitude": 113.7298,
    "note": "",
    "orgName": "篮球场便利店",
    "score": 0,
    "orgId": 184566481,
    "latitude": 22.8342
  },
  {
    "tags": [{ "type": 2, "value": "评分：-" }],
    "orgAddr": "南城街道宏图路21号中天·中央广场F4层",
    "mtId": 1164638517,
    "phone": "15814179322",
    "desc": "营业时间：周一至周日 10:00-22:00",
    "areaCode": "441900",
    "longitude": 113.7385,
    "note": "",
    "orgName": "乔星篮球培训中心（中天·中央广场店）",
    "score": 0,
    "orgId": 1164638517,
    "latitude": 22.9993
  },
  {
    "tags": [{ "type": 2, "value": "评分：-" }],
    "orgName": "华蒙星少儿篮球俱乐部（向日葵校区）",
    "mtId": 189095800,
    "phone": "15323711997",
    "desc": "营业时间：",
    "areaCode": "441900",
    "longitude": 114.0946,
    "note": "",
    "orgAddr": "塘厦镇诸佛岭向日葵幼儿园",
    "score": 0,
    "orgId": 189095800,
    "latitude": 22.8073
  },
  {
    "tags": [
      { "type": 2, "value": "评分：-" },
      { "type": 1, "value": "室内" },
      { "type": 1, "value": "木质地板" }
    ],
    "orgName": "大朗振杨向上派篮球馆",
    "mtId": 536939864,
    "phone": "13431356606",
    "desc": "营业时间：周二至周日 09:00-22:00",
    "areaCode": "441900",
    "longitude": 113.9454,
    "note": "",
    "orgAddr": "大朗镇政通路138号",
    "score": 0,
    "orgId": 536939864,
    "latitude": 22.9356
  },
  {
    "tags": [{ "type": 2, "value": "评分：-" }],
    "orgName": "佰川篮球场",
    "mtId": 1557885913,
    "phone": "13500099898",
    "desc": "营业时间：",
    "areaCode": "441900",
    "longitude": 113.8753,
    "note": "",
    "orgAddr": "石龙镇联成大厦斜对面腾远大厦附近",
    "score": 0,
    "orgId": 1557885913,
    "latitude": 23.1161
  },
  {
    "tags": [{ "type": 2, "value": "评分：-" }],
    "orgName": "红花林公园-篮球场",
    "mtId": 596794678,
    "phone": "",
    "desc": "营业时间：",
    "areaCode": "441900",
    "longitude": 113.6416,
    "note": "",
    "orgAddr": "厚街镇涌口富民路2号",
    "score": 0,
    "orgId": 596794678,
    "latitude": 22.9252
  },
  {
    "tags": [{ "type": 2, "value": "评分：-" }],
    "orgName": "大涡篮球场",
    "mtId": 1029116525,
    "phone": "",
    "desc": "营业时间：",
    "areaCode": "441900",
    "longitude": 113.6734,
    "note": "",
    "orgAddr": "道滘镇大涡东路与大新东路交叉路口西北侧",
    "score": 0,
    "orgId": 1029116525,
    "latitude": 23.0257
  },
  {
    "tags": [{ "type": 2, "value": "评分：-" }],
    "orgName": "旧锡边篮球场",
    "mtId": 154086069,
    "phone": "",
    "desc": "营业时间：",
    "areaCode": "441900",
    "longitude": 113.7674,
    "note": "",
    "orgAddr": "东城街道荔园路光大·景湖蓝郡南侧约30米",
    "score": 0,
    "orgId": 154086069,
    "latitude": 22.9912
  },
  {
    "tags": [{ "type": 2, "value": "评分：-" }],
    "orgName": "粤战体育篮球训练基地",
    "mtId": 1285432181,
    "phone": "18566551714",
    "desc": "营业时间：",
    "areaCode": "441900",
    "longitude": 114.0023,
    "note": "",
    "orgAddr": "黄江镇胜前岗一街13号二期厂房",
    "score": 0,
    "orgId": 1285432181,
    "latitude": 22.9191
  },
  {
    "tags": [{ "type": 2, "value": "评分：-" }],
    "orgName": "莱德队长篮球体适能运动中心",
    "mtId": 789510318,
    "phone": "18127389661/18028607787",
    "desc": "营业时间：周二至周五 14:30-21:00  周六,周日 09:00-21:00",
    "areaCode": "441900",
    "longitude": 113.6709,
    "note": "",
    "orgAddr": "厚街镇厚街体育路12号201室",
    "score": 0,
    "orgId": 789510318,
    "latitude": 22.9434
  },
  {
    "tags": [{ "type": 2, "value": "评分：-" }],
    "orgName": "徐棉村篮球场",
    "mtId": 602323711,
    "phone": "",
    "desc": "营业时间：",
    "areaCode": "441900",
    "longitude": 113.8597,
    "note": "",
    "orgAddr": "石龙镇徐棉二街17号",
    "score": 0,
    "orgId": 602323711,
    "latitude": 23.0997
  },
  {
    "tags": [{ "type": 2, "value": "评分：-" }],
    "orgName": "南门新村篮球场",
    "mtId": 517164303,
    "phone": "",
    "desc": "营业时间：",
    "areaCode": "441900",
    "longitude": 113.8223,
    "note": "",
    "orgAddr": "寮步镇富景街与寮城中路交叉口东北约160米",
    "score": 0,
    "orgId": 517164303,
    "latitude": 23.023
  },
  {
    "tags": [{ "type": 2, "value": "评分：-" }],
    "orgAddr": "东城街道新源南路光大·景湖蓝郡会所1楼",
    "mtId": 561242924,
    "phone": "13434556053",
    "desc": "营业时间：周一至周日 10:00-22:00",
    "areaCode": "441900",
    "longitude": 113.7665,
    "note": "",
    "orgName": "莞星篮球训练营（景湖蓝郡校区）",
    "score": 0,
    "orgId": 561242924,
    "latitude": 22.991
  },
  {
    "tags": [{ "type": 2, "value": "评分：-" }],
    "orgAddr": "东坑镇生态园大道辅路与规划横四路交叉口东260米",
    "mtId": 1058499686,
    "phone": "",
    "desc": "营业时间：",
    "areaCode": "441900",
    "longitude": 113.9197,
    "note": "",
    "orgName": "初坑新篮球场",
    "score": 0,
    "orgId": 1058499686,
    "latitude": 22.9788
  },
  {
    "tags": [{ "type": 2, "value": "评分：-" }],
    "orgAddr": "高埗镇沿江南路（高埗亲水公园西侧约50米）",
    "mtId": 153824817,
    "phone": "",
    "desc": "营业时间：",
    "areaCode": "441900",
    "longitude": 113.735,
    "note": "",
    "orgName": "下江城篮球场",
    "score": 0,
    "orgId": 153824817,
    "latitude": 23.0622
  },
  {
    "tags": [{ "type": 2, "value": "评分：-" }],
    "orgAddr": "塘厦镇花园北街2号三楼301（康才幼儿园旁边）",
    "mtId": 984279904,
    "phone": "18825113189",
    "desc": "营业时间：周一至周六 09:00-20:30",
    "areaCode": "441900",
    "longitude": 114.0996,
    "note": "",
    "orgName": "耐斯青少年篮球体能训练馆",
    "score": 0,
    "orgId": 984279904,
    "latitude": 22.8182
  },
  {
    "tags": [{ "type": 2, "value": "评分：-" }],
    "orgAddr": "南城街道三元里东园大厦1楼",
    "mtId": 884045390,
    "phone": "18024448633",
    "desc": "营业时间：周一至周日 10:00-22:00",
    "areaCode": "441900",
    "longitude": 113.7358,
    "note": "",
    "orgName": "哇赛少儿篮球",
    "score": 0,
    "orgId": 884045390,
    "latitude": 23.0172
  },
  {
    "tags": [{ "type": 2, "value": "评分：-" }],
    "orgAddr": "高埗镇高龙中路中国石化(冼沙加油站)西侧约270米",
    "mtId": 662572666,
    "phone": "",
    "desc": "营业时间：",
    "areaCode": "441900",
    "longitude": 113.7612,
    "note": "",
    "orgName": "东海篮球场",
    "score": 0,
    "orgId": 662572666,
    "latitude": 23.1011
  },
  {
    "tags": [{ "type": 2, "value": "评分：-" }],
    "orgAddr": "黄江镇金钱岭二街16号103室",
    "mtId": 1396679773,
    "phone": "15622233846",
    "desc": "营业时间：周一至周日 09:30-23:00",
    "areaCode": "441900",
    "longitude": 114.019,
    "note": "",
    "orgName": "SP篮球中心",
    "score": 0,
    "orgId": 1396679773,
    "latitude": 22.909
  },
  {
    "tags": [{ "type": 2, "value": "评分：-" }],
    "orgAddr": "东城街道石井支路3号102室",
    "mtId": 1850158984,
    "phone": "0769-23382228",
    "desc": "营业时间：",
    "areaCode": "441900",
    "longitude": 113.8028,
    "note": "",
    "orgName": "薪火阵营篮球学院",
    "score": 0,
    "orgId": 1850158984,
    "latitude": 23.0166
  },
  {
    "tags": [{ "type": 2, "value": "评分：-" }],
    "orgAddr": "常平镇公园路",
    "mtId": 588472692,
    "phone": "",
    "desc": "营业时间：",
    "areaCode": "441900",
    "longitude": 114.0151,
    "note": "",
    "orgName": "常平铁路公园-篮球场",
    "score": 0,
    "orgId": 588472692,
    "latitude": 22.9727
  },
  {
    "tags": [{ "type": 2, "value": "评分：-" }],
    "orgAddr": "万江街道胜利路",
    "mtId": 1449290161,
    "phone": "",
    "desc": "营业时间：",
    "areaCode": "441900",
    "longitude": 113.717,
    "note": "",
    "orgName": "龙湾村篮球场",
    "score": 0,
    "orgId": 1449290161,
    "latitude": 23.0215
  },
  {
    "tags": [{ "type": 2, "value": "评分：-" }],
    "orgName": "胜赛士篮球培训基地",
    "mtId": 816468361,
    "phone": "13790667505",
    "desc": "营业时间：周一至周日 10:00-22:00",
    "areaCode": "441900",
    "longitude": 113.9475,
    "note": "",
    "orgAddr": "大朗镇富华南路新建钢构地塘头二区719-720号",
    "score": 0,
    "orgId": 816468361,
    "latitude": 22.9294
  },
  {
    "tags": [{ "type": 2, "value": "评分：-" }],
    "orgName": "赵屋村篮球场",
    "mtId": 1377307421,
    "phone": "",
    "desc": "营业时间：",
    "areaCode": "441900",
    "longitude": 113.7212,
    "note": "",
    "orgAddr": "南城街道胜利南路",
    "score": 0,
    "orgId": 1377307421,
    "latitude": 23.0128
  },
  {
    "tags": [{ "type": 2, "value": "评分：-" }],
    "orgName": "狮瓦格·SwagStreet篮球训练中心",
    "mtId": 1308755483,
    "phone": "13316686618/15992719017",
    "desc": "营业时间：周六,周日 18:00-22:00  周一,周三,周五 15:00-22:00",
    "areaCode": "441900",
    "longitude": 114.0809,
    "note": "",
    "orgAddr": "塘厦镇宏业北十路7号",
    "score": 0,
    "orgId": 1308755483,
    "latitude": 22.8129
  },
  {
    "tags": [{ "type": 2, "value": "评分：-" }],
    "orgName": "篮球比赛服专业制作",
    "mtId": 187056929,
    "phone": "15999798844",
    "desc": "营业时间：",
    "areaCode": "441900",
    "longitude": 113.6143,
    "note": "",
    "orgAddr": "沙田镇横流大街91号正南方向80米",
    "score": 0,
    "orgId": 187056929,
    "latitude": 22.9175
  },
  {
    "tags": [{ "type": 2, "value": "评分：-" }],
    "orgName": "东方启明星篮球训练营",
    "mtId": 1474813014,
    "phone": "",
    "desc": "营业时间：周一至周日 10:00-22:00",
    "areaCode": "441900",
    "longitude": 113.814,
    "note": "",
    "orgAddr": "长安镇上洋路18号",
    "score": 0,
    "orgId": 1474813014,
    "latitude": 22.8097
  },
  {
    "tags": [{ "type": 2, "value": "评分：-" }],
    "orgName": "奕虎篮球训练营",
    "mtId": 536643583,
    "phone": "13246653519/15602475140",
    "desc": "营业时间：周二至周日 09:00-21:00",
    "areaCode": "441900",
    "longitude": 114.2073,
    "note": "",
    "orgAddr": "凤岗镇益田假日奥特莱斯南区4楼",
    "score": 0,
    "orgId": 536643583,
    "latitude": 22.7177
  },
  {
    "tags": [{ "type": 2, "value": "评分：-" }],
    "orgName": "天鹤体育 蓝球训练营",
    "mtId": 1998157510,
    "phone": "",
    "desc": "营业时间：",
    "areaCode": "441900",
    "longitude": 113.7646,
    "note": "",
    "orgAddr": "石碣镇石揭镇鹤田厦金龙街26号",
    "score": 0,
    "orgId": 1998157510,
    "latitude": 23.076
  },
  {
    "tags": [{ "type": 2, "value": "评分：-" }],
    "orgName": "上口村篮球场",
    "mtId": 150461461,
    "phone": "",
    "desc": "营业时间：",
    "areaCode": "441900",
    "longitude": 113.6818,
    "note": "",
    "orgAddr": "道滘镇上口村路一巷",
    "score": 0,
    "orgId": 150461461,
    "latitude": 22.9927
  },
  {
    "tags": [{ "type": 2, "value": "评分：-" }],
    "orgName": "东莞市体育中心篮球馆西区二层",
    "mtId": 899939557,
    "phone": "",
    "desc": "营业时间：",
    "areaCode": "441900",
    "longitude": 113.7478,
    "note": "",
    "orgAddr": "南城街道体育横路6-8号",
    "score": 0,
    "orgId": 899939557,
    "latitude": 23.0248
  },
  {
    "tags": [{ "type": 2, "value": "评分：-" }],
    "orgName": "捷睿篮球训练营",
    "mtId": 1798982747,
    "phone": "16620662409",
    "desc": "营业时间：周一至周日 10:00-22:00",
    "areaCode": "441900",
    "longitude": 113.7507,
    "note": "",
    "orgAddr": "南城街道西平三路15号",
    "score": 0,
    "orgId": 1798982747,
    "latitude": 22.9895
  },
  {
    "tags": [{ "type": 2, "value": "评分：-" }],
    "orgAddr": "厚街镇其它区厚涌路",
    "mtId": 1290394594,
    "phone": "",
    "desc": "营业时间：",
    "areaCode": "441900",
    "longitude": 113.6508,
    "note": "",
    "orgName": "大塘小公园篮球场",
    "score": 0,
    "orgId": 1290394594,
    "latitude": 22.9395
  },
  {
    "tags": [{ "type": 2, "value": "评分：-" }],
    "orgAddr": "万江街道东江大道滨江体育公园（南侧）",
    "mtId": 1828406767,
    "phone": "15338382886",
    "desc": "营业时间：",
    "areaCode": "441900",
    "longitude": 113.7238,
    "note": "",
    "orgName": "赵莉篮球训练营",
    "score": 0,
    "orgId": 1828406767,
    "latitude": 23.0244
  },
  {
    "tags": [{ "type": 2, "value": "评分：-" }],
    "orgAddr": "长安镇霄边社区东门中路1号万达广场F5层",
    "mtId": 973452828,
    "phone": "13580942459",
    "desc": "营业时间：周一至周日 10:00-22:00",
    "areaCode": "441900",
    "longitude": 113.8214,
    "note": "",
    "orgName": "宏安篮球训练营",
    "score": 0,
    "orgId": 973452828,
    "latitude": 22.8089
  },
  {
    "tags": [{ "type": 2, "value": "评分：-" }],
    "orgAddr": "厚街镇南环路与厚涌路交叉口西北140米",
    "mtId": 1663718428,
    "phone": "",
    "desc": "营业时间：",
    "areaCode": "441900",
    "longitude": 113.6424,
    "note": "",
    "orgName": "军铺村篮球场",
    "score": 0,
    "orgId": 1663718428,
    "latitude": 22.933
  },
  {
    "tags": [{ "type": 2, "value": "评分：-" }],
    "orgAddr": "大朗镇富康路302号",
    "mtId": 596531992,
    "phone": "",
    "desc": "营业时间：",
    "areaCode": "441900",
    "longitude": 113.9189,
    "note": "",
    "orgName": "大朗镇巷头毛织文化公园篮球馆",
    "score": 0,
    "orgId": 596531992,
    "latitude": 22.9601
  },
  {
    "tags": [{ "type": 2, "value": "评分：-" }],
    "orgAddr": "寮步镇金兴路与寮茶路交叉路口往南约100米（群星幼儿园东南侧）",
    "mtId": 512930638,
    "phone": "",
    "desc": "营业时间：",
    "areaCode": "441900",
    "longitude": 113.8884,
    "note": "",
    "orgName": "游屋篮球场",
    "score": 0,
    "orgId": 512930638,
    "latitude": 22.9989
  },
  {
    "tags": [{ "type": 2, "value": "评分：3.0" }],
    "orgAddr": "寮步镇振兴路2号（益创中心2楼）",
    "mtId": 185071748,
    "phone": "18640142412",
    "desc": "营业时间：周一至周日 09:30-21:30",
    "areaCode": "441900",
    "longitude": 113.8824,
    "note": "",
    "orgName": "风向体育青少年篮球体能运动中心",
    "score": 3,
    "orgId": 185071748,
    "latitude": 22.9925
  },
  {
    "tags": [{ "type": 2, "value": "评分：-" }],
    "orgAddr": "东城街道景湖大道光大·景湖花园",
    "mtId": 699027286,
    "phone": "17727746313",
    "desc": "营业时间：周一至周日 10:00-22:00",
    "areaCode": "441900",
    "longitude": 113.7634,
    "note": "",
    "orgName": "莞星文体中心",
    "score": 0,
    "orgId": 699027286,
    "latitude": 22.9917
  },
  {
    "tags": [{ "type": 2, "value": "评分：-" }],
    "orgAddr": "塘厦镇裕华街53号1栋106-108室",
    "mtId": 1044036095,
    "phone": "17688037940",
    "desc": "营业时间：周一至周日 10:00-22:00",
    "areaCode": "441900",
    "longitude": 114.0805,
    "note": "",
    "orgName": "星德少儿篮球（裕华街店）",
    "score": 0,
    "orgId": 1044036095,
    "latitude": 22.8157
  },
  {
    "tags": [{ "type": 2, "value": "评分：-" }],
    "orgAddr": "石龙镇西湖一路瀚文商务酒店（东莞火车站店)西北侧约120米",
    "mtId": 1640273548,
    "phone": "",
    "desc": "营业时间：",
    "areaCode": "441900",
    "longitude": 113.8625,
    "note": "",
    "orgName": "西湖下甲村篮球场",
    "score": 0,
    "orgId": 1640273548,
    "latitude": 23.0913
  },
  {
    "tags": [{ "type": 2, "value": "评分：-" }],
    "orgName": "东方启明星草根篮球",
    "mtId": 538844337,
    "phone": "15014864428",
    "desc": "营业时间：周二至周日 09:00-21:00",
    "areaCode": "441900",
    "longitude": 113.6829,
    "note": "",
    "orgAddr": "厚街镇厚街万科生活广场3楼",
    "score": 0,
    "orgId": 538844337,
    "latitude": 22.9528
  },
  {
    "tags": [{ "type": 2, "value": "评分：-" }],
    "orgName": "豪群炼盟.寮步馆 (林书豪-李群篮球培训)",
    "mtId": 1179968989,
    "phone": "",
    "desc": "营业时间：周一至周日 08:00-22:00",
    "areaCode": "441900",
    "longitude": 113.8613,
    "note": "",
    "orgAddr": "寮步镇南美世贸中心一楼中间106、107",
    "score": 0,
    "orgId": 1179968989,
    "latitude": 23.0045
  },
  {
    "tags": [{ "type": 2, "value": "评分：-" }],
    "orgName": "耐斯青少年体能篮球馆",
    "mtId": 999452464,
    "phone": "18825113189",
    "desc": "营业时间：",
    "areaCode": "441900",
    "longitude": 114.0809,
    "note": "",
    "orgAddr": "塘厦镇珠江观澜御景42栋华路广场二楼",
    "score": 0,
    "orgId": 999452464,
    "latitude": 22.7491
  },
  {
    "tags": [{ "type": 2, "value": "评分：-" }],
    "orgName": "昕盛体育青少年篮球培训基地（洋乌校区）",
    "mtId": 1855934311,
    "phone": "13712490094",
    "desc": "营业时间：",
    "areaCode": "441900",
    "longitude": 113.9376,
    "note": "",
    "orgAddr": "大朗镇乌石岭二区富荣路92号",
    "score": 0,
    "orgId": 1855934311,
    "latitude": 22.9122
  },
  {
    "tags": [{ "type": 2, "value": "评分：-" }],
    "orgName": "风火少年篮球训练营",
    "mtId": 846231585,
    "phone": "13580919960",
    "desc": "营业时间：周一至周日 10:00-22:00",
    "areaCode": "441900",
    "longitude": 113.7251,
    "note": "",
    "orgAddr": "南城街道宏丰街鑫潮电商产业园1楼",
    "score": 0,
    "orgId": 846231585,
    "latitude": 23.0133
  },
  {
    "tags": [{ "type": 2, "value": "评分：-" }],
    "orgName": "NICE篮球中心",
    "mtId": 1557989684,
    "phone": "",
    "desc": "营业时间：周一至周日 10:00-22:00",
    "areaCode": "441900",
    "longitude": 113.7382,
    "note": "",
    "orgAddr": "南城街道广东省东莞市南城街道科创路398号3栋1单元108室",
    "score": 0,
    "orgId": 1557989684,
    "latitude": 22.9378
  },
  {
    "tags": [{ "type": 2, "value": "评分：-" }],
    "orgName": "山仔村球场",
    "mtId": 152097205,
    "phone": "",
    "desc": "营业时间：",
    "areaCode": "441900",
    "longitude": 113.6543,
    "note": "",
    "orgAddr": "厚街镇惠民路与厚涌路交叉路口往东约150米（虹桥市场西侧约50米）",
    "score": 0,
    "orgId": 152097205,
    "latitude": 22.9427
  },
  {
    "tags": [{ "type": 2, "value": "评分：-" }],
    "orgName": "圆园体育馆",
    "mtId": 976978056,
    "phone": "",
    "desc": "营业时间：",
    "areaCode": "441900",
    "longitude": 113.5795,
    "note": "",
    "orgAddr": "麻涌镇麻涌中心大道28号",
    "score": 0,
    "orgId": 976978056,
    "latitude": 23.0361
  },
  {
    "tags": [{ "type": 2, "value": "评分：-" }],
    "orgName": "草根篮球俱乐部（体育公园店）",
    "mtId": 1676180071,
    "phone": "13712770633",
    "desc": "营业时间：周一至周日 10:00-22:00",
    "areaCode": "441900",
    "longitude": 113.6669,
    "note": "",
    "orgAddr": "厚街镇体育路体育公园",
    "score": 0,
    "orgId": 1676180071,
    "latitude": 22.946
  },
  {
    "tags": [{ "type": 2, "value": "评分：-" }],
    "orgName": "薪火阵营篮球培训中心（茶山店）",
    "mtId": 1658767593,
    "phone": "",
    "desc": "营业时间：周一至周日 10:00-22:00",
    "areaCode": "441900",
    "longitude": 113.8559,
    "note": "",
    "orgAddr": "茶山镇安泰路茶山体育馆",
    "score": 0,
    "orgId": 1658767593,
    "latitude": 23.0655
  },
  {
    "tags": [{ "type": 2, "value": "评分：-" }],
    "orgAddr": "塘厦镇石潭埔环市东路399号",
    "mtId": 949491816,
    "phone": "13751222509",
    "desc": "营业时间：",
    "areaCode": "441900",
    "longitude": 114.1133,
    "note": "",
    "orgName": "锐动篮球俱乐部",
    "score": 0,
    "orgId": 949491816,
    "latitude": 22.795
  },
  {
    "tags": [{ "type": 2, "value": "评分：-" }],
    "orgAddr": "大朗镇长塘第三工业区三街30号3栋104室",
    "mtId": 1128549661,
    "phone": "15626873874",
    "desc": "营业时间：周一至周五,周日 14:00-23:00",
    "areaCode": "441900",
    "longitude": 113.9325,
    "note": "",
    "orgName": "高乐帅篮球馆（朗云智谷店）",
    "score": 0,
    "orgId": 1128549661,
    "latitude": 22.9374
  },
  {
    "tags": [{ "type": 2, "value": "评分：-" }],
    "orgAddr": "莞城街道学院路13号111室",
    "mtId": 1536591246,
    "phone": "",
    "desc": "营业时间：",
    "areaCode": "441900",
    "longitude": 113.7675,
    "note": "",
    "orgName": "奋身体育（东莞市均益大厦店）",
    "score": 0,
    "orgId": 1536591246,
    "latitude": 23.0458
  },
  {
    "tags": [{ "type": 2, "value": "评分：-" }],
    "orgAddr": "寮步镇松元新村112号楼",
    "mtId": 1892912633,
    "phone": "",
    "desc": "营业时间：",
    "areaCode": "441900",
    "longitude": 113.8252,
    "note": "",
    "orgName": "飞梦篮球馆",
    "score": 0,
    "orgId": 1892912633,
    "latitude": 23.0217
  },
  {
    "tags": [{ "type": 2, "value": "评分：-" }],
    "orgAddr": "寮步镇横江西三巷1号",
    "mtId": 526851874,
    "phone": "",
    "desc": "营业时间：",
    "areaCode": "441900",
    "longitude": 113.9058,
    "note": "",
    "orgName": "凫山篮球场",
    "score": 0,
    "orgId": 526851874,
    "latitude": 22.9805
  },
  {
    "tags": [{ "type": 2, "value": "评分：-" }],
    "orgAddr": "大朗镇富康路338号1001室",
    "mtId": 1031116154,
    "phone": "13649833235",
    "desc": "营业时间：周二至周日 08:00-22:00",
    "areaCode": "441900",
    "longitude": 113.9182,
    "note": "",
    "orgName": "高乐帅运动馆",
    "score": 0,
    "orgId": 1031116154,
    "latitude": 22.9629
  },
  {
    "tags": [{ "type": 2, "value": "评分：-" }],
    "orgAddr": "塘厦镇光裕路四村公寓东南侧约220米",
    "mtId": 680804181,
    "phone": "",
    "desc": "营业时间：",
    "areaCode": "441900",
    "longitude": 114.079,
    "note": "",
    "orgName": "锐动少儿篮球俱乐部",
    "score": 0,
    "orgId": 680804181,
    "latitude": 22.8018
  },
  {
    "tags": [{ "type": 2, "value": "评分：-" }],
    "orgAddr": "横沥镇中山东路82号",
    "mtId": 1263626757,
    "phone": "13925569587",
    "desc": "营业时间：周一至周日 10:00-22:00",
    "areaCode": "441900",
    "longitude": 113.9864,
    "note": "",
    "orgName": "高乐帅篮球运动培训（阳光粤港店）",
    "score": 0,
    "orgId": 1263626757,
    "latitude": 23.0017
  },
  {
    "tags": [{ "type": 2, "value": "评分：-" }],
    "orgAddr": "寮步镇凫山盆岭街与凫山吉园街交叉口东北300米",
    "mtId": 1339662976,
    "phone": "",
    "desc": "营业时间：",
    "areaCode": "441900",
    "longitude": 113.911,
    "note": "",
    "orgName": "篮球公园",
    "score": 0,
    "orgId": 1339662976,
    "latitude": 22.9863
  },
  {
    "tags": [{ "type": 2, "value": "评分：-" }],
    "orgAddr": "长安镇海中路27号",
    "mtId": 694758496,
    "phone": "13669890636",
    "desc": "营业时间：",
    "areaCode": "441900",
    "longitude": 113.7636,
    "note": "",
    "orgName": "草根篮球馆（长安沙头金沙花园店）",
    "score": 0,
    "orgId": 694758496,
    "latitude": 22.7715
  },
  {
    "tags": [{ "type": 2, "value": "评分：-" }],
    "orgName": "和田公园-篮球场",
    "mtId": 1314803206,
    "phone": "",
    "desc": "营业时间：",
    "areaCode": "441900",
    "longitude": 114.0128,
    "note": "",
    "orgAddr": "横沥镇桃园一路田饶步长田工业园和田公园（东北角）",
    "score": 0,
    "orgId": 1314803206,
    "latitude": 23.0344
  },
  {
    "tags": [{ "type": 2, "value": "评分：-" }],
    "orgName": "篮子组篮球训练营（北柵校区）",
    "mtId": 1842917500,
    "phone": "",
    "desc": "营业时间：",
    "areaCode": "441900",
    "longitude": 113.7109,
    "note": "",
    "orgAddr": "虎门镇北栅西坊永利达科技园",
    "score": 0,
    "orgId": 1842917500,
    "latitude": 22.8358
  },
  {
    "tags": [{ "type": 2, "value": "评分：-" }],
    "orgName": "嘉颖篮球训练营",
    "mtId": 188835664,
    "phone": "",
    "desc": "营业时间：",
    "areaCode": "441900",
    "longitude": 113.9872,
    "note": "",
    "orgAddr": "常平镇西兴一街88号西北60米",
    "score": 0,
    "orgId": 188835664,
    "latitude": 22.9778
  },
  {
    "tags": [{ "type": 2, "value": "评分：-" }],
    "orgName": "黄洞岭南村球场",
    "mtId": 1779805926,
    "phone": "",
    "desc": "营业时间：",
    "areaCode": "441900",
    "longitude": 114.1639,
    "note": "",
    "orgAddr": "凤岗镇黄洞村305号",
    "score": 0,
    "orgId": 1779805926,
    "latitude": 22.7481
  },
  {
    "tags": [{ "type": 2, "value": "评分：-" }],
    "orgName": "刘屋甲塘球场斜坡",
    "mtId": 771990430,
    "phone": "",
    "desc": "营业时间：",
    "areaCode": "441900",
    "longitude": 113.7931,
    "note": "",
    "orgAddr": "石碣镇滨江中路与和平路交叉口东北240米",
    "score": 0,
    "orgId": 771990430,
    "latitude": 23.0848
  },
  {
    "tags": [{ "type": 2, "value": "评分：-" }],
    "orgName": "锦荣篮球馆",
    "mtId": 627259605,
    "phone": "13632260748",
    "desc": "营业时间：",
    "areaCode": "441900",
    "longitude": 113.7895,
    "note": "",
    "orgAddr": "东城街道大塘头松毛岭街与大塘头东街交叉口东南260米",
    "score": 0,
    "orgId": 627259605,
    "latitude": 23.0468
  },
  {
    "tags": [{ "type": 2, "value": "评分：-" }],
    "orgName": "怀德新村球场",
    "mtId": 1024087466,
    "phone": "",
    "desc": "营业时间：",
    "areaCode": "441900",
    "longitude": 113.6708,
    "note": "",
    "orgAddr": "虎门镇东下四巷54号",
    "score": 0,
    "orgId": 1024087466,
    "latitude": 22.8219
  },