[
  {
    "tags": [
      {
        "type": 2,
        "value": "评分：3.0"
      }
    ],
    "orgAddr": "龙湾区文昌路209号（红连文创园C幢3楼）",
    "mtId": 177542276,
    "phone": "0577-88816661/88858800",
    "desc": "营业时间：周一至周日 09:00-21:00",
    "areaCode": "330303",
    "longitude": 120.7299,
    "note": "",
    "orgName": "百慕达体育公园（红连店）",
    "score": 3,
    "orgId": 177542276,
    "latitude": 27.9744
  },
  {
    "tags": [
      {
        "type": 2,
        "value": "评分：3.2"
      }
    ],
    "orgAddr": "永嘉县张堡东路与双塔路交叉路口南侧（中国日泰鞋业工业园西南侧约50米）",
    "mtId": 160704074,
    "phone": "17758118861/15968716807",
    "desc": "营业时间：周一至周五 17:30-22:30  周六,周日 09:00-22:00",
    "areaCode": "330324",
    "longitude": 120.6159,
    "note": "",
    "orgName": "瓯北一号篮球馆",
    "score": 3.2,
    "orgId": 160704074,
    "latitude": 28.0431
  },
  {
    "tags": [
      {
        "type": 2,
        "value": "评分：3.1"
      }
    ],
    "orgAddr": "鹿城区七都街道上沙村琯塘路19-1号",
    "mtId": 178383315,
    "phone": "0577-88895757",
    "desc": "营业时间：周一至周五 13:30-23:00  周六,周日 08:30-23:00",
    "areaCode": "330302",
    "longitude": 120.7494,
    "note": "",
    "orgName": "百慕达体育公园（七都店）",
    "score": 3.1,
    "orgId": 178383315,
    "latitude": 28.0112
  },
  {
    "tags": [
      {
        "type": 2,
        "value": "评分：4.6"
      },
      {
        "type": 1,
        "value": "有充电宝"
      },
      {
        "type": 1,
        "value": "有卫生间"
      },
      {
        "type": 1,
        "value": "无烟环境"
      },
      {
        "type": 1,
        "value": "免费茶水"
      },
      {
        "type": 1,
        "value": "免费WiFi"
      }
    ],
    "orgAddr": "鹿城区上陡门路408号雅玉园1栋六层",
    "mtId": 508229067,
    "phone": "4000303096-49473",
    "desc": "营业时间：周一至周日 13:30-20:30",
    "areaCode": "330302",
    "longitude": 120.6981,
    "note": "¥1起，精品篮球体验课1节-¥9.9，篮球课1课时-¥45，球票-¥1",
    "orgName": "杜克体育（时代校区）",
    "score": 4.6,
    "orgId": 508229067,
    "latitude": 28.0168
  },
  {
    "tags": [
      {
        "type": 2,
        "value": "评分：4.4"
      },
      {
        "type": 1,
        "value": "有充电宝"
      },
      {
        "type": 1,
        "value": "有卫生间"
      },
      {
        "type": 1,
        "value": "无烟环境"
      },
      {
        "type": 1,
        "value": "免费WiFi"
      }
    ],
    "orgAddr": "瓯海区新桥街道六虹桥路1189号【ZC4-01、02】号商铺",
    "mtId": 777804100,
    "phone": "4001016029-6038",
    "desc": "营业时间：周一至周日 09:00-21:30",
    "areaCode": "330304",
    "longitude": 120.6263,
    "note": "¥1起，篮球课1课时-¥45，精品篮球体验课1节-¥9.9，精品篮球体验课1节-¥9.9，球票-¥1，散打球票（日场+夜场）组合-¥40，夜场球票-¥30",
    "orgName": "杜克体育（梦多多校区）",
    "score": 4.4,
    "orgId": 777804100,
    "latitude": 27.9802
  },
  {
    "tags": [
      {
        "type": 2,
        "value": "评分：5.0"
      },
      {
        "type": 1,
        "value": "有充电宝"
      },
      {
        "type": 1,
        "value": "免费WiFi"
      },
      {
        "type": 1,
        "value": "付费停车"
      }
    ],
    "orgAddr": "乐清市柳市镇车站路200号鸿宝集团园内一楼",
    "mtId": 1749260270,
    "phone": "4000303096-43860",
    "desc": "营业时间：周一至周日 09:00-20:30",
    "areaCode": "330382",
    "longitude": 120.8965,
    "note": "¥1起，【年龄4-6】一节篮球课-¥1，送运动毛巾+两节篮球课-¥19.9，【年龄7-9】一节篮球课-¥1，送定制篮球+两节篮球课-¥66",
    "orgName": "宝叻BIGBALLERS篮球教育（柳市店）",
    "score": 5,
    "orgId": 1749260270,
    "latitude": 28.0479
  },
  {
    "tags": [
      {
        "type": 2,
        "value": "评分：3.0"
      },
      {
        "type": 1,
        "value": "有储物柜"
      },
      {
        "type": 1,
        "value": "有充电宝"
      },
      {
        "type": 1,
        "value": "有卫生间"
      },
      {
        "type": 1,
        "value": "免费茶水"
      },
      {
        "type": 1,
        "value": "免费WiFi"
      }
    ],
    "orgAddr": "鹿城区松台街道人民西路温州大厦三层专柜商场A001室",
    "mtId": 1110320063,
    "phone": "4000303096-26436",
    "desc": "营业时间：周一至周日 10:00-21:00",
    "areaCode": "330302",
    "longitude": 120.6546,
    "note": "¥9.9起，篮球启蒙培训体验课-¥9.9，篮球精英培训体验课-¥9.9，明星教练1v1私教体验课-¥19.9",
    "orgName": "三加三少儿篮球俱乐部",
    "score": 3,
    "orgId": 1110320063,
    "latitude": 28.0071
  },
  {
    "tags": [
      {
        "type": 2,
        "value": "评分：4.2"
      },
      {
        "type": 1,
        "value": "有储物柜"
      },
      {
        "type": 1,
        "value": "有淋浴间"
      },
      {
        "type": 1,
        "value": "有卫生间"
      },
      {
        "type": 1,
        "value": "无烟环境"
      },
      {
        "type": 1,
        "value": "免费茶水"
      },
      {
        "type": 1,
        "value": "免费WiFi"
      }
    ],
    "orgAddr": "龙湾区永定路1088号奥体中心体育馆北面一楼",
    "mtId": 998116540,
    "phone": "4000303096-08267",
    "desc": "营业时间：周一至周日 09:00-20:00",
    "areaCode": "330303",
    "longitude": 120.8115,
    "note": "¥9.9起，篮球培训(8-12)-¥1080，篮球培训(4-7)-¥1080，篮球训练|体验课-¥9.9，篮球、体能、体态三选二(4-7)-¥2160，篮球、体能、体态三选二(8-12)-¥2160",
    "orgName": "黄金期运动健康管理中心（奥体中心店）",
    "score": 4.2,
    "orgId": 998116540,
    "latitude": 27.9183
  },
  {
    "tags": [
      {
        "type": 2,
        "value": "评分：-"
      }
    ],
    "orgAddr": "鹿城区斋堂巷9号附近",
    "mtId": 153912759,
    "phone": "13388520979",
    "desc": "营业时间：周一至周日 09:00-22:00",
    "areaCode": "330302",
    "longitude": 120.6441,
    "note": "",
    "orgName": "篮球场",
    "score": 0,
    "orgId": 153912759,
    "latitude": 28.0167
  },
  {
    "tags": [
      {
        "type": 2,
        "value": "评分：3.7"
      },
      {
        "type": 1,
        "value": "室内泳池"
      },
      {
        "type": 1,
        "value": "标准泳池"
      }
    ],
    "orgAddr": "鹿城区双屿街道三开路双屿六组团旁",
    "mtId": 1553183254,
    "phone": "15306778106/0577-86760555",
    "desc": "营业时间：周一至周日 全天",
    "areaCode": "330302",
    "longitude": 120.5998,
    "note": "¥9.9起，体验课（篮球）体育培训-¥9.9，篮球一对一体验课-¥88.8",
    "orgName": "启冠体育综合店",
    "score": 3.7,
    "orgId": 1553183254,
    "latitude": 28.0202
  },
  {
    "tags": [
      {
        "type": 2,
        "value": "评分：4.8"
      },
      {
        "type": 1,
        "value": "免费茶水"
      },
      {
        "type": 1,
        "value": "免费WiFi"
      }
    ],
    "orgAddr": "龙港市龙港大道银苑大厦A座101室",
    "mtId": 1940090071,
    "phone": "4000303096-12023",
    "desc": "营业时间：周六,周日 09:30-20:30  周二至周五 14:00-20:30",
    "areaCode": "330383",
    "longitude": 120.5447,
    "note": "¥29起，篮球体能-¥29",
    "orgName": "逸动少儿体能成长中心（财富广场校区）",
    "score": 4.8,
    "orgId": 1940090071,
    "latitude": 27.5829
  },
  {
    "tags": [
      {
        "type": 2,
        "value": "评分：4.6"
      },
      {
        "type": 1,
        "value": "有卫生间"
      },
      {
        "type": 1,
        "value": "无烟环境"
      },
      {
        "type": 1,
        "value": "免费茶水"
      },
      {
        "type": 1,
        "value": "免费WiFi"
      }
    ],
    "orgName": "卓跃儿童运动馆·篮球·体适能（中庚店）",
    "mtId": 1419649439,
    "phone": "15372898280/15372898280",
    "desc": "营业时间：周一至周日 10:00-21:00",
    "areaCode": "330304",
    "longitude": 120.6098,
    "note": "¥1起，39.9任选2节运动科目-¥39.9，篮球/体适能/平衡车/跳绳/一节-¥1，轮滑体验课一节-¥6.6",
    "orgAddr": "瓯海区中庚漫游天地联成大厦三楼",
    "score": 4.6,
    "orgId": 1419649439,
    "latitude": 27.9614
  },
  {
    "tags": [
      {
        "type": 2,
        "value": "评分：4.5"
      },
      {
        "type": 1,
        "value": "有充电宝"
      },
      {
        "type": 1,
        "value": "免费茶水"
      },
      {
        "type": 1,
        "value": "免费WiFi"
      }
    ],
    "orgName": "IKIDFIT爱酷少儿体能（吾悦广场中心）",
    "mtId": 847065483,
    "phone": "4000303096-14152",
    "desc": "营业时间：周六,周日 09:30-20:30  周三至周五 13:00-20:30",
    "areaCode": "330303",
    "longitude": 120.7232,
    "note": "¥9.9起，【4-12】篮球体能训练课-¥9.9，【4-12】篮球体能训练课-¥9.9",
    "orgAddr": "龙湾区上江路吾悦广场三层白鹿印巷362-366",
    "score": 4.5,
    "orgId": 847065483,
    "latitude": 27.9847
  },
  {
    "tags": [
      {
        "type": 2,
        "value": "评分：4.3"
      },
      {
        "type": 1,
        "value": "免费WiFi"
      }
    ],
    "orgName": "逸动少儿体能成长中心（瑞安校区）",
    "mtId": 587689289,
    "phone": "4000303096-13146",
    "desc": "营业时间：周一至周日 12:00-21:00",
    "areaCode": "330381",
    "longitude": 120.662,
    "note": "¥9.9起，篮球体能课（请勾选“同意到店”）-¥9.9",
    "orgAddr": "瑞安市罗阳大道佳欣华庭5号楼2楼5203室",
    "score": 4.3,
    "orgId": 587689289,
    "latitude": 27.773
  },
  {
    "tags": [
      {
        "type": 2,
        "value": "评分：-"
      },
      {
        "type": 1,
        "value": "有储物柜"
      },
      {
        "type": 1,
        "value": "可预订场地"
      },
      {
        "type": 1,
        "value": "有充电宝"
      },
      {
        "type": 1,
        "value": "有休息区"
      },
      {
        "type": 1,
        "value": "有卫生间"
      },
      {
        "type": 1,
        "value": "无烟环境"
      },
      {
        "type": 1,
        "value": "免费茶水"
      },
      {
        "type": 1,
        "value": "器材租赁"
      },
      {
        "type": 1,
        "value": "免费WiFi"
      }
    ],
    "orgName": "沁心体育训练中心（将军桥店）",
    "mtId": 1083282103,
    "phone": "4000303096-74656",
    "desc": "营业时间：周一至周日 08:00-22:00",
    "areaCode": "330302",
    "longitude": 120.641,
    "note": "¥79.9起，室内小班篮球培训4课时(将军勤奋水心)-¥359，将军桥勤奋路水心体育训练篮球体适能耐久跑威龙体育-¥359，体育训练 篮球训练 体适能 体能-¥79.9",
    "orgAddr": "鹿城区将军桥路8号",
    "score": 0,
    "orgId": 1083282103,
    "latitude": 28.0021
  },
  {
    "tags": [
      {
        "type": 2,
        "value": "评分：3.5"
      },
      {
        "type": 1,
        "value": "有储物柜"
      },
      {
        "type": 1,
        "value": "有充电宝"
      },
      {
        "type": 1,
        "value": "有卫生间"
      },
      {
        "type": 1,
        "value": "无烟环境"
      },
      {
        "type": 1,
        "value": "免费茶水"
      },
      {
        "type": 1,
        "value": "免费WiFi"
      }
    ],
    "orgName": "超能星球智能运动馆",
    "mtId": 1894038383,
    "phone": "4000303096-21542",
    "desc": "营业时间：周六,周日 09:00-21:00  周二至周五 13:00-21:00",
    "areaCode": "330302",
    "longitude": 120.6578,
    "note": "¥1起，趣味篮球试听课-¥398，特惠篮球试听课-¥1，{新春特惠}1+1初体验试听课-¥7.9",
    "orgAddr": "鹿城区五马街道新街公寓BC幢107-19室-1",
    "score": 3.5,
    "orgId": 1894038383,
    "latitude": 28.0124
  },
  {
    "tags": [
      {
        "type": 2,
        "value": "评分：-"
      }
    ],
    "orgName": "杜克体育（黄龙校区）",
    "mtId": 1526008271,
    "phone": "4000303096-41506",
    "desc": "营业时间：周一至周日 10:00-22:00",
    "areaCode": "330302",
    "longitude": 120.6053,
    "note": "¥1起，精品篮球体验课1节-¥9.9，球票-¥1",
    "orgAddr": "鹿城区康强路11号",
    "score": 0,
    "orgId": 1526008271,
    "latitude": 28.0076
  },
  {
    "tags": [
      {
        "type": 2,
        "value": "评分：-"
      },
      {
        "type": 1,
        "value": "有充电宝"
      }
    ],
    "orgName": "乐星体育·篮球",
    "mtId": 835688576,
    "phone": "4000303096-49218",
    "desc": "营业时间：周一至周日 09:00-23:00",
    "areaCode": "330382",
    "longitude": 120.9585,
    "note": "¥19.9起，（篮球）室外散打票-¥19.9，（篮球）室内木板散打票-¥49.9",
    "orgAddr": "乐清市乐西路88号",
    "score": 0,
    "orgId": 835688576,
    "latitude": 28.1146
  },
  {
    "tags": [
      {
        "type": 2,
        "value": "评分：-"
      },
      {
        "type": 1,
        "value": "有储物柜"
      },
      {
        "type": 1,
        "value": "空调开放"
      },
      {
        "type": 1,
        "value": "有充电宝"
      },
      {
        "type": 1,
        "value": "有休息区"
      },
      {
        "type": 1,
        "value": "有卫生间"
      },
      {
        "type": 1,
        "value": "无烟环境"
      },
      {
        "type": 1,
        "value": "免费茶水"
      },
      {
        "type": 1,
        "value": "免费WiFi"
      },
      {
        "type": 1,
        "value": "免费停车"
      }
    ],
    "orgName": "伍嘉少儿篮球",
    "mtId": 660166040,
    "phone": "4000303096-22207",
    "desc": "营业时间：周六,周日 10:00-21:00  周一至周五 14:00-21:00",
    "areaCode": "330302",
    "longitude": 120.6351,
    "note": "¥29.9起，【金丝桥校区】篮球2节体验课  3-7周岁-¥29.9，【西城路校区】篮球体验课2节   7-12周岁-¥29.9，【大西洋校区】篮球2节体验课   3-7周岁-¥29.9，【新桥校区】篮球2节体验课   3-7周岁-¥29.9，【大西洋校区】篮球2节体验课   7-15周岁-¥29.9，【新桥校区】篮球2节体验课   7-12周岁-¥29.9，【金丝桥校区】篮球2节体验课   7-12周岁-¥29.9，【西城路校区】篮球2节体验课   3-7周岁-¥29.9",
    "orgAddr": "鹿城区西城路农贸市场后门金滨嘉园2幢105室",
    "score": 0,
    "orgId": 660166040,
    "latitude": 28.0159
  },
  {
    "tags": [
      {
        "type": 2,
        "value": "评分：3.0"
      },
      {
        "type": 1,
        "value": "有卫生间"
      },
      {
        "type": 1,
        "value": "无烟环境"
      },
      {
        "type": 1,
        "value": "免费茶水"
      },
      {
        "type": 1,
        "value": "免费WiFi"
      }
    ],
    "orgAddr": "鹿城区滨江街道花源路东欧智库58号二楼",
    "mtId": 1325339326,
    "phone": "4001016029-4895",
    "desc": "营业时间：周一至周日 10:00-22:00",
    "areaCode": "330302",
    "longitude": 120.7079,
    "note": "¥29.9起，幼儿4-6周岁  篮球课-¥29.9",
    "orgName": "优儿乐少儿体适能中心（新城分校）",
    "score": 3,
    "orgId": 1325339326,
    "latitude": 28.0011
  },
  {
    "tags": [
      {
        "type": 2,
        "value": "评分：3.0"
      },
      {
        "type": 1,
        "value": "无烟环境"
      },
      {
        "type": 1,
        "value": "免费点心"
      },
      {
        "type": 1,
        "value": "免费茶水"
      },
      {
        "type": 1,
        "value": "免费WiFi"
      }
    ],
    "orgAddr": "鹿城区南汇街道汤家桥路大自然家园3、4、5幢202室",
    "mtId": 1394202495,
    "phone": "4000303096-41526",
    "desc": "营业时间：周一至周日 10:00-20:00",
    "areaCode": "330302",
    "longitude": 120.7107,
    "note": "¥9.9起，基础篮球（适合5-7周篮球基础动作训练课程）-¥9.9，篮球体能（适合7+篮球进阶练习课程）-¥9.9",
    "orgName": "彼尔.少儿体适能（大自然校区）",
    "score": 3,
    "orgId": 1394202495,
    "latitude": 27.9926
  },
  {
    "tags": [
      {
        "type": 2,
        "value": "评分：4.5"
      }
    ],
    "orgAddr": "瓯海区娄桥街道上河乡路851号",
    "mtId": 160365151,
    "phone": "13736355293",
    "desc": "营业时间：周一至周日 09:00-20:00",
    "areaCode": "330304",
    "longitude": 120.6143,
    "note": "¥49.9起，篮球1个，约6英寸，圆形-¥138",
    "orgName": "甜约丫丫烘焙（娄桥店）",
    "score": 4.5,
    "orgId": 160365151,
    "latitude": 27.9731
  },
  {
    "tags": [
      {
        "type": 2,
        "value": "评分：-"
      },
      {
        "type": 1,
        "value": "有充电宝"
      },
      {
        "type": 1,
        "value": "付费停车"
      }
    ],
    "orgAddr": "乐清市伯乐东路南虹广场6楼",
    "mtId": 1600920416,
    "phone": "4001016029-1832",
    "desc": "营业时间：周一至周日 10:00-21:00",
    "areaCode": "330382",
    "longitude": 120.9827,
    "note": "¥19.9起，篮球体验课-¥19.9，暑假班7课时-¥700，小升中班拍球课-¥1000",
    "orgName": "鼎盛运动馆",
    "score": 0,
    "orgId": 1600920416,
    "latitude": 28.1098
  },
  {
    "tags": [
      {
        "type": 2,
        "value": "评分：-"
      },
      {
        "type": 1,
        "value": "有充电宝"
      },
      {
        "type": 1,
        "value": "有卫生间"
      },
      {
        "type": 1,
        "value": "无烟环境"
      },
      {
        "type": 1,
        "value": "免费茶水"
      },
      {
        "type": 1,
        "value": "免费WiFi"
      }
    ],
    "orgAddr": "鹿城区望江西路108-118号",
    "mtId": 1929716686,
    "phone": "4001016029-7916",
    "desc": "营业时间：周六,周日 09:00-18:00  周三至周五 13:00-20:30",
    "areaCode": "330302",
    "longitude": 120.6291,
    "note": "¥9.9起，篮球课（6-12周）-¥9.9",
    "orgName": "乐one儿童运动成长中心",
    "score": 0,
    "orgId": 1929716686,
    "latitude": 28.0197
  },
  {
    "tags": [
      {
        "type": 2,
        "value": "评分：4.3"
      },
      {
        "type": 1,
        "value": "有卫生间"
      },
      {
        "type": 1,
        "value": "免费WiFi"
      }
    ],
    "orgAddr": "瓯海区金东路站南商贸城D栋1楼101号",
    "mtId": 1045652602,
    "phone": "4000303096-49541",
    "desc": "营业时间：周一至周日 10:00-21:00",
    "areaCode": "330304",
    "longitude": 120.6816,
    "note": "¥1起，篮球课1课时-¥45，精品篮球体验课1节-¥9.9，精品篮球体验课1节-¥9.9，球票-¥1",
    "orgName": "杜克体育（梧田S校区）",
    "score": 4.3,
    "orgId": 1045652602,
    "latitude": 27.9782
  },
  {
    "tags": [
      {
        "type": 2,
        "value": "评分：4.1"
      }
    ],
    "orgAddr": "瓯海区娄桥街道吹台广场乐学城A栋3楼",
    "mtId": 1652056992,
    "phone": "4000303096-70237",
    "desc": "营业时间：周一至周日 08:00-17:30",
    "areaCode": "330304",
    "longitude": 120.6122,
    "note": "¥1起，恩吉拉运动馆篮球轮滑体适能-¥9.9",
    "orgName": "恩吉拉国际托育早教中心",
    "score": 4.1,
    "orgId": 1652056992,
    "latitude": 27.9622
  },
  {
    "tags": [
      {
        "type": 2,
        "value": "评分：5.0"
      },
      {
        "type": 1,
        "value": "空调开放"
      },
      {
        "type": 1,
        "value": "有充电宝"
      },
      {
        "type": 1,
        "value": "有休息区"
      },
      {
        "type": 1,
        "value": "有卫生间"
      },
      {
        "type": 1,
        "value": "无烟环境"
      },
      {
        "type": 1,
        "value": "免费茶水"
      },
      {
        "type": 1,
        "value": "免费WiFi"
      },
      {
        "type": 1,
        "value": "付费停车"
      }
    ],
    "orgAddr": "乐清市蝴蝶广场1栋3楼",
    "mtId": 1993573882,
    "phone": "4000303096-17938",
    "desc": "营业时间：周一,周三至周五 13:00-20:30  周六,周日 10:00-20:30",
    "areaCode": "330382",
    "longitude": 120.9896,
    "note": "¥39.9起，趣味篮球（4-14周岁）-¥39.9",
    "orgName": "艾加少儿体适能中心（乐清总店）",
    "score": 5,
    "orgId": 1993573882,
    "latitude": 28.116
  },
  {
    "tags": [
      {
        "type": 2,
        "value": "评分：4.4"
      },
      {
        "type": 1,
        "value": "实体店洗护"
      }
    ],
    "orgAddr": "乐清市前街社区安居西路38号",
    "mtId": 168314795,
    "phone": "13868751056",
    "desc": "营业时间：周一至周日 08:00-19:00",
    "areaCode": "330382",
    "longitude": 120.8984,
    "note": "¥1起，（全市取送）轻奢潮牌运动篮球鞋靴子精洗1双-¥98",
    "orgName": "卡博尼高质洗衣·奢侈品保养（安居西路店）",
    "score": 4.4,
    "orgId": 168314795,
    "latitude": 28.0421
  },
  {
    "tags": [
      {
        "type": 2,
        "value": "评分：-"
      },
      {
        "type": 1,
        "value": "有充电宝"
      },
      {
        "type": 1,
        "value": "有休息区"
      },
      {
        "type": 1,
        "value": "无烟环境"
      },
      {
        "type": 1,
        "value": "免费茶水"
      },
      {
        "type": 1,
        "value": "免费WiFi"
      },
      {
        "type": 1,
        "value": "付费停车"
      }
    ],
    "orgName": "彼尔·少儿体适能（万象城校区）",
    "mtId": 1527337701,
    "phone": "4000303096-84232",
    "desc": "营业时间：周一至周三,周五 13:00-20:30  周六,周日 10:00-20:30",
    "areaCode": "330304",
    "longitude": 120.6755,
    "note": "¥9.9起，基础篮球体能（适合4.5周+ 基础篮球专项训练）-¥9.9，基础篮球体能（适合4.5周+无篮球基础专项训练）-¥9.9，篮球体能L2（适合7+篮球有基础学员进阶提升练习）-¥9.9，篮球体能L1（适合5周+ 会拍球学员基础篮球训练)-¥9.9",
    "orgAddr": "瓯海区南白象街道南霞商厦1幢301室南首第四间",
    "score": 0,
    "orgId": 1527337701,
    "latitude": 27.9552
  },
  {
    "tags": [
      {
        "type": 2,
        "value": "评分：4.2"
      }
    ],
    "orgName": "WUER SPACE无二花坊 （南塘店）",
    "mtId": 1925053036,
    "phone": "18758753717",
    "desc": "营业时间：周一至周日 08:30-22:00",
    "areaCode": "330302",
    "longitude": 120.6733,
    "note": "¥69起",
    "orgAddr": "鹿城区温迪路裕华公寓3栋111室",
    "score": 4.2,
    "orgId": 1925053036,
    "latitude": 27.9919
  },
  {
    "tags": [
      {
        "type": 2,
        "value": "评分：-"
      },
      {
        "type": 1,
        "value": "免费WiFi"
      },
      {
        "type": 1,
        "value": "免费停车"
      }
    ],
    "orgName": "伍嘉超能星少儿篮球体适能馆（瑞立外滩生活广场店）",
    "mtId": 651249945,
    "phone": "4000303096-69579",
    "desc": "营业时间：周一至周日 14:30-21:00",
    "areaCode": "330381",
    "longitude": 120.6457,
    "note": "¥29.9起，篮球体验课3—7周岁-¥29.9",
    "orgAddr": "瑞安市瑞立外滩生活广场3层",
    "score": 0,
    "orgId": 651249945,
    "latitude": 27.7525
  },
  {
    "tags": [
      {
        "type": 2,
        "value": "评分：5.0"
      }
    ],
    "orgName": "我家眼镜超市（学院西路店）",
    "mtId": 41838246,
    "phone": "15988743432",
    "desc": "营业时间：周一至周日 09:30-20:30",
    "areaCode": "330302",
    "longitude": 120.6749,
    "note": "¥1起，骑行、游泳、篮球运动眼镜套餐-¥138",
    "orgAddr": "鹿城区蒲鞋市街道学院西路202号",
    "score": 5,
    "orgId": 41838246,
    "latitude": 28.0065
  },
  {
    "tags": [
      {
        "type": 2,
        "value": "评分：4.8"
      },
      {
        "type": 1,
        "value": "回头客多"
      },
      {
        "type": 1,
        "value": "实体店洗护"
      }
    ],
    "orgName": "UCC国际洗衣（株柏店）",
    "mtId": 191984131,
    "phone": "13634247986",
    "desc": "营业时间：周一至周日 09:00-20:00",
    "areaCode": "330302",
    "longitude": 120.6694,
    "note": "¥13起，运动鞋篮球鞋休闲鞋清洗-¥35，免费上门取送任意消毒5件大衣羽绒服休闲鞋篮球鞋清洗-¥158",
    "orgAddr": "鹿城区永楠路株柏公寓7幢F105室",
    "score": 4.8,
    "orgId": 191984131,
    "latitude": 28.0227
  },
  {
    "tags": [
      {
        "type": 2,
        "value": "评分：4.0"
      }
    ],
    "orgName": "WUER SPACE 无二花坊（梧田店）",
    "mtId": 1818083505,
    "phone": "13396550884",
    "desc": "营业时间：周一至周日 09:00-22:00",
    "areaCode": "330304",
    "longitude": 120.6743,
    "note": "",
    "orgAddr": "瓯海区梧田街道东垟西路176号",
    "score": 4,
    "orgId": 1818083505,
    "latitude": 27.9695
  },
  {
    "tags": [
      {
        "type": 2,
        "value": "评分：4.1"
      },
      {
        "type": 1,
        "value": "室内"
      },
      {
        "type": 1,
        "value": "木质地板"
      }
    ],
    "orgAddr": "鹿城区产业园路2号",
    "mtId": 1382753421,
    "phone": "19857760559/13905771108",
    "desc": "营业时间：周一至周日 08:30-22:00",
    "areaCode": "330302",
    "longitude": 120.6552,
    "note": "",
    "orgName": "曼多篮球公园",
    "score": 4.1,
    "orgId": 1382753421,
    "latitude": 27.9912
  },
  {
    "tags": [
      {
        "type": 2,
        "value": "评分：-"
      }
    ],
    "orgAddr": "洞头区洞头列岛霓屿岛内",
    "mtId": 153777711,
    "phone": "",
    "desc": "营业时间：周一至周日 09:00-21:00",
    "areaCode": "330305",
    "longitude": 121.0496,
    "note": "",
    "orgName": "霓屿岛-篮球场",
    "score": 0,
    "orgId": 153777711,
    "latitude": 27.8713
  },
  {
    "tags": [
      {
        "type": 2,
        "value": "评分：3.0"
      }
    ],
    "orgAddr": "乐清市建设西路62号",
    "mtId": 1745261863,
    "phone": "",
    "desc": "营业时间：",
    "areaCode": "330382",
    "longitude": 120.9578,
    "note": "",
    "orgName": "科莱恩篮球",
    "score": 3,
    "orgId": 1745261863,
    "latitude": 28.1175
  },
  {
    "tags": [
      {
        "type": 2,
        "value": "评分：-"
      }
    ],
    "orgAddr": "龙湾区永强路与龙海路交叉路口往西约50米（万达广场）",
    "mtId": 1007079311,
    "phone": "",
    "desc": "营业时间：周一至周日 09:00-21:00",
    "areaCode": "330303",
    "longitude": 120.8136,
    "note": "",
    "orgName": "万达广场篮球场",
    "score": 0,
    "orgId": 1007079311,
    "latitude": 27.9207
  },
  {
    "tags": [
      {
        "type": 2,
        "value": "评分：3.7"
      }
    ],
    "orgAddr": "瑞安市安阳新区罗阳大道佳欣华庭1号楼店铺1113-1115号",
    "mtId": 655418266,
    "phone": "15967790730",
    "desc": "营业时间：周一至周日 10:00-22:00",
    "areaCode": "330381",
    "longitude": 120.6619,
    "note": "",
    "orgName": "小太阳少儿篮球运动中心",
    "score": 3.7,
    "orgId": 655418266,
    "latitude": 27.7721
  },
  {
    "tags": [
      {
        "type": 2,
        "value": "评分：-"
      }
    ],
    "orgAddr": "瓯海区寮东村联建路1号",
    "mtId": 690421977,
    "phone": "18658753693",
    "desc": "营业时间：周一至周日 14:00-22:00",
    "areaCode": "330304",
    "longitude": 120.6721,
    "note": "",
    "orgName": "彼格篮球场",
    "score": 0,
    "orgId": 690421977,
    "latitude": 27.9822
  },
  {
    "tags": [
      {
        "type": 2,
        "value": "评分：-"
      }
    ],
    "orgAddr": "鹿城区第一桥128号中荣城市广场柴桥巷F3层",
    "mtId": 1462713513,
    "phone": "18357720091",
    "desc": "营业时间：周一至周日 10:00-22:00",
    "areaCode": "330302",
    "longitude": 120.6592,
    "note": "",
    "orgName": "童玩篮球运动成长中心（中荣城市广场店）",
    "score": 0,
    "orgId": 1462713513,
    "latitude": 28.0104
  },
  {
    "tags": [
      {
        "type": 2,
        "value": "评分：-"
      }
    ],
    "orgAddr": "瑞安市农场小区一楼",
    "mtId": 153849635,
    "phone": "13567764573",
    "desc": "营业时间：周一至周日 9:00-22:00",
    "areaCode": "330381",
    "longitude": 120.6767,
    "note": "",
    "orgName": "瑞安市小巨星篮球训练营",
    "score": 0,
    "orgId": 153849635,
    "latitude": 27.7771
  },
  {
    "tags": [
      {
        "type": 2,
        "value": "评分：-"
      }
    ],
    "orgAddr": "瑞安市瑞祥大道1158号瑞安吾悦广场F3层",
    "mtId": 1490524198,
    "phone": "13958805159",
    "desc": "营业时间：周一至周日 10:00-22:00",
    "areaCode": "330381",
    "longitude": 120.662,
    "note": "",
    "orgName": "宸浩少儿篮球运动",
    "score": 0,
    "orgId": 1490524198,
    "latitude": 27.7816
  },
  {
    "tags": [
      {
        "type": 2,
        "value": "评分：-"
      }
    ],
    "orgAddr": "瑞安市中心路城市168号",
    "mtId": 672829670,
    "phone": "18815155923",
    "desc": "营业时间：周一至周日 全天",
    "areaCode": "330381",
    "longitude": 120.7078,
    "note": "",
    "orgName": "城市168体育公园·篮球馆",
    "score": 0,
    "orgId": 672829670,
    "latitude": 27.8277
  },
  {
    "tags": [
      {
        "type": 2,
        "value": "评分：-"
      }
    ],
    "orgName": "龙城篮球俱乐部旗舰馆",
    "mtId": 1329172921,
    "phone": "",
    "desc": "营业时间：",
    "areaCode": "330383",
    "longitude": 120.5561,
    "note": "",
    "orgAddr": "龙港市蔡家街186号（雅禾厂区内）",
    "score": 0,
    "orgId": 1329172921,
    "latitude": 27.5713
  },
  {
    "tags": [
      {
        "type": 2,
        "value": "评分：-"
      }
    ],
    "orgName": "2022少儿篮球馆（星海广场店）",
    "mtId": 685112758,
    "phone": "13566143796",
    "desc": "营业时间：周一至周日 10:00-22:00",
    "areaCode": "330381",
    "longitude": 120.6708,
    "note": "",
    "orgAddr": "瑞安市新兴路（鑫达大厦旁)",
    "score": 0,
    "orgId": 685112758,
    "latitude": 27.7795
  },
  {
    "tags": [
      {
        "type": 2,
        "value": "评分：-"
      }
    ],
    "orgName": "煦翊少儿篮球馆",
    "mtId": 700478336,
    "phone": "",
    "desc": "营业时间：周一至周日 10:00-22:00",
    "areaCode": "330303",
    "longitude": 120.7224,
    "note": "",
    "orgAddr": "龙湾区蒲洲街道上江路150号温州吾悦广场F3层",
    "score": 0,
    "orgId": 700478336,
    "latitude": 27.9851
  },
  {
    "tags": [
      {
        "type": 2,
        "value": "评分：-"
      }
    ],
    "orgName": "温州医科大学附属第一医院南白象院区篮球场",
    "mtId": 1426949117,
    "phone": "",
    "desc": "营业时间：",
    "areaCode": "330304",
    "longitude": 120.6927,
    "note": "",
    "orgAddr": "瓯海区附二路东150米",
    "score": 0,
    "orgId": 1426949117,
    "latitude": 27.9382
  },
  {
    "tags": [
      {
        "type": 2,
        "value": "评分：-"
      }
    ],
    "orgName": "莱锋吧 少儿篮球馆",
    "mtId": 1349283200,
    "phone": "18989778759",
    "desc": "营业时间：周一至周日 10:00-22:00",
    "areaCode": "330302",
    "longitude": 120.7267,
    "note": "",
    "orgAddr": "鹿城区蒲中路65号",
    "score": 0,
    "orgId": 1349283200,
    "latitude": 27.9955
  },
  {
    "tags": [
      {
        "type": 2,
        "value": "评分：-"
      }
    ],
    "orgName": "童玩篮球（上江店）",
    "mtId": 154130746,
    "phone": "18968873909",
    "desc": "营业时间：周一至周五 13:00-20:30  周六,周日 09:00-20:30",
    "areaCode": "330303",
    "longitude": 120.7189,
    "note": "",
    "orgAddr": "龙湾区上江路65号溢香厅（至潮上江max影院隔壁）",
    "score": 0,
    "orgId": 154130746,
    "latitude": 27.9838
  },
  {
    "tags": [
      {
        "type": 2,
        "value": "评分：-"
      }
    ],
    "orgName": "星尚少儿篮球运动馆",
    "mtId": 1811551133,
    "phone": "15158706823",
    "desc": "营业时间：周一至周日 10:00-22:00",
    "areaCode": "330381",
    "longitude": 120.6598,
    "note": "",
    "orgAddr": "瑞安市安盛路与塘河南路交叉口正西方向22米",
    "score": 0,
    "orgId": 1811551133,
    "latitude": 27.7733
  },
  {
    "tags": [
      {
        "type": 2,
        "value": "评分：-"
      }
    ],
    "orgName": "小海星篮球馆",
    "mtId": 1705604417,
    "phone": "",
    "desc": "营业时间：",
    "areaCode": "330382",
    "longitude": 120.9611,
    "note": "",
    "orgAddr": "乐清市领先培训学校托管中心文笔巷16号",
    "score": 0,
    "orgId": 1705604417,
    "latitude": 28.1293
  },
  {
    "tags": [
      {
        "type": 2,
        "value": "评分：-"
      }
    ],
    "orgName": "莱德队长",
    "mtId": 532844572,
    "phone": "13716967373",
    "desc": "营业时间：",
    "areaCode": "330382",
    "longitude": 120.973,
    "note": "",
    "orgAddr": "乐清市乐清正大广场A幢2楼L2027C号",
    "score": 0,
    "orgId": 532844572,
    "latitude": 28.0868
  },
  {
    "tags": [
      {
        "type": 2,
        "value": "评分：-"
      }
    ],
    "orgName": "城市168篮球公园",
    "mtId": 1958404973,
    "phone": "13758408811/13353312938",
    "desc": "营业时间：周一至周日 10:00-22:00",
    "areaCode": "330303",
    "longitude": 120.7946,
    "note": "",
    "orgAddr": "龙湾区滨海六道与海工大道交叉路口往东约180米",
    "score": 0,
    "orgId": 1958404973,
    "latitude": 27.8161
  },
  {
    "tags": [
      {
        "type": 2,
        "value": "评分：-"
      }
    ],
    "orgAddr": "瑞安市宝隆路4号",
    "mtId": 1180240686,
    "phone": "18368776664",
    "desc": "营业时间：",
    "areaCode": "330381",
    "longitude": 120.6439,
    "note": "",
    "orgName": "十八家体育公园",
    "score": 0,
    "orgId": 1180240686,
    "latitude": 27.7708
  },
  {
    "tags": [
      {
        "type": 2,
        "value": "评分：-"
      }
    ],
    "orgAddr": "平阳县曼顿中心2层",
    "mtId": 1478564687,
    "phone": "17858737520",
    "desc": "营业时间：",
    "areaCode": "330326",
    "longitude": 120.3261,
    "note": "",
    "orgName": "铭德幼儿篮球运动馆",
    "score": 0,
    "orgId": 1478564687,
    "latitude": 27.6324
  },
  {
    "tags": [
      {
        "type": 2,
        "value": "评分：-"
      }
    ],
    "orgAddr": "龙港市龙翔路5332-5338号",
    "mtId": 879323719,
    "phone": "15858598821",
    "desc": "营业时间：",
    "areaCode": "330383",
    "longitude": 120.6067,
    "note": "",
    "orgName": "飞虎体适能运动篮球馆",
    "score": 0,
    "orgId": 879323719,
    "latitude": 27.5094
  },
  {
    "tags": [
      {
        "type": 2,
        "value": "评分：-"
      }
    ],
    "orgAddr": "瓯海区龙霞路40号",
    "mtId": 670324396,
    "phone": "18868290669",
    "desc": "营业时间：",
    "areaCode": "330304",
    "longitude": 120.6741,
    "note": "",
    "orgName": "耀赤俱乐部",
    "score": 0,
    "orgId": 670324396,
    "latitude": 27.9652
  },
  {
    "tags": [
      {
        "type": 2,
        "value": "评分：-"
      }
    ],
    "orgAddr": "乐清市龙翔路与寿昌路交叉路口往西南约160米",
    "mtId": 1406344569,
    "phone": "",
    "desc": "营业时间：",
    "areaCode": "330382",
    "longitude": 121.0038,
    "note": "",
    "orgName": "室外篮球场",
    "score": 0,
    "orgId": 1406344569,
    "latitude": 28.2337
  },
  {
    "tags": [
      {
        "type": 2,
        "value": "评分：-"
      }
    ],
    "orgAddr": "平阳县车站大道与清江路交叉路口往北约100米（万达广场)",
    "mtId": 1418862426,
    "phone": "",
    "desc": "营业时间：",
    "areaCode": "330326",
    "longitude": 120.5722,
    "note": "",
    "orgName": "噢布克球球幼儿篮球营",
    "score": 0,
    "orgId": 1418862426,
    "latitude": 27.5869
  },
  {
    "tags": [
      {
        "type": 2,
        "value": "评分：-"
      }
    ],
    "orgAddr": "瑞安市安阳南路228号银都花园1号楼",
    "mtId": 1260590499,
    "phone": "17769528585",
    "desc": "营业时间：周一至周日 10:00-22:00",
    "areaCode": "330381",
    "longitude": 120.643,
    "note": "",
    "orgName": "新星篮球东山馆",
    "score": 0,
    "orgId": 1260590499,
    "latitude": 27.7544
  },
  {
    "tags": [
      {
        "type": 2,
        "value": "评分：-"
      }
    ],
    "orgAddr": "龙湾区龙腾路99号四楼",
    "mtId": 1778692172,
    "phone": "",
    "desc": "营业时间：",
    "areaCode": "330303",
    "longitude": 120.7634,
    "note": "",
    "orgName": "沃尔夫篮球馆",
    "score": 0,
    "orgId": 1778692172,
    "latitude": 27.9719
  },
  {
    "tags": [
      {
        "type": 2,
        "value": "评分：-"
      }
    ],
    "orgAddr": "鹿城区飞镇南路新华大楼A、B幢二层206号",
    "mtId": 1290561784,
    "phone": "13566246362",
    "desc": "营业时间：",
    "areaCode": "330302",
    "longitude": 120.669,
    "note": "",
    "orgName": "点燃篮球",
    "score": 0,
    "orgId": 1290561784,
    "latitude": 28.0064
  },
  {
    "tags": [
      {
        "type": 2,
        "value": "评分：-"
      }
    ],
    "orgAddr": "鹿城区农业银行(假日支行)学院东路245号",
    "mtId": 902855390,
    "phone": "17366692830",
    "desc": "营业时间：周一至周日 10:00-22:00",
    "areaCode": "330302",
    "longitude": 120.72,
    "note": "",
    "orgName": "华奥新田园社区篮球馆",
    "score": 0,
    "orgId": 902855390,
    "latitude": 28.0049
  },
  {
    "tags": [
      {
        "type": 2,
        "value": "评分：-"
      }
    ],
    "orgName": "梅拉7号篮球公园",
    "mtId": 1891013484,
    "phone": "18066416896",
    "desc": "营业时间：",
    "areaCode": "330381",
    "longitude": 120.708,
    "note": "",
    "orgAddr": "瑞安市镇府路汀十村办公楼",
    "score": 0,
    "orgId": 1891013484,
    "latitude": 27.788
  },
  {
    "tags": [
      {
        "type": 2,
        "value": "评分：-"
      }
    ],
    "orgName": "时尚港篮球场",
    "mtId": 1511852242,
    "phone": "",
    "desc": "营业时间：",
    "areaCode": "330302",
    "longitude": 120.5906,
    "note": "",
    "orgAddr": "鹿城区温金路1000号",
    "score": 0,
    "orgId": 1511852242,
    "latitude": 28.0372
  },
  {
    "tags": [
      {
        "type": 2,
        "value": "评分：-"
      }
    ],
    "orgName": "杜克体育公园（滨江店）",
    "mtId": 1101284064,
    "phone": "18367839732",
    "desc": "营业时间：",
    "areaCode": "330302",
    "longitude": 120.7231,
    "note": "",
    "orgAddr": "鹿城区滨江花苑北（商务四路南）",
    "score": 0,
    "orgId": 1101284064,
    "latitude": 28.0123
  },
  {
    "tags": [
      {
        "type": 2,
        "value": "评分：-"
      }
    ],
    "orgName": "壹号篮球场（寮东路）",
    "mtId": 152769067,
    "phone": "",
    "desc": "营业时间：周一至周日 09:00-21:00",
    "areaCode": "330304",
    "longitude": 120.6717,
    "note": "",
    "orgAddr": "瓯海区联建路1号13栋",
    "score": 0,
    "orgId": 152769067,
    "latitude": 27.9822
  },
  {
    "tags": [
      {
        "type": 2,
        "value": "评分：-"
      }
    ],
    "orgName": "宜山门球场",
    "mtId": 860141558,
    "phone": "",
    "desc": "营业时间：",
    "areaCode": "330327",
    "longitude": 120.5387,
    "note": "",
    "orgAddr": "苍南县球新西路与公园路交叉口东60米",
    "score": 0,
    "orgId": 860141558,
    "latitude": 27.5097
  },
  {
    "tags": [
      {
        "type": 2,
        "value": "评分：-"
      }
    ],
    "orgName": "东欢篮球公园",
    "mtId": 1610770266,
    "phone": "",
    "desc": "营业时间：",
    "areaCode": "330324",
    "longitude": 120.6273,
    "note": "",
    "orgAddr": "永嘉县双塔路2112号艾佳亲子广场5楼",
    "score": 0,
    "orgId": 1610770266,
    "latitude": 28.0422
  },
  {
    "tags": [
      {
        "type": 2,
        "value": "评分：-"
      }
    ],
    "orgName": "贝佳体育瓯海篮球馆",
    "mtId": 1130266293,
    "phone": "13777760017",
    "desc": "营业时间：",
    "areaCode": "330304",
    "longitude": 120.6262,
    "note": "",
    "orgAddr": "瓯海区东园街世茂璀璨澜庭东南侧约150米",
    "score": 0,
    "orgId": 1130266293,
    "latitude": 27.9575
  },
  {
    "tags": [
      {
        "type": 2,
        "value": "评分：-"
      }
    ],
    "orgName": "光合篮球训练营",
    "mtId": 1758369293,
    "phone": "15857718792/13567792010",
    "desc": "营业时间：春季、秋季、冬季 周一,周三至周日 10:00-20:00  夏季 周一,周六 09:00-20:00",
    "areaCode": "330304",
    "longitude": 120.7091,
    "note": "",
    "orgAddr": "瓯海区温州大道1707号",
    "score": 0,
    "orgId": 1758369293,
    "latitude": 27.9801
  },
  {
    "tags": [
      {
        "type": 2,
        "value": "评分：-"
      }
    ],
    "orgName": "风向标少儿篮球体适能馆",
    "mtId": 1918001816,
    "phone": "13819738955",
    "desc": "营业时间：周一至周日 10:00-22:00",
    "areaCode": "330302",
    "longitude": 120.7073,
    "note": "",
    "orgAddr": "鹿城区万源路八百七十二弄与花源路二十八弄交叉口西80米",
    "score": 0,
    "orgId": 1918001816,
    "latitude": 28.0022
  },
  {
    "tags": [
      {
        "type": 2,
        "value": "评分：-"
      }
    ],
    "orgName": "彼格少儿篮球馆（南汇馆）",
    "mtId": 553771575,
    "phone": "13906644767",
    "desc": "营业时间：周一至周日 10:00-22:00",
    "areaCode": "330302",
    "longitude": 120.6641,
    "note": "",
    "orgAddr": "鹿城区汇车桥底133号2层",
    "score": 0,
    "orgId": 553771575,
    "latitude": 28.0003
  },
  {
    "tags": [
      {
        "type": 2,
        "value": "评分：-"
      }
    ],
    "orgAddr": "乐清市晨曦路与飞云东路交汇处",
    "mtId": 1374619345,
    "phone": "",
    "desc": "营业时间：",
    "areaCode": "330382",
    "longitude": 121.0024,
    "note": "",
    "orgName": "篮球馆",
    "score": 0,
    "orgId": 1374619345,
    "latitude": 28.1067
  },
  {
    "tags": [
      {
        "type": 2,
        "value": "评分：-"
      }
    ],
    "orgAddr": "乐清市兴浦路2号",
    "mtId": 574093650,
    "phone": "",
    "desc": "营业时间：",
    "areaCode": "330382",
    "longitude": 121.0478,
    "note": "",
    "orgName": "万泽前村篮球场",
    "score": 0,
    "orgId": 574093650,
    "latitude": 28.1619
  },
  {
    "tags": [
      {
        "type": 2,
        "value": "评分：-"
      }
    ],
    "orgAddr": "鹿城区月湖小区2B栋201室",
    "mtId": 1434558981,
    "phone": "18060635626",
    "desc": "营业时间：",
    "areaCode": "330302",
    "longitude": 120.6392,
    "note": "",
    "orgName": "冠篮体育少儿篮球",
    "score": 0,
    "orgId": 1434558981,
    "latitude": 28.0185
  },
  {
    "tags": [
      {
        "type": 2,
        "value": "评分：-"
      }
    ],
    "orgAddr": "瑞安市阳光北路万松商务生活广场A座F105室",
    "mtId": 1148024851,
    "phone": "18058857896",
    "desc": "营业时间：",
    "areaCode": "330381",
    "longitude": 120.6471,
    "note": "",
    "orgName": "华蒙星少儿篮球馆",
    "score": 0,
    "orgId": 1148024851,
    "latitude": 27.781
  },
  {
    "tags": [
      {
        "type": 2,
        "value": "评分：-"
      }
    ],
    "orgAddr": "泰顺县文星路",
    "mtId": 848968760,
    "phone": "",
    "desc": "营业时间：",
    "areaCode": "330329",
    "longitude": 119.7277,
    "note": "",
    "orgName": "泰顺县体育中心篮球馆",
    "score": 0,
    "orgId": 848968760,
    "latitude": 27.5723
  },
  {
    "tags": [
      {
        "type": 2,
        "value": "评分：-"
      }
    ],
    "orgAddr": "瑞安市-锦湖大厦一楼101-103号",
    "mtId": 731750486,
    "phone": "17858155327",
    "desc": "营业时间：周一至周日 10:00-22:00",
    "areaCode": "330381",
    "longitude": 120.6299,
    "note": "",
    "orgName": "启梦少儿篮球",
    "score": 0,
    "orgId": 731750486,
    "latitude": 27.7852
  },
  {
    "tags": [
      {
        "type": 2,
        "value": "评分：-"
      }
    ],
    "orgAddr": "龙湾区甬江路88号",
    "mtId": 735529632,
    "phone": "",
    "desc": "营业时间：",
    "areaCode": "330303",
    "longitude": 120.7531,
    "note": "",
    "orgName": "越宁体育",
    "score": 0,
    "orgId": 735529632,
    "latitude": 27.9675
  },
  {
    "tags": [
      {
        "type": 2,
        "value": "评分：-"
      }
    ],
    "orgAddr": "鹿城区南汇街道旭日幼儿园篮球场",
    "mtId": 1488960670,
    "phone": "17774033772",
    "desc": "营业时间：周一,周三至周五 16:00-20:00  周六,周日 09:00-20:00",
    "areaCode": "330302",
    "longitude": 120.6868,
    "note": "",
    "orgName": "海浪花儿童篮球",
    "score": 0,
    "orgId": 1488960670,
    "latitude": 27.9822
  },
  {
    "tags": [
      {
        "type": 2,
        "value": "评分：-"
      }
    ],
    "orgAddr": "龙港市辖镇哈乐宾馆南",
    "mtId": 1535401684,
    "phone": "13566106461",
    "desc": "营业时间：",
    "areaCode": "330383",
    "longitude": 120.5491,
    "note": "",
    "orgName": "炬星篮球",
    "score": 0,
    "orgId": 1535401684,
    "latitude": 27.5719
  },
  {
    "tags": [
      {
        "type": 2,
        "value": "评分：-"
      }
    ],
    "orgAddr": "龙湾区玉苍西路2号富得宝商业广场2号楼-1楼",
    "mtId": 1251515366,
    "phone": "19906696336/0577-86666615",
    "desc": "营业时间：周六,周日 08:30-21:00  周二至周五 09:00-21:00",
    "areaCode": "330303",
    "longitude": 120.7183,
    "note": "",
    "orgName": "超能星球（温州旗舰校区）",
    "score": 0,
    "orgId": 1251515366,
    "latitude": 27.9833
  },
  {
    "tags": [
      {
        "type": 2,
        "value": "评分：-"
      }
    ],
    "orgName": "澳宇台球桌乒乓球桌篮球架厂",
    "mtId": 173938940,
    "phone": "0577-86380766/13957768206",
    "desc": "营业时间：周一至周日 09:00-18:00",
    "areaCode": "330303",
    "longitude": 120.7728,
    "note": "",
    "orgAddr": "龙湾区机场大道与油库路交叉路口往东北约70米",
    "score": 0,
    "orgId": 173938940,
    "latitude": 27.968
  },
  {
    "tags": [
      {
        "type": 2,
        "value": "评分：-"
      }
    ],
    "orgName": "雏鹰青少年体育俱乐部",
    "mtId": 81252437,
    "phone": "0577-88355882",
    "desc": "营业时间：",
    "areaCode": "330302",
    "longitude": 120.679,
    "note": "",
    "orgAddr": "鹿城区民航路6号温州体育中心游泳馆西看台二楼",
    "score": 0,
    "orgId": 81252437,
    "latitude": 28.0007
  },
  {
    "tags": [
      {
        "type": 2,
        "value": "评分：-"
      }
    ],
    "orgName": "杜克体育（南湖店）",
    "mtId": 658657474,
    "phone": "",
    "desc": "营业时间：",
    "areaCode": "330304",
    "longitude": 120.669,
    "note": "",
    "orgAddr": "瓯海区振凤路1号2层201室",
    "score": 0,
    "orgId": 658657474,
    "latitude": 27.9496
  },
  {
    "tags": [
      {
        "type": 2,
        "value": "评分：-"
      }
    ],
    "orgName": "唯玩星球少儿篮球运动馆",
    "mtId": 1196751228,
    "phone": "15258495961",
    "desc": "营业时间：",
    "areaCode": "330326",
    "longitude": 120.3393,
    "note": "",
    "orgAddr": "平阳县水头镇快乐购三楼",
    "score": 0,
    "orgId": 1196751228,
    "latitude": 27.6364
  },
  {
    "tags": [
      {
        "type": 2,
        "value": "评分：-"
      }
    ],
    "orgName": "新奥篮球馆",
    "mtId": 1418392223,
    "phone": "",
    "desc": "营业时间：",
    "areaCode": "330302",
    "longitude": 120.6395,
    "note": "",
    "orgAddr": "鹿城区粗糠桥5号",
    "score": 0,
    "orgId": 1418392223,
    "latitude": 28.0145
  },
  {
    "tags": [
      {
        "type": 2,
        "value": "评分：-"
      }
    ],
    "orgName": "锐兴体育（温州·奥体城店）",
    "mtId": 1842779886,
    "phone": "15967431431",
    "desc": "营业时间：",
    "areaCode": "330303",
    "longitude": 120.8096,
    "note": "",
    "orgAddr": "龙湾区永中街道高新大道999号熙园13幢103室",
    "score": 0,
    "orgId": 1842779886,
    "latitude": 27.9161
  },
  {
    "tags": [
      {
        "type": 2,
        "value": "评分：-"
      }
    ],
    "orgName": "柳江壹号智体城多功能运动场",
    "mtId": 644644942,
    "phone": "13738303960",
    "desc": "营业时间：",
    "areaCode": "330382",
    "longitude": 120.8895,
    "note": "",
    "orgAddr": "乐清市柳江路1号柳江壹号智体城（长城大厦）",
    "score": 0,
    "orgId": 644644942,
    "latitude": 28.047
  },
  {
    "tags": [
      {
        "type": 2,
        "value": "评分：-"
      }
    ],
    "orgName": "华跃·杜克体育公园",
    "mtId": 1753889308,
    "phone": "4008677886/18815165807",
    "desc": "营业时间：周一至周日 06:00-22:00",
    "areaCode": "330302",
    "longitude": 120.6822,
    "note": "",
    "orgAddr": "鹿城区车站大道华跃大厦停车场5楼",
    "score": 0,
    "orgId": 1753889308,
    "latitude": 28.0096
  },
  {
    "tags": [
      {
        "type": 2,
        "value": "评分：-"
      }
    ],
    "orgName": "天空篮球公园",
    "mtId": 152161780,
    "phone": "13057773737",
    "desc": "营业时间：周一至周日 09:00-22:00",
    "areaCode": "330326",
    "longitude": 120.5676,
    "note": "",
    "orgAddr": "平阳县水利局后门",
    "score": 0,
    "orgId": 152161780,
    "latitude": 27.6755
  },
  {
    "tags": [
      {
        "type": 2,
        "value": "评分：-"
      }
    ],
    "orgName": "鳌江篮球",
    "mtId": 1256980731,
    "phone": "",
    "desc": "营业时间：",
    "areaCode": "330326",
    "longitude": 120.5493,
    "note": "",
    "orgAddr": "平阳县站前街与望雁街交叉口南120米",
    "score": 0,
    "orgId": 1256980731,
    "latitude": 27.5958
  },
  {
    "tags": [
      {
        "type": 2,
        "value": "评分：-"
      }
    ],
    "orgAddr": "鹿城区瓯江路717号",
    "mtId": 1930288296,
    "phone": "13968822225",
    "desc": "营业时间：",
    "areaCode": "330302",
    "longitude": 120.7362,
    "note": "",
    "orgName": "桃花岛室内气模篮球馆",
    "score": 0,
    "orgId": 1930288296,
    "latitude": 28.0014
  },
  {
    "tags": [
      {
        "type": 2,
        "value": "评分：-"
      }
    ],
    "orgAddr": "鹿城区葡萄棚路26号顺锦文化创意园9号楼",
    "mtId": 1595279555,
    "phone": "0577-88809265",
    "desc": "营业时间：周一至周日 10:00-22:00",
    "areaCode": "330302",
    "longitude": 120.6511,
    "note": "",
    "orgName": "老码头星球馆",
    "score": 0,
    "orgId": 1595279555,
    "latitude": 27.9927
  },
  {
    "tags": [
      {
        "type": 2,
        "value": "评分：-"
      }
    ],
    "orgAddr": "永嘉县塔下路与永宁路交叉口东150米",
    "mtId": 1536867774,
    "phone": "13868878975",
    "desc": "营业时间：周一至周日 12:00-23:00",
    "areaCode": "330324",
    "longitude": 120.665,
    "note": "",
    "orgName": "瓯耀篮球公园",
    "score": 0,
    "orgId": 1536867774,
    "latitude": 28.0371
  },
  {
    "tags": [
      {
        "type": 2,
        "value": "评分：-"
      }
    ],
    "orgAddr": "瓯海区月乐东街与站南路交叉口西北100米",
    "mtId": 924355214,
    "phone": "18957732925",
    "desc": "营业时间：周一至周日 10:00-22:00",
    "areaCode": "330304",
    "longitude": 120.6841,
    "note": "",
    "orgName": "梧桐树篮球公园",
    "score": 0,
    "orgId": 924355214,
    "latitude": 27.9776
  },
  {
    "tags": [
      {
        "type": 2,
        "value": "评分：-"
      }
    ],
    "orgAddr": "苍南县钱库镇振兴西街668号",
    "mtId": 1050691827,
    "phone": "13958793115",
    "desc": "营业时间：",
    "areaCode": "330327",
    "longitude": 120.5621,
    "note": "",
    "orgName": "星锐篮球馆",
    "score": 0,
    "orgId": 1050691827,
    "latitude": 27.4913
  },
  {
    "tags": [
      {
        "type": 2,
        "value": "评分：-"
      }
    ],
    "orgAddr": "瑞安市东风路1号",
    "mtId": 1288527334,
    "phone": "17816811192",
    "desc": "营业时间：",
    "areaCode": "330381",
    "longitude": 120.6293,
    "note": "",
    "orgName": "源尚力篮球馆",
    "score": 0,
    "orgId": 1288527334,
    "latitude": 27.7894
  },
  {
    "tags": [
      {
        "type": 2,
        "value": "评分：-"
      }
    ],
    "orgAddr": "龙港市辖镇江滨路96-112号",
    "mtId": 755525088,
    "phone": "15606673199/18858805132",
    "desc": "营业时间：周一至周日 10:00-22:00",
    "areaCode": "330383",
    "longitude": 120.555,
    "note": "",
    "orgName": "曼巴篮球馆",
    "score": 0,
    "orgId": 755525088,
    "latitude": 27.5842
  },
  {
    "tags": [
      {
        "type": 2,
        "value": "评分：-"
      }
    ],
    "orgAddr": "鹿城区油车巷与百里西路交叉口东南约40米",
    "mtId": 596413743,
    "phone": "18858879709",
    "desc": "营业时间：周一至周日 10:00-22:00",
    "areaCode": "330302",
    "longitude": 120.6434,
    "note": "",
    "orgName": "星迪篮球馆",
    "score": 0,
    "orgId": 596413743,
    "latitude": 28.0195
  },
  {
    "tags": [
      {
        "type": 2,
        "value": "评分：-"
      }
    ],
    "orgAddr": "苍南县人民大道绿都花城-A组团东北侧约80米",
    "mtId": 1639212016,
    "phone": "",
    "desc": "营业时间：",
    "areaCode": "330327",
    "longitude": 120.4384,
    "note": "",
    "orgName": "零号篮球公园",
    "score": 0,
    "orgId": 1639212016,
    "latitude": 27.527
  },
  {
    "tags": [
      {
        "type": 2,
        "value": "评分：-"
      }
    ],
    "orgAddr": "苍南县车站大道车站大道198-200号",
    "mtId": 606600776,
    "phone": "18858791135/18267899596",
    "desc": "营业时间：",
    "areaCode": "330327",
    "longitude": 120.4161,
    "note": "",
    "orgName": "篮途体育",
    "score": 0,
    "orgId": 606600776,
    "latitude": 27.5222
  },
  {
    "tags": [
      {
        "type": 2,
        "value": "评分：-"
      }
    ],
    "orgName": "非凡篮球俱乐部",
    "mtId": 1239023777,
    "phone": "15902036226",
    "desc": "营业时间：周一至周日 10:00-22:00",
    "areaCode": "330383",
    "longitude": 120.5401,
    "note": "",
    "orgAddr": "龙港市通港路1688号实验中学门口",
    "score": 0,
    "orgId": 1239023777,
    "latitude": 27.5576
  },
  {
    "tags": [
      {
        "type": 2,
        "value": "评分：-"
      }
    ],
    "orgName": "塘球篮球馆",
    "mtId": 1022837545,
    "phone": "13777467287",
    "desc": "营业时间：周一至周五 14:30-22:00  周六,周日 09:00-22:00",
    "areaCode": "330381",
    "longitude": 120.6895,
    "note": "",
    "orgAddr": "瑞安市沿河南路77-1号",
    "score": 0,
    "orgId": 1022837545,
    "latitude": 27.8257
  },
  {
    "tags": [
      {
        "type": 2,
        "value": "评分：-"
      }
    ],
    "orgName": "铭星空中篮球公园",
    "mtId": 1057670056,
    "phone": "13505777705",
    "desc": "营业时间：",
    "areaCode": "330382",
    "longitude": 121.0237,
    "note": "",
    "orgAddr": "乐清市虹淡路1号居然之家四楼",
    "score": 0,
    "orgId": 1057670056,
    "latitude": 28.2215
  },
  {
    "tags": [
      {
        "type": 2,
        "value": "评分：-"
      }
    ],
    "orgName": "康悦篮球公园",
    "mtId": 711426063,
    "phone": "13695728132",
    "desc": "营业时间：",
    "areaCode": "330327",
    "longitude": 120.4065,
    "note": "",
    "orgAddr": "苍南县灵溪镇沪山东路329-335号",
    "score": 0,
    "orgId": 711426063,
    "latitude": 27.517
  },
  {
    "tags": [
      {
        "type": 2,
        "value": "评分：-"
      }
    ],
    "orgName": "百慕达体育公园（瓯海店）",
    "mtId": 178402971,
    "phone": "",
    "desc": "营业时间：周一至周日 09:00-21:00",
    "areaCode": "330304",
    "longitude": 120.6285,
    "note": "",
    "orgAddr": "瓯海区娄桥街道东风北路1弄1号",
    "score": 0,
    "orgId": 178402971,
    "latitude": 27.9644
  },
  {
    "tags": [
      {
        "type": 2,
        "value": "评分：-"
      }
    ],
    "orgName": "仙岩起点篮球馆",
    "mtId": 1017123372,
    "phone": "",
    "desc": "营业时间：",
    "areaCode": "330304",
    "longitude": 120.6824,
    "note": "",
    "orgAddr": "瓯海区朱繁路与景山东路交叉口西北80米",
    "score": 0,
    "orgId": 1017123372,
    "latitude": 27.8818
  },
  {
    "tags": [
      {
        "type": 2,
        "value": "评分：-"
      }
    ],
    "orgName": "东升篮球公园",
    "mtId": 160505918,
    "phone": "13989756001",
    "desc": "营业时间：周一至周五 17:30-21:30  周六,周日 13:30-21:30",
    "areaCode": "330303",
    "longitude": 120.817,
    "note": "",
    "orgAddr": "龙湾区秀东路万瑞嘉园西北侧",
    "score": 0,
    "orgId": 160505918,
    "latitude": 27.9316
  },
  {
    "tags": [
      {
        "type": 2,
        "value": "评分：-"
      }
    ],
    "orgName": "XL篮球馆",
    "mtId": 1148277325,
    "phone": "13616650606",
    "desc": "营业时间：周一至周日 06:00-23:00",
    "areaCode": "330381",
    "longitude": 120.6721,
    "note": "",
    "orgAddr": "瑞安市富强南路3号2楼",
    "score": 0,
    "orgId": 1148277325,
    "latitude": 27.7834
  },
  {
    "tags": [
      {
        "type": 2,
        "value": "评分：-"
      },
      {
        "type": 1,
        "value": "有充电宝"
      },
      {
        "type": 1,
        "value": "无烟环境"
      },
      {
        "type": 1,
        "value": "免费茶水"
      }
    ],
    "orgName": "越宁篮球体适能馆",
    "mtId": 1271427348,
    "phone": "18968736707",
    "desc": "营业时间：周一至周日 10:00-22:00",
    "areaCode": "330303",
    "longitude": 120.7524,
    "note": "",
    "orgAddr": "龙湾区甬江路88号",
    "score": 0,
    "orgId": 1271427348,
    "latitude": 27.9679
  },
  {
    "tags": [
      {
        "type": 2,
        "value": "评分：-"
      }
    ],
    "orgName": "海滨篮球主题公园",
    "mtId": 1975059263,
    "phone": "18957788928",
    "desc": "营业时间：周六,周日 09:00-21:00  周一至周五 14:00-21:00",
    "areaCode": "330303",
    "longitude": 120.8401,
    "note": "",
    "orgAddr": "龙湾区海宁路与机场大道辅路交叉口东北140米",
    "score": 0,
    "orgId": 1975059263,
    "latitude": 27.9216
  },
  {
    "tags": [
      {
        "type": 2,
        "value": "评分：-"
      }
    ],
    "orgAddr": "龙湾区永强大道乐天购物中心四楼",
    "mtId": 163936577,
    "phone": "0577-86626699/18969739797",
    "desc": "营业时间：周一至周日 09:00-22:00",
    "areaCode": "330303",
    "longitude": 120.8326,
    "note": "",
    "orgName": "积健空中篮球公园（奥玛尔国际购物中心店）",
    "score": 0,
    "orgId": 163936577,
    "latitude": 27.9157
  },
  {
    "tags": [
      {
        "type": 2,
        "value": "评分：-"
      }
    ],
    "orgAddr": "瓯海区娄南街113号（快乐购超市对面）",
    "mtId": 1264254301,
    "phone": "",
    "desc": "营业时间：周一至周日 10:00-22:00",
    "areaCode": "330304",
    "longitude": 120.6044,
    "note": "",
    "orgName": "贝佳篮球公园",
    "score": 0,
    "orgId": 1264254301,
    "latitude": 27.9694
  },
  {
    "tags": [
      {
        "type": 2,
        "value": "评分：-"
      }
    ],
    "orgAddr": "乐清市清远路221号时代广场购物中心清远路店F2层",
    "mtId": 1212759856,
    "phone": "15888249464",
    "desc": "营业时间：",
    "areaCode": "330382",
    "longitude": 120.9697,
    "note": "",
    "orgName": "小飞侠篮球运动馆",
    "score": 0,
    "orgId": 1212759856,
    "latitude": 28.1107
  },
  {
    "tags": [
      {
        "type": 2,
        "value": "评分：-"
      }
    ],
    "orgAddr": "乐清市柳江路现代广场6楼",
    "mtId": 1301763912,
    "phone": "",
    "desc": "营业时间：",
    "areaCode": "330382",
    "longitude": 120.8895,
    "note": "",
    "orgName": "麻雀球馆（现代广场店）",
    "score": 0,
    "orgId": 1301763912,
    "latitude": 28.0442
  },
  {
    "tags": [
      {
        "type": 2,
        "value": "评分：3.5"
      }
    ],
    "orgAddr": "龙湾区永中西路与龙江路交叉口西北约100米",
    "mtId": 1505068799,
    "phone": "",
    "desc": "营业时间：",
    "areaCode": "330303",
    "longitude": 120.8033,
    "note": "",
    "orgName": "快快少儿篮球体适能馆",
    "score": 3.5,
    "orgId": 1505068799,
    "latitude": 27.9275
  },
  {
    "tags": [
      {
        "type": 2,
        "value": "评分：-"
      }
    ],
    "orgAddr": "龙港市人民路与光明路交叉口西南60米",
    "mtId": 644058548,
    "phone": "15858024246",
    "desc": "营业时间：周一至周日 10:00-22:00",
    "areaCode": "330383",
    "longitude": 120.5613,
    "note": "",
    "orgName": "非凡篮球馆",
    "score": 0,
    "orgId": 644058548,
    "latitude": 27.5683
  },
  {
    "tags": [
      {
        "type": 2,
        "value": "评分：-"
      }
    ],
    "orgAddr": "乐清市音乐之城CCD内",
    "mtId": 1627131374,
    "phone": "18072106966/0577-62568199",
    "desc": "营业时间：",
    "areaCode": "330382",
    "longitude": 120.9585,
    "note": "",
    "orgName": "三环篮球公园",
    "score": 0,
    "orgId": 1627131374,
    "latitude": 28.1083
  },
  {
    "tags": [
      {
        "type": 2,
        "value": "评分：-"
      }
    ],
    "orgAddr": "平阳县环城西路与振兴路交叉口东80米",
    "mtId": 997153696,
    "phone": "18157901556",
    "desc": "营业时间：周一至周日 10:00-22:00",
    "areaCode": "330326",
    "longitude": 120.5612,
    "note": "",
    "orgName": "启航篮球馆",
    "score": 0,
    "orgId": 997153696,
    "latitude": 27.6829
  },
  {
    "tags": [
      {
        "type": 2,
        "value": "评分：-"
      }
    ],
    "orgAddr": "瑞安市虹桥北路81号港瑞·新玉海B1层",
    "mtId": 750900503,
    "phone": "13587520646",
    "desc": "营业时间：周一至周日 10:00-22:00",
    "areaCode": "330381",
    "longitude": 120.6327,
    "note": "",
    "orgName": "壹加壹体育（港瑞新玉海店）",
    "score": 0,
    "orgId": 750900503,
    "latitude": 27.7829
  },
  {
    "tags": [
      {
        "type": 2,
        "value": "评分：-"
      }
    ],
    "orgAddr": "乐清市新桥西路",
    "mtId": 154004955,
    "phone": "",
    "desc": "营业时间：",
    "areaCode": "330382",
    "longitude": 120.8941,
    "note": "",
    "orgName": "东村篮球场",
    "score": 0,
    "orgId": 154004955,
    "latitude": 28.0319
  },
  {
    "tags": [
      {
        "type": 2,
        "value": "评分：3.6"
      }
    ],
    "orgName": "911篮球场",
    "mtId": 3270796,
    "phone": "13806555886/13732044988",
    "desc": "营业时间：",
    "areaCode": "330304",
    "longitude": 120.6849,
    "note": "",
    "orgAddr": "瓯海区梧田街道月落东路1号",
    "score": 3.6,
    "orgId": 3270796,
    "latitude": 27.9773
  },
  {
    "tags": [
      {
        "type": 2,
        "value": "评分：-"
      }
    ],
    "orgName": "星空篮球",
    "mtId": 1559238404,
    "phone": "0577-89992833",
    "desc": "营业时间：",
    "areaCode": "330302",
    "longitude": 120.6646,
    "note": "",
    "orgAddr": "鹿城区人民东路78号2楼（中腾青少年成长中心活动场馆内）",
    "score": 0,
    "orgId": 1559238404,
    "latitude": 28.0112
  },
  {
    "tags": [
      {
        "type": 2,
        "value": "评分：-"
      }
    ],
    "orgName": "金鲨篮球",
    "mtId": 165205485,
    "phone": "15869684408",
    "desc": "营业时间：周六 09:00-15:00  周日 09:00-10:00",
    "areaCode": "330302",
    "longitude": 120.6511,
    "note": "",
    "orgAddr": "鹿城区国脉路老码头星球馆内",
    "score": 0,
    "orgId": 165205485,
    "latitude": 27.9926
  },
  {
    "tags": [
      {
        "type": 2,
        "value": "评分：-"
      }
    ],
    "orgName": "燃狐体育·少年篮球MVP",
    "mtId": 1459606095,
    "phone": "13676700067",
    "desc": "营业时间：周一至周日 10:00-22:00",
    "areaCode": "330302",
    "longitude": 120.6841,
    "note": "",
    "orgAddr": "鹿城区车站大道371号",
    "score": 0,
    "orgId": 1459606095,
    "latitude": 27.9937
  },
  {
    "tags": [
      {
        "type": 2,
        "value": "评分：-"
      }
    ],
    "orgName": "耐思篮球馆",
    "mtId": 778984491,
    "phone": "13957747260",
    "desc": "营业时间：周一至周日 10:00-22:00",
    "areaCode": "330304",
    "longitude": 120.5393,
    "note": "",
    "orgAddr": "瓯海区国际真皮大世界A5-305三楼",
    "score": 0,
    "orgId": 778984491,
    "latitude": 27.9908
  },
  {
    "tags": [
      {
        "type": 2,
        "value": "评分：-"
      }
    ],
    "orgName": "东方启明星篮球",
    "mtId": 881814896,
    "phone": "15669895595",
    "desc": "营业时间：周一至周日 10:00-22:30",
    "areaCode": "330324",
    "longitude": 120.6399,
    "note": "",
    "orgAddr": "永嘉县江北街瓯北城市新区医院西门斜对面",
    "score": 0,
    "orgId": 881814896,
    "latitude": 28.0505
  },
  {
    "tags": [
      {
        "type": 2,
        "value": "评分：-"
      }
    ],
    "orgName": "美职篮篮球馆",
    "mtId": 76474578,
    "phone": "15088912345",
    "desc": "营业时间：周一至周日 09:00-21:00",
    "areaCode": "330302",
    "longitude": 120.6143,
    "note": "",
    "orgAddr": "鹿城区温金公路80号三幢二楼",
    "score": 0,
    "orgId": 76474578,
    "latitude": 28.0173
  },
  {
    "tags": [
      {
        "type": 2,
        "value": "评分：3.0"
      }
    ],
    "orgName": "九羊体育",
    "mtId": 570723680,
    "phone": "13587539988",
    "desc": "营业时间：周一至周日 10:00-22:00",
    "areaCode": "330382",
    "longitude": 120.9853,
    "note": "",
    "orgAddr": "乐清市纬十路313号",
    "score": 3,
    "orgId": 570723680,
    "latitude": 28.0631
  },
  {
    "tags": [
      {
        "type": 2,
        "value": "评分：-"
      }
    ],
    "orgName": "曼巴篮球馆",
    "mtId": 1912428271,
    "phone": "",
    "desc": "营业时间：",
    "areaCode": "330381",
    "longitude": 120.6661,
    "note": "",
    "orgAddr": "瑞安市瑞温路506号最里面",
    "score": 0,
    "orgId": 1912428271,
    "latitude": 27.7849
  }
]
