[
  {
    "tags": [
      {
        "type": 2,
        "value": "评分：4.2"
      }
    ],
    "orgAddr": "新吴区太湖大道与华夏路交叉口",
    "mtId": 4640859,
    "phone": "0510-82131303/18262263263",
    "desc": "营业时间：周一至周日 08:30-22:00",
    "areaCode": "320214",
    "longitude": 120.3472,
    "note": "",
    "orgName": "CD恒温篮球馆（新区店）",
    "score": 4.2,
    "orgId": 4640859,
    "latitude": 31.5722
  },
  {
    "tags": [
      {
        "type": 2,
        "value": "评分：3.2"
      }
    ],
    "orgAddr": "滨湖区蠡溪路484-2号",
    "mtId": 114348585,
    "phone": "0510-82131303/18036001910",
    "desc": "营业时间：周一至周日 09:00-22:00",
    "areaCode": "320211",
    "longitude": 120.2609,
    "note": "¥25起，单人空调恒温篮球畅打-¥25，双人空调恒温篮球畅打-¥50，羽毛球培训课程-¥299，羽毛球体验课-¥39.9",
    "orgName": "CD恒温篮球馆（蠡溪路家乐福店）",
    "score": 3.2,
    "orgId": 114348585,
    "latitude": 31.5502
  },
  {
    "tags": [
      {
        "type": 2,
        "value": "评分：4.6"
      }
    ],
    "orgAddr": "锡山区锡山开发区春雷路1号",
    "mtId": 766863713,
    "phone": "18136055947/15106180609",
    "desc": "营业时间：周一至周日 07:00-22:00",
    "areaCode": "320205",
    "longitude": 120.3915,
    "note": "¥9.9起，篮球单人全天不限时畅打券-¥20，篮球半场包场-¥260，青少儿篮球兴趣-¥9.9",
    "orgName": "云林一号球馆",
    "score": 4.6,
    "orgId": 766863713,
    "latitude": 31.6015
  },
  {
    "tags": [
      {
        "type": 2,
        "value": "评分：3.3"
      },
      {
        "type": 1,
        "value": "室内"
      },
      {
        "type": 1,
        "value": "木质地板"
      }
    ],
    "orgAddr": "新吴区1969创意街区8号",
    "mtId": 1883730307,
    "phone": "17505102887/0510-85161598",
    "desc": "营业时间：周一至周日 09:00-22:00",
    "areaCode": "320214",
    "longitude": 120.3455,
    "note": "¥25起，篮球畅打券-¥25，包场券（半场）-¥300，包场券（全场）-¥600",
    "orgName": "鑫空·路人王篮球公园（新区店）",
    "score": 3.3,
    "orgId": 1883730307,
    "latitude": 31.5717
  },
  {
    "tags": [
      {
        "type": 2,
        "value": "评分：3.7"
      }
    ],
    "orgAddr": "梁溪区会岸路与金山三支路交叉口",
    "mtId": 80521012,
    "phone": "18262263263",
    "desc": "营业时间：周一至周日 08:30-22:00",
    "areaCode": "320213",
    "longitude": 120.2527,
    "note": "",
    "orgName": "CD篮球馆（山北店）",
    "score": 3.7,
    "orgId": 80521012,
    "latitude": 31.6173
  },
  {
    "tags": [
      {
        "type": 2,
        "value": "评分：3.7"
      },
      {
        "type": 1,
        "value": "室内"
      },
      {
        "type": 1,
        "value": "木质地板"
      }
    ],
    "orgAddr": "梁溪区通江街道兴源北路802号",
    "mtId": 195415138,
    "phone": "0510-88558926",
    "desc": "营业时间：周一至周日 09:00-22:00",
    "areaCode": "320213",
    "longitude": 120.3009,
    "note": "",
    "orgName": "荡客部落体育兴源篮球公园",
    "score": 3.7,
    "orgId": 195415138,
    "latitude": 31.5877
  },
  {
    "tags": [
      {
        "type": 2,
        "value": "评分：3.2"
      }
    ],
    "orgAddr": "新吴区珠江路10号",
    "mtId": 160503659,
    "phone": "18262263263",
    "desc": "营业时间：周一至周日 08:00-22:00",
    "areaCode": "320214",
    "longitude": 120.3513,
    "note": "",
    "orgName": "CD恒温篮球馆（宝龙店）",
    "score": 3.2,
    "orgId": 160503659,
    "latitude": 31.5364
  },
  {
    "tags": [
      {
        "type": 2,
        "value": "评分：4.3"
      }
    ],
    "orgAddr": "新吴区太湖大道与江海东路交叉口（南方南路与南方中路交口原老的南方不锈钢市场城）",
    "mtId": 40713688,
    "phone": "0510-85333222",
    "desc": "营业时间：周一至周日 09:00-22:00",
    "areaCode": "320214",
    "longitude": 120.3467,
    "note": "",
    "orgName": "南方球馆",
    "score": 4.3,
    "orgId": 40713688,
    "latitude": 31.572
  },
  {
    "tags": [
      {
        "type": 2,
        "value": "评分：4.2"
      }
    ],
    "orgAddr": "滨湖区梁溪路35号万达广场F1层",
    "mtId": 693401894,
    "phone": "18205037045",
    "desc": "营业时间：周一至周日 10:00-21:00",
    "areaCode": "320211",
    "longitude": 120.2662,
    "note": "¥1起，鑫空篮球启蒙级（4-6岁）2节课-¥31.5，鑫空篮球提高级（10-12岁）1节-¥1，代金券-¥99，鑫空基础级（8-10岁）1节-¥1",
    "orgName": "鑫空篮球馆（万达店）",
    "score": 4.2,
    "orgId": 693401894,
    "latitude": 31.5624
  },
  {
    "tags": [
      {
        "type": 2,
        "value": "评分：4.5"
      },
      {
        "type": 1,
        "value": "有充电宝"
      },
      {
        "type": 1,
        "value": "有卫生间"
      },
      {
        "type": 1,
        "value": "无烟环境"
      },
      {
        "type": 1,
        "value": "免费WiFi"
      }
    ],
    "orgAddr": "梁溪区五洲银河城",
    "mtId": 1583370717,
    "phone": "4001016029-8561",
    "desc": "营业时间：周一至周日 08:30-21:00",
    "areaCode": "320213",
    "longitude": 120.3281,
    "note": "¥1起，室内1对1篮球培训3课时(私人定制)-¥500，耀动篮球奔跑级（8-10岁）1节-¥9.9，耀动篮球成长级（10-12岁）1节-¥9.9，耀动篮球飞跃级（12岁以上）1节-¥9.9，耀动定制篮球收纳袋1个（仅限老生）-¥1，1小时羽毛球畅打券-¥39.9，2小时羽毛球畅打券-¥69.9，李宁定制球衣1套（限新生）-¥58，任意一节-¥99，体测-¥9.9",
    "orgName": "耀动篮球银河运动馆（广益店）",
    "score": 4.5,
    "orgId": 1583370717,
    "latitude": 31.5933
  },
  {
    "tags": [
      {
        "type": 2,
        "value": "评分：4.5"
      }
    ],
    "orgAddr": "江阴市果园路8-1(不接待散客打球)（威迈篮球公园）",
    "mtId": 1010301549,
    "phone": "4000303096-09683",
    "desc": "营业时间：周一至周日 09:30-21:30",
    "areaCode": "320281",
    "longitude": 120.3067,
    "note": "¥1起，【13-16精英】篮球技能提升课-¥12.9，【私教】1对1篮球定制课-¥400，【10-13精品】篮球技能运用课-¥9.9，室内小班篮球培训1课时(年龄3-6)-¥9.9，【7-9基础】篮球常规课-¥1，【全龄段】篮球启蒙线下体验课-¥9.9，代金券-¥9.9",
    "orgName": "吾畏篮球培训（威漫校区）",
    "score": 4.5,
    "orgId": 1010301549,
    "latitude": 31.8916
  },
  {
    "tags": [
      {
        "type": 2,
        "value": "评分：4.2"
      }
    ],
    "orgName": "鑫空时代篮球培训（华润万家店）",
    "mtId": 1439514470,
    "phone": "13861692048/13148370352",
    "desc": "营业时间：周一至周日 08:00-21:00",
    "areaCode": "320211",
    "longitude": 120.2842,
    "note": "¥1起，鑫空篮球启蒙级（4-6岁）2节课-¥31.5，鑫空篮球提高级（10-12岁）1节-¥1，鑫空基础级（8-10岁）1节-¥1",
    "orgAddr": "滨湖区万顺路51号华润万家F3层",
    "score": 4.2,
    "orgId": 1439514470,
    "latitude": 31.5005
  },
  {
    "tags": [
      {
        "type": 2,
        "value": "评分：4.0"
      },
      {
        "type": 1,
        "value": "室内泳池"
      },
      {
        "type": 1,
        "value": "恒温泳池"
      },
      {
        "type": 1,
        "value": "有淋浴间"
      },
      {
        "type": 1,
        "value": "有救生设备"
      },
      {
        "type": 1,
        "value": "有浅水区"
      },
      {
        "type": 1,
        "value": "泳池25×20米"
      },
      {
        "type": 1,
        "value": "体育馆泳池"
      },
      {
        "type": 1,
        "value": "独立游泳馆"
      },
      {
        "type": 1,
        "value": "有充电宝"
      },
      {
        "type": 1,
        "value": "无烟环境"
      },
      {
        "type": 1,
        "value": "有休息区"
      },
      {
        "type": 1,
        "value": "独立更衣室"
      },
      {
        "type": 1,
        "value": "免费储物柜"
      },
      {
        "type": 1,
        "value": "免费茶水"
      },
      {
        "type": 1,
        "value": "全年开放"
      },
      {
        "type": 1,
        "value": "免费WiFi"
      }
    ],
    "orgName": "AEBOX耐克运动营（太湖新城体育公园店）",
    "mtId": 1592714289,
    "phone": "4006668607",
    "desc": "营业时间：周一至周日 09:00-21:30",
    "areaCode": "320211",
    "longitude": 120.3199,
    "note": "¥1起，【波普篮球场】室外单人单次畅打-¥18.8，【波普篮球场】室外单人年卡畅打-¥980，【包场】室内明星篮球馆-¥1",
    "orgAddr": "滨湖区和风路200号",
    "score": 4,
    "orgId": 1592714289,
    "latitude": 31.4796
  },
  {
    "tags": [
      {
        "type": 2,
        "value": "评分：4.5"
      },
      {
        "type": 1,
        "value": "有卫生间"
      },
      {
        "type": 1,
        "value": "免费WiFi"
      }
    ],
    "orgName": "聚梦篮球学院（海岸城校区）",
    "mtId": 1042932066,
    "phone": "4000303096-08970",
    "desc": "营业时间：周一,周三至周日 09:00-22:00",
    "areaCode": "320211",
    "longitude": 120.2964,
    "note": "¥1起，萌星【年龄4-6】1节篮球课-¥9.9，小萌星【年龄3-4】1次篮球课-¥9.9，基础【年龄7-13】1节篮球课-¥9.9，【全级别】2节篮球课-¥79.9，强化【年龄13及以上】1节篮球课-¥9.9，特训级别（高阶技术）单节-¥9.9，私人定制-¥500，私教级（全年龄段）体测-¥1，定制训练-¥1000",
    "orgAddr": "滨湖区经济开发区方庙路35号",
    "score": 4.5,
    "orgId": 1042932066,
    "latitude": 31.486
  },
  {
    "tags": [
      {
        "type": 2,
        "value": "评分：5.0"
      },
      {
        "type": 1,
        "value": "有充电宝"
      },
      {
        "type": 1,
        "value": "有卫生间"
      },
      {
        "type": 1,
        "value": "无烟环境"
      },
      {
        "type": 1,
        "value": "免费WiFi"
      }
    ],
    "orgName": "耀动篮球（万象城训练营）",
    "mtId": 90731681,
    "phone": "4001016029-8560",
    "desc": "营业时间：周一至周日 08:30-21:00",
    "areaCode": "320211",
    "longitude": 120.2859,
    "note": "¥1起，耀动篮球任意级别体验课1节-¥9.9，耀动篮球成长级（10-12岁）1节-¥9.9，耀动篮球奔跑级（8-10岁）1节-¥9.9，耀动篮球飞跃级（12岁以上）1节-¥9.9，耀动定制篮球收纳袋1个（仅限老生）-¥1，李宁定制球衣1套（限新生）-¥58，任意一节-¥99，体测-¥9.9",
    "orgAddr": "滨湖区周新西路太湖国际公园耀动体育万象城文体中心（香缇美郡旁）",
    "score": 5,
    "orgId": 90731681,
    "latitude": 31.5068
  },
  {
    "tags": [
      {
        "type": 2,
        "value": "评分：4.9"
      },
      {
        "type": 1,
        "value": "有充电宝"
      },
      {
        "type": 1,
        "value": "有卫生间"
      },
      {
        "type": 1,
        "value": "无烟环境"
      },
      {
        "type": 1,
        "value": "免费WiFi"
      }
    ],
    "orgName": "耀动篮球（体育公园训练营）",
    "mtId": 1043230968,
    "phone": "4001016029-8562",
    "desc": "营业时间：周一至周日 08:30-21:00",
    "areaCode": "320213",
    "longitude": 120.2969,
    "note": "¥1起，耀动篮球任意级别体验课1节-¥9.9，耀动篮球成长级（10-12岁）1节-¥9.9，耀动篮球奔跑级（8-10岁）1节-¥9.9，耀动定制篮球收纳袋1个（仅限老生）-¥1，耀动篮球飞跃级（12岁以上）1节-¥9.9，任意一节-¥99，李宁定制球衣1套（限新生）-¥58，体测-¥9.9",
    "orgAddr": "梁溪区惠山街道健康路105号无锡老体育场游泳馆4楼",
    "score": 4.9,
    "orgId": 1043230968,
    "latitude": 31.5665
  },
  {
    "tags": [
      {
        "type": 2,
        "value": "评分：3.4"
      },
      {
        "type": 1,
        "value": "室内"
      },
      {
        "type": 1,
        "value": "木质地板"
      }
    ],
    "orgName": "择曦体育羽毛球馆",
    "mtId": 1814751569,
    "phone": "19539949810/13033511026",
    "desc": "营业时间：周一至周日 09:00-22:00",
    "areaCode": "320213",
    "longitude": 120.3038,
    "note": "¥9.9起，工作日下午1人畅打-¥18.8，羽毛球周末白天场-¥48.8，羽毛球晚上通用1小时-¥58.8，羽毛球工作日下午场-¥35，周末羽毛球上午场-¥35.8，羽毛球早球1人-¥9.9，羽毛球工作日上午畅打1人-¥12.8",
    "orgAddr": "梁溪区苏南农副产品城北市场3楼",
    "score": 3.4,
    "orgId": 1814751569,
    "latitude": 31.6104
  },
  {
    "tags": [
      {
        "type": 2,
        "value": "评分：4.0"
      },
      {
        "type": 1,
        "value": "无烟环境"
      },
      {
        "type": 1,
        "value": "器材租赁"
      },
      {
        "type": 1,
        "value": "免费WiFi"
      }
    ],
    "orgName": "凯锐篮球训练馆（正大乐城校区）",
    "mtId": 553288787,
    "phone": "13665146156/18921528182",
    "desc": "营业时间：周一至周日 10:00-22:00",
    "areaCode": "320206",
    "longitude": 120.3158,
    "note": "¥9.9起，启蒙篮球体验课-¥60，篮球提高班体验课-¥9.9，基础篮球体验课-¥9.9，私教一对一小课包-¥699",
    "orgAddr": "惠山区绿地世纪城669号2楼",
    "score": 4,
    "orgId": 553288787,
    "latitude": 31.6635
  },
  {
    "tags": [
      {
        "type": 2,
        "value": "评分：4.5"
      },
      {
        "type": 1,
        "value": "有充电宝"
      },
      {
        "type": 1,
        "value": "有卫生间"
      },
      {
        "type": 1,
        "value": "无烟环境"
      },
      {
        "type": 1,
        "value": "免费WiFi"
      }
    ],
    "orgName": "耀动篮球（新吴区训练营）",
    "mtId": 583968836,
    "phone": "4001016029-8563",
    "desc": "营业时间：周一至周日 08:00-21:00",
    "areaCode": "320214",
    "longitude": 120.346,
    "note": "¥1起，耀动篮球任意级别体验课1节-¥9.9，室内1对1篮球培训3课时(私人定制)-¥500，耀动篮球奔跑级（8-10岁）1节-¥9.9，耀动篮球成长级（10-12岁）1节-¥9.9，耀动篮球飞跃级（12岁以上）1节-¥9.9，耀动定制篮球收纳袋1个（仅限老生）-¥1，李宁定制球衣1套（限新生）-¥58，任意一节-¥99，体测-¥9.9",
    "orgAddr": "新吴区南方中路创意街区星方羽毛球馆内",
    "score": 4.5,
    "orgId": 583968836,
    "latitude": 31.5715
  },
  {
    "tags": [
      {
        "type": 2,
        "value": "评分：-"
      },
      {
        "type": 1,
        "value": "室内"
      },
      {
        "type": 1,
        "value": "暖气"
      },
      {
        "type": 1,
        "value": "塑料地板"
      }
    ],
    "orgName": "通华球馆（小金刚篮球训练营）",
    "mtId": 1328202841,
    "phone": "15961829651",
    "desc": "营业时间：周一至周日 09:00-22:30",
    "areaCode": "320214",
    "longitude": 120.5088,
    "note": "¥13起，篮球半场（4小时）-¥190，篮球全场（4小时）-¥380，篮球散客体验券-¥13，羽毛球1小时晚上场18：00-22：30-¥35，小金刚篮球/羽毛球培训（5-15岁）1节-¥19.9，羽毛球周假/日末1小时白天场-¥25，羽毛球周一至周五白天场9：00-18：00-¥25",
    "orgAddr": "新吴区后中村环鸿东路2号",
    "score": 0,
    "orgId": 1328202841,
    "latitude": 31.4832
  },
  {
    "tags": [
      {
        "type": 2,
        "value": "评分：4.9"
      }
    ],
    "orgName": "慕尚青少年篮球培训（富力文体中心店）",
    "mtId": 1408613039,
    "phone": "4000303096-28090",
    "desc": "营业时间：周一至周日 09:00-20:30",
    "areaCode": "320214",
    "longitude": 120.3596,
    "note": "¥9.9起，篮球启蒙提高训练-¥13.9，慕尚篮球基础体验课-¥9.9，【篮球】比赛班-¥99，篮球强化训练3课时-¥60.9，慕尚精英班篮球训练-¥9.9，室内小班篮球培训1课时-¥9.9，体育专项训练-¥13.9",
    "orgAddr": "新吴区江溪路富力文体中心3楼",
    "score": 4.9,
    "orgId": 1408613039,
    "latitude": 31.5619
  },
  {
    "tags": [
      {
        "type": 2,
        "value": "评分：3.5"
      },
      {
        "type": 1,
        "value": "有储物柜"
      },
      {
        "type": 1,
        "value": "空调开放"
      },
      {
        "type": 1,
        "value": "有休息区"
      },
      {
        "type": 1,
        "value": "无烟环境"
      },
      {
        "type": 1,
        "value": "免费茶水"
      },
      {
        "type": 1,
        "value": "免费WiFi"
      }
    ],
    "orgAddr": "梁溪区中山路凤凰天街二层",
    "mtId": 1928094456,
    "phone": "4000303096-61248",
    "desc": "营业时间：周一至周日 09:00-18:00",
    "areaCode": "320213",
    "longitude": 120.2926,
    "note": "¥1起，篮球体验课-¥9.9，星教班丨7-8   篮球体验课-¥9.9，星耀班丨9-10 篮球体验课-¥1，小牛篮球/足球体验课咨询｜Age4-14-¥60，篮球体适能-¥9.9，summer camp(劵)-¥9.9",
    "orgName": "小牛体育篮球训练营（凤凰天街店）",
    "score": 3.5,
    "orgId": 1928094456,
    "latitude": 31.5896
  },
  {
    "tags": [
      {
        "type": 2,
        "value": "评分：4.4"
      },
      {
        "type": 1,
        "value": "有储物柜"
      },
      {
        "type": 1,
        "value": "有充电宝"
      },
      {
        "type": 1,
        "value": "有卫生间"
      },
      {
        "type": 1,
        "value": "无烟环境"
      },
      {
        "type": 1,
        "value": "器材租赁"
      },
      {
        "type": 1,
        "value": "免费WiFi"
      }
    ],
    "orgAddr": "锡山区安镇街道查桥商业广场澳门街6-100号",
    "mtId": 1649759519,
    "phone": "4001016029-2698",
    "desc": "营业时间：周一至周日 09:00-22:00",
    "areaCode": "320205",
    "longitude": 120.426,
    "note": "¥1起，室内小班篮球培训2课时-¥60，星教班丨7-8   篮球体验课-¥9.9，【开学季】篮球体验课-¥9.9，篮球体验课-¥9.9，星耀班丨9-10 篮球体验课-¥1，【篮球】小牛体育暑期班-¥9.9，小牛篮球/足球体验课咨询｜Age4-14-¥60，篮球体适能-¥9.9，summer camp(劵)-¥9.9",
    "orgName": "小牛体育篮球训练营（查桥馆）",
    "score": 4.4,
    "orgId": 1649759519,
    "latitude": 31.5964
  },
  {
    "tags": [
      {
        "type": 2,
        "value": "评分：4.6"
      }
    ],
    "orgAddr": "梁溪区广瑞路399号乐都汇（不接散客、不租赁）",
    "mtId": 790874786,
    "phone": "4000303096-69107",
    "desc": "营业时间：周一至周日 09:00-21:00",
    "areaCode": "320213",
    "longitude": 120.3138,
    "note": "¥9.9起，【13-14】篮球课（购买后请拨打门店电话）-¥23，【10-12】 篮球课（购买后请拨打门店电话）-¥23，【8-10】篮球课（购买后请拨打门店电话）-¥23，【5-7】篮球课（购买后请拨打门店电话）-¥23，【6-8】羽毛球课（购买后请拨打门店电话）-¥23，体测课+篮球课（购买后请拨打门店电话）-¥9.9，【11-12】羽毛球课（购买后请拨打门店电话）-¥23，【13-14】羽毛球课（购买后请拨打门店电话）-¥23，【9-10】羽毛球课（购买后请拨打门店电话）-¥23，体测课-¥910",
    "orgName": "花香盛世篮球羽毛球培训（碧乐城校区）",
    "score": 4.6,
    "orgId": 790874786,
    "latitude": 31.5884
  },
  {
    "tags": [
      {
        "type": 2,
        "value": "评分：4.1"
      },
      {
        "type": 1,
        "value": "有充电宝"
      },
      {
        "type": 1,
        "value": "有卫生间"
      }
    ],
    "orgAddr": "梁溪区兴源北路金太湖国际城一楼（兴源路入口）",
    "mtId": 839826514,
    "phone": "4000303096-05654",
    "desc": "营业时间：周一至周日 10:00-21:00",
    "areaCode": "320213",
    "longitude": 120.2888,
    "note": "¥1起，青少年1对1篮球私教-¥350，成人篮球特训班-¥180，【篮球】兴趣/基础入门体验课-¥1，室内小班篮球培训4课时-¥99，篮球球队班比赛班体验课-¥66，成人1对1 篮球私教-¥350，美式篮球技术训练体验课1节-¥9.9，2023年寒假班-¥688，体适能体验课-¥9.9",
    "orgName": "BALLZONE篮球学院（梁溪馆）",
    "score": 4.1,
    "orgId": 839826514,
    "latitude": 31.5945
  },
  {
    "tags": [
      {
        "type": 2,
        "value": "评分：3.5"
      },
      {
        "type": 1,
        "value": "有储物柜"
      },
      {
        "type": 1,
        "value": "空调开放"
      },
      {
        "type": 1,
        "value": "有休息区"
      },
      {
        "type": 1,
        "value": "有卫生间"
      },
      {
        "type": 1,
        "value": "无烟环境"
      },
      {
        "type": 1,
        "value": "免费茶水"
      },
      {
        "type": 1,
        "value": "免费WiFi"
      }
    ],
    "orgAddr": "新吴区新之城c区1楼",
    "mtId": 1792798623,
    "phone": "4000303096-02081",
    "desc": "营业时间：周六,周日 08:30-21:00  周三,周五 16:00-20:00",
    "areaCode": "320214",
    "longitude": 120.3727,
    "note": "¥1起，篮球体验课-¥9.9，星教班丨7-8   篮球体验课-¥9.9，星耀班丨9-10 篮球体验课-¥1，小牛篮球/足球体验课咨询｜Age4-14-¥60，篮球体适能-¥9.9，summer camp(劵)-¥9.9",
    "orgName": "小牛体育篮球训练营（新之城店）",
    "score": 3.5,
    "orgId": 1792798623,
    "latitude": 31.5617
  },
  {
    "tags": [
      {
        "type": 2,
        "value": "评分：3.5"
      },
      {
        "type": 1,
        "value": "有储物柜"
      },
      {
        "type": 1,
        "value": "无烟环境"
      },
      {
        "type": 1,
        "value": "免费茶水"
      },
      {
        "type": 1,
        "value": "免费WiFi"
      }
    ],
    "orgAddr": "惠山区惠山大道66号悦尚奥莱",
    "mtId": 1721249599,
    "phone": "4000303096-86478",
    "desc": "营业时间：周一至周日 10:00-22:00",
    "areaCode": "320206",
    "longitude": 120.3118,
    "note": "¥9.9起，篮球基础体验-¥68.8，篮球进阶体验-¥9.9，篮球启蒙体验-¥9.9，体适能体验课-¥9.9",
    "orgName": "小虎少儿篮球馆（奥莱校区）",
    "score": 3.5,
    "orgId": 1721249599,
    "latitude": 31.6354
  },
  {
    "tags": [
      {
        "type": 2,
        "value": "评分：4.0"
      },
      {
        "type": 1,
        "value": "可预订场地"
      },
      {
        "type": 1,
        "value": "有充电宝"
      },
      {
        "type": 1,
        "value": "有休息区"
      },
      {
        "type": 1,
        "value": "有卫生间"
      },
      {
        "type": 1,
        "value": "无烟环境"
      },
      {
        "type": 1,
        "value": "免费茶水"
      },
      {
        "type": 1,
        "value": "免费WiFi"
      }
    ],
    "orgAddr": "惠山区奥林匹克花园46-8",
    "mtId": 1841005532,
    "phone": "4000303096-56867",
    "desc": "营业时间：周一至周日 10:00-23:30",
    "areaCode": "320206",
    "longitude": 120.3104,
    "note": "¥1起，强化【年龄13及以上】1节篮球课-¥9.9，萌星【年龄4-6】1节篮球课-¥9.9，基础【年龄7-13】1节篮球课-¥9.9，【全级别】2节篮球课-¥79.9，小萌星【年龄3-4】1次篮球课-¥9.9，单次畅玩体验（不限时 加送1瓶矿泉水水）-¥19.9，特训级别（高阶技术）单节-¥9.9，私教级（全年龄段）体测-¥1，私人定制-¥500，定制训练-¥1000",
    "orgName": "聚梦篮球学院（惠山万达校区）",
    "score": 4,
    "orgId": 1841005532,
    "latitude": 31.6775
  },
  {
    "tags": [
      {
        "type": 2,
        "value": "评分：3.5"
      },
      {
        "type": 1,
        "value": "有储物柜"
      },
      {
        "type": 1,
        "value": "无烟环境"
      },
      {
        "type": 1,
        "value": "器材租赁"
      },
      {
        "type": 1,
        "value": "免费WiFi"
      }
    ],
    "orgAddr": "新吴区新友北路8号(锡义路与新友路交汇处)梅村五洲国际广场B1（不接散客）",
    "mtId": 1410217865,
    "phone": "4000303096-28948",
    "desc": "营业时间：周一至周日 10:00-21:00",
    "areaCode": "320214",
    "longitude": 120.442,
    "note": "¥1起，【9-13age岁】篮球课（购买后请拨打门店电话）-¥1，【6-16age岁】篮球课（购买后请拨打门店电话）-¥99，【4-6age】篮球课（购买后请拨打门店电话）-¥1，【7-9age岁】篮球课（购买后请拨打门店电话）-¥1，小牛篮球/足球体验课咨询｜Age4-14-¥60，开学季优惠-¥1，【6-16age】专业体侧（购买后请拨打门店电话）-¥39.9，summer camp(劵)-¥9.9",
    "orgName": "小牛体育篮球训练营（梅村五洲国际店）",
    "score": 3.5,
    "orgId": 1410217865,
    "latitude": 31.546
  },
  {
    "tags": [
      {
        "type": 2,
        "value": "评分：5.0"
      },
      {
        "type": 1,
        "value": "免费WiFi"
      },
      {
        "type": 1,
        "value": "免费停车"
      }
    ],
    "orgAddr": "滨湖区隐秀路与太湖大道交叉口南100米（不接散客、不租赁）",
    "mtId": 1915025226,
    "phone": "4000303096-58964",
    "desc": "营业时间：周一至周日 09:00-21:00",
    "areaCode": "320211",
    "longitude": 120.2582,
    "note": "¥9.9起，【5-7】篮球课（购买后请拨打门店电话）-¥23，【13-14】篮球课（购买后请拨打门店电话）-¥23，【8-10】篮球课（购买后请拨打门店电话）-¥23，【10-12】 篮球课（购买后请拨打门店电话）-¥23，【6-8】羽毛球课（购买后请拨打门店电话）-¥23，【9-10】羽毛球课（购买后请拨打门店电话）-¥23，体测课+篮球课（购买后请拨打门店电话）-¥9.9，【11-12】羽毛球课（购买后请拨打门店电话）-¥23，体测课-¥910，【13-14】羽毛球课（购买后请拨打门店电话）-¥23",
    "orgName": "花香盛世篮球羽毛球培训（滨湖校区）",
    "score": 5,
    "orgId": 1915025226,
    "latitude": 31.5393
  },
  {
    "tags": [
      {
        "type": 2,
        "value": "评分：3.0"
      },
      {
        "type": 1,
        "value": "有储物柜"
      },
      {
        "type": 1,
        "value": "上门授课"
      }
    ],
    "orgAddr": "梁溪区民丰路200号锋尚文化中心A座4楼",
    "mtId": 1982608964,
    "phone": "4000303096-40648",
    "desc": "营业时间：周一至周日 09:00-21:00",
    "areaCode": "320213",
    "longitude": 120.2903,
    "note": "¥9.9起，坐标篮球体验课-¥9.9，坐标幼儿篮球体验课-¥9.9",
    "orgName": "坐标体育（民丰馆）",
    "score": 3,
    "orgId": 1982608964,
    "latitude": 31.6054
  },
  {
    "tags": [
      {
        "type": 2,
        "value": "评分：4.1"
      }
    ],
    "orgName": "耘动空间·耘林鑫空篮球馆",
    "mtId": 636767817,
    "phone": "13771429500",
    "desc": "营业时间：周一至周日 10:00-21:00",
    "areaCode": "320211",
    "longitude": 120.2918,
    "note": "",
    "orgAddr": "滨湖区经开区贡湖大道207号耘林阅府L3",
    "score": 4.1,
    "orgId": 636767817,
    "latitude": 31.5343
  },
  {
    "tags": [
      {
        "type": 2,
        "value": "评分：-"
      }
    ],
    "orgName": "BOB运动街区·篮球·健身·游泳",
    "mtId": 1782437505,
    "phone": "0510-88600062/18800540155",
    "desc": "营业时间：周一至周日 10:00-22:00",
    "areaCode": "320214",
    "longitude": 120.3595,
    "note": "¥12.8起，畅打~過招室外篮球场-¥12.8，次卡~過招室外篮球场-¥100，次卡~過招室外篮球场-¥200，周末畅打—室内A级木地板-¥30，体验~普拉提一对一私教-¥99",
    "orgAddr": "新吴区富力城星光里s4一楼",
    "score": 0,
    "orgId": 1782437505,
    "latitude": 31.562
  },
  {
    "tags": [
      {
        "type": 2,
        "value": "评分：4.4"
      },
      {
        "type": 1,
        "value": "免费茶水"
      }
    ],
    "orgName": "HOBBOR篮球培训中心（安镇润发购物广场店）",
    "mtId": 1605687785,
    "phone": "4000303096-18052",
    "desc": "营业时间：周二至周五 14:00-20:30  周六,周日 09:00-20:30",
    "areaCode": "320205",
    "longitude": 120.4703,
    "note": "¥8.88起，【特惠】2节篮球课-¥50，【2节课+送篮球】零基础篮球课-¥68，【年龄4-6】1节篮球课-¥8.88，【年龄7-9】1节篮球课-¥8.88",
    "orgAddr": "锡山区锡沪路与润锡北路交叉口润发购物中心一楼L127-L128",
    "score": 4.4,
    "orgId": 1605687785,
    "latitude": 31.6052
  },
  {
    "tags": [
      {
        "type": 2,
        "value": "评分：4.5"
      },
      {
        "type": 1,
        "value": "免费茶水"
      },
      {
        "type": 1,
        "value": "免费WiFi"
      }
    ],
    "orgName": "唯玩星球少儿篮球馆（梁溪店）",
    "mtId": 1392240087,
    "phone": "18800561311",
    "desc": "营业时间：周二至周日 10:00-20:00",
    "areaCode": "320213",
    "longitude": 120.2983,
    "note": "¥19.9起，6-8篮球体验课2节-¥29.9，8-12篮球体验课2节（购买即可约课）-¥29.9，暑期篮球训练营-¥1199，4-6篮球体验课2节（购买即约课）-¥29.9，篮球体验课1节（购买即可约课）-¥19.9，跳绳基础课-¥998",
    "orgAddr": "梁溪区中山路茂业时代广场5楼唯玩星球",
    "score": 4.5,
    "orgId": 1392240087,
    "latitude": 31.5836
  },
  {
    "tags": [
      {
        "type": 2,
        "value": "评分：3.5"
      }
    ],
    "orgName": "乐动彗星少儿运动馆",
    "mtId": 1828078521,
    "phone": "4000303096-87565",
    "desc": "营业时间：周六,周日 08:30-21:00  周二至周五 12:00-20:30",
    "areaCode": "320206",
    "longitude": 120.1906,
    "note": "¥29.9起，乐动彗星篮球启蒙班【4-7】-¥29.9，乐动彗星篮球基础营【9-12】-¥29.9，乐动彗星篮球基础营【7-9】-¥29.9，乐动彗星跳绳课-¥29.9，乐动彗星1对1进阶课程-¥200",
    "orgAddr": "惠山区洛社镇中兴东路818号",
    "score": 3.5,
    "orgId": 1828078521,
    "latitude": 31.6444
  },
  {
    "tags": [
      {
        "type": 2,
        "value": "评分：4.6"
      },
      {
        "type": 1,
        "value": "空调开放"
      },
      {
        "type": 1,
        "value": "有休息区"
      },
      {
        "type": 1,
        "value": "无烟环境"
      },
      {
        "type": 1,
        "value": "免费茶水"
      },
      {
        "type": 1,
        "value": "免费WiFi"
      }
    ],
    "orgName": "杜特体育青少年篮球培训（湖滨壹号店）",
    "mtId": 1889461765,
    "phone": "4000303096-63980",
    "desc": "营业时间：周一至周日 08:00-22:00",
    "areaCode": "320211",
    "longitude": 120.2699,
    "note": "¥9.9起，幼儿篮球体验课1节-¥9.9，青训篮球体验课1节-¥9.9，启蒙篮球体验课1节-¥9.9，精英篮球体验课1节-¥9.9",
    "orgAddr": "滨湖区老湖滨路常庆广场新橙源味超市一楼",
    "score": 4.6,
    "orgId": 1889461765,
    "latitude": 31.532
  },
  {
    "tags": [
      {
        "type": 2,
        "value": "评分：-"
      },
      {
        "type": 1,
        "value": "有储物柜"
      },
      {
        "type": 1,
        "value": "有淋浴间"
      },
      {
        "type": 1,
        "value": "有卫生间"
      },
      {
        "type": 1,
        "value": "免费茶水"
      },
      {
        "type": 1,
        "value": "器材租赁"
      },
      {
        "type": 1,
        "value": "免费WiFi"
      }
    ],
    "orgName": "榜样体育·篮球羽毛球培训中心",
    "mtId": 599938389,
    "phone": "4000303096-67580",
    "desc": "营业时间：周一至周日 08:00-22:00",
    "areaCode": "320281",
    "longitude": 120.3193,
    "note": "¥9.9起，极风篮球7-9征途班体验课-¥9.9，极风篮球4-6启点班体验课-¥9.9，篮球地胶半场场地券2小时-¥180，篮球地板半场场地券2小时-¥280，极风篮球10-12飞越班体验课-¥9.9，羽毛球白天场地券1小时-¥40，羽扬羽球7-9丰羽班体验课-¥9.9，羽扬羽球成人1对1私教-¥300，羽扬羽球4-6萌芽班体验课-¥9.9，羽扬羽球10-12旗帜班体验课-¥9.9",
    "orgAddr": "江阴市新园路3号25号门",
    "score": 0,
    "orgId": 599938389,
    "latitude": 31.9025
  },
  {
    "tags": [
      {
        "type": 2,
        "value": "评分：3.0"
      }
    ],
    "orgName": "热火篮球训练营",
    "mtId": 1061419270,
    "phone": "15949243380/15995215705",
    "desc": "营业时间：周六,周日 09:30-20:30  周一至周五 13:00-21:00",
    "areaCode": "320205",
    "longitude": 120.3739,
    "note": "",
    "orgAddr": "锡山区二泉东路蓝1956科技文化创业园",
    "score": 3,
    "orgId": 1061419270,
    "latitude": 31.5877
  },
  {
    "tags": [
      {
        "type": 2,
        "value": "评分：3.0"
      },
      {
        "type": 1,
        "value": "有储物柜"
      },
      {
        "type": 1,
        "value": "免费WiFi"
      }
    ],
    "orgName": "耀动篮球（天一馆）",
    "mtId": 192033709,
    "phone": "4001867267",
    "desc": "营业时间：周一至周四 全天",
    "areaCode": "320205",
    "longitude": 120.3672,
    "note": "",
    "orgAddr": "锡山区友谊中路99号天一体育馆内",
    "score": 3,
    "orgId": 192033709,
    "latitude": 31.5934
  },
  {
    "tags": [
      {
        "type": 2,
        "value": "评分：4.5"
      },
      {
        "type": 1,
        "value": "有储物柜"
      },
      {
        "type": 1,
        "value": "空调开放"
      },
      {
        "type": 1,
        "value": "可预订场地"
      },
      {
        "type": 1,
        "value": "有充电宝"
      },
      {
        "type": 1,
        "value": "有休息区"
      },
      {
        "type": 1,
        "value": "有卫生间"
      },
      {
        "type": 1,
        "value": "无烟环境"
      },
      {
        "type": 1,
        "value": "免费茶水"
      },
      {
        "type": 1,
        "value": "免费WiFi"
      }
    ],
    "orgName": "飞扬时光儿童运动馆（汇普金融大厦店）",
    "mtId": 193428195,
    "phone": "4000303096-25185",
    "desc": "营业时间：周二至周日 10:00-20:00",
    "areaCode": "320213",
    "longitude": 120.3249,
    "note": "¥19.9起，趣味篮球体验课-¥39",
    "orgAddr": "梁溪区金匮街道通扬南路251号美豪酒店三楼",
    "score": 4.5,
    "orgId": 193428195,
    "latitude": 31.5426
  },
  {
    "tags": [
      {
        "type": 2,
        "value": "评分：3.5"
      },
      {
        "type": 1,
        "value": "免费WiFi"
      }
    ],
    "orgAddr": "滨湖区八方汇58栋3楼",
    "mtId": 1228191637,
    "phone": "4000303096-87438",
    "desc": "营业时间：周一至周日 10:00-22:00",
    "areaCode": "320211",
    "longitude": 120.2993,
    "note": "¥9.9起，超能篮球小班制课程一节-¥9.9，室内小班篮球培训4课时-¥580，室内小班篮球培训8课时-¥1200，趣味体适能+启蒙篮球课 各1节-¥99",
    "orgName": "超能星球少儿运动馆",
    "score": 3.5,
    "orgId": 1228191637,
    "latitude": 31.4898
  },
  {
    "tags": [
      {
        "type": 2,
        "value": "评分：4.0"
      }
    ],
    "orgAddr": "梁溪区兴源北路802号（荡客部落球馆内  2楼）",
    "mtId": 1951898115,
    "phone": "4000303096-34208",
    "desc": "营业时间：周一至周日 09:00-11:00 16:30-18:30",
    "areaCode": "320213",
    "longitude": 120.301,
    "note": "¥9.9起，慕尚精英班篮球训练-¥9.9，室内小班篮球培训1课时-¥9.9，慕尚篮球基础体验课-¥9.9，篮球强化训练3课时-¥60.9，体育专项训练-¥13.9，篮球启蒙提高训练-¥13.9，【篮球】比赛班-¥99",
    "orgName": "慕尚青少年篮球培训（火车站分校）",
    "score": 4,
    "orgId": 1951898115,
    "latitude": 31.5875
  },
  {
    "tags": [
      {
        "type": 2,
        "value": "评分：-"
      }
    ],
    "orgAddr": "宜兴市新官西路156号",
    "mtId": 1207983117,
    "phone": "4000303096-28475",
    "desc": "营业时间：周六,周日 09:00-21:30  周一至周五 13:00-21:30",
    "areaCode": "320282",
    "longitude": 119.71,
    "note": "¥1起，篮球单次门票-¥11.8，培训-¥98，篮球散客月卡-¥100",
    "orgName": "飞弘体育羽毛球馆（官林店）",
    "score": 0,
    "orgId": 1207983117,
    "latitude": 31.5018
  },
  {
    "tags": [
      {
        "type": 2,
        "value": "评分：4.6"
      },
      {
        "type": 1,
        "value": "有充电宝"
      }
    ],
    "orgAddr": "新吴区南方大道1034号1969创意园（不接散客、不租赁）",
    "mtId": 1422060468,
    "phone": "4000303096-04974",
    "desc": "营业时间：周一至周日 09:00-21:00",
    "areaCode": "320214",
    "longitude": 120.3452,
    "note": "¥23起",
    "orgName": "花香盛世羽毛球培训（李宁校区）",
    "score": 4.6,
    "orgId": 1422060468,
    "latitude": 31.5733
  },
  {
    "tags": [
      {
        "type": 2,
        "value": "评分：4.7"
      },
      {
        "type": 1,
        "value": "有储物柜"
      },
      {
        "type": 1,
        "value": "免费WiFi"
      }
    ],
    "orgAddr": "新吴区旺庄路宝龙广场新区百盛三楼（靠近李宁）",
    "mtId": 1582852702,
    "phone": "4000303096-14934",
    "desc": "营业时间：周三至周五 13:30-20:30  周六,周日 09:00-20:30",
    "areaCode": "320214",
    "longitude": 120.3521,
    "note": "¥9.9起，80分钟 篮球体验课-¥9.9，室内小班篮球培训5课时-¥499",
    "orgName": "唯玩星球少儿篮球运动馆（新吴百盛校区）",
    "score": 4.7,
    "orgId": 1582852702,
    "latitude": 31.5408
  },
  {
    "tags": [
      {
        "type": 2,
        "value": "评分：4.1"
      }
    ],
    "orgAddr": "新吴区金城东路居然之家家居生活MALL三楼",
    "mtId": 1212416591,
    "phone": "18114858552",
    "desc": "营业时间：周一至周日 08:00-22:00",
    "areaCode": "320214",
    "longitude": 120.3537,
    "note": "",
    "orgName": "BALLZONE篮球学院（新区店）",
    "score": 4.1,
    "orgId": 1212416591,
    "latitude": 31.5622
  },
  {
    "tags": [
      {
        "type": 2,
        "value": "评分：3.5"
      },
      {
        "type": 1,
        "value": "有储物柜"
      },
      {
        "type": 1,
        "value": "上门授课"
      }
    ],
    "orgAddr": "梁溪区青年路9号青少年活动中心7楼",
    "mtId": 164496872,
    "phone": "4000303096-30843",
    "desc": "营业时间：周一至周日 09:00-20:00",
    "areaCode": "320213",
    "longitude": 120.3043,
    "note": "¥1起，篮球启蒙课-¥1，坐标篮球体验课-¥9.9，坐标幼儿篮球体验课-¥9.9",
    "orgName": "坐标体育·青少年活动中心馆",
    "score": 3.5,
    "orgId": 164496872,
    "latitude": 31.5469
  },
  {
    "tags": [
      {
        "type": 2,
        "value": "评分：3.0"
      },
      {
        "type": 1,
        "value": "有储物柜"
      },
      {
        "type": 1,
        "value": "免费WiFi"
      }
    ],
    "orgAddr": "滨湖区运河外滩M栋3楼",
    "mtId": 1931210723,
    "phone": "18552418861",
    "desc": "营业时间：周二至周日 10:00-20:00",
    "areaCode": "320211",
    "longitude": 120.2855,
    "note": "",
    "orgName": "艾伦篮球运动馆",
    "score": 3,
    "orgId": 1931210723,
    "latitude": 31.5539
  },
  {
    "tags": [
      {
        "type": 2,
        "value": "评分：4.7"
      },
      {
        "type": 1,
        "value": "有储物柜"
      },
      {
        "type": 1,
        "value": "有卫生间"
      },
      {
        "type": 1,
        "value": "无烟环境"
      },
      {
        "type": 1,
        "value": "免费茶水"
      },
      {
        "type": 1,
        "value": "免费WiFi"
      }
    ],
    "orgAddr": "惠山区锦绣路惠山时代广场7号楼106-208",
    "mtId": 630566964,
    "phone": "4000303096-41426",
    "desc": "营业时间：周一至周日 10:00-22:00",
    "areaCode": "320206",
    "longitude": 120.295,
    "note": "¥9.9起，篮球体适能-¥59，篮球会员卡-¥99",
    "orgName": "SUPERKID儿童运动馆",
    "score": 4.7,
    "orgId": 630566964,
    "latitude": 31.6789
  },
  {
    "tags": [
      {
        "type": 2,
        "value": "评分：-"
      }
    ],
    "orgAddr": "江阴市梅园大街与芙蓉大道交叉口西北侧200米",
    "mtId": 745381495,
    "phone": "4000303096-07313",
    "desc": "营业时间：周一至周日 09:00-21:00",
    "areaCode": "320281",
    "longitude": 120.2648,
    "note": "¥1起，代金券-¥9.9，【全龄段】篮球启蒙线下体验课-¥9.9，室内小班篮球培训1课时(年龄3-6)-¥9.9，【7-9基础】篮球常规课-¥1，【10-13精品】篮球技能运用课-¥9.9，【13-16精英】篮球技能提升课-¥12.9，【私教】1对1篮球定制课-¥400",
    "orgName": "吾畏篮球培训（锡澄运河校区）",
    "score": 0,
    "orgId": 745381495,
    "latitude": 31.8839
  },
  {
    "tags": [
      {
        "type": 2,
        "value": "评分：-"
      }
    ],
    "orgName": "零度篮球馆",
    "mtId": 577518233,
    "phone": "15021052468",
    "desc": "营业时间：周一至周日 09:00-22:00",
    "areaCode": "320214",
    "longitude": 120.3595,
    "note": "¥9.9起，【爆款】单人畅打券-¥9.9",
    "orgAddr": "新吴区江溪街道",
    "score": 0,
    "orgId": 577518233,
    "latitude": 31.5619
  },
  {
    "tags": [
      {
        "type": 2,
        "value": "评分：3.5"
      },
      {
        "type": 1,
        "value": "有储物柜"
      },
      {
        "type": 1,
        "value": "有充电宝"
      },
      {
        "type": 1,
        "value": "有卫生间"
      },
      {
        "type": 1,
        "value": "无烟环境"
      },
      {
        "type": 1,
        "value": "免费茶水"
      },
      {
        "type": 1,
        "value": "免费WiFi"
      }
    ],
    "orgName": "无畏少儿篮球（居然之家店）",
    "mtId": 1242237575,
    "phone": "4000303096-38496",
    "desc": "营业时间：周二至周日 09:30-21:00",
    "areaCode": "320214",
    "longitude": 120.3535,
    "note": "¥1起，【篮球】中大班体验课-¥9.9，【篮球】U7-U12体验课-¥9.9，【篮球】初级阶段体验课-¥9.9，【新客专享】篮球体验课-¥9.9，【无畏篮球】联赛、比赛咨询-¥1",
    "orgAddr": "新吴区居然之家3楼",
    "score": 3.5,
    "orgId": 1242237575,
    "latitude": 31.5624
  },
  {
    "tags": [
      {
        "type": 2,
        "value": "评分：-"
      },
      {
        "type": 1,
        "value": "上门授课"
      },
      {
        "type": 1,
        "value": "可预订场地"
      },
      {
        "type": 1,
        "value": "有休息区"
      },
      {
        "type": 1,
        "value": "有卫生间"
      },
      {
        "type": 1,
        "value": "器材租赁"
      },
      {
        "type": 1,
        "value": "付费停车"
      }
    ],
    "orgName": "余梦体育羽毛球篮球培训",
    "mtId": 948615283,
    "phone": "4000303096-00226",
    "desc": "营业时间：周一至周日 10:00-22:00",
    "areaCode": "320214",
    "longitude": 120.3595,
    "note": "¥1起，成人零基础体验课1V1-¥199，【6-17】羽毛球1v1体验课-¥199，【6-17】篮球体验券-¥1，室内小班羽毛球培训3课时-¥388，室内小班羽毛球培训1课时-¥1",
    "orgAddr": "新吴区BOB篮球公园(江溪路62号)5楼",
    "score": 0,
    "orgId": 948615283,
    "latitude": 31.5621
  },
  {
    "tags": [
      {
        "type": 2,
        "value": "评分：3.5"
      }
    ],
    "orgName": "USBA美国篮球学院（高新分院）",
    "mtId": 183982436,
    "phone": "",
    "desc": "营业时间：周三至周日 09:00-18:00",
    "areaCode": "320214",
    "longitude": 120.3459,
    "note": "",
    "orgAddr": "新吴区南方中路星方羽毛球馆内",
    "score": 3.5,
    "orgId": 183982436,
    "latitude": 31.5717
  },
  {
    "tags": [
      {
        "type": 2,
        "value": "评分：3.5"
      }
    ],
    "orgName": "博威全明星篮球训练中心",
    "mtId": 154478279,
    "phone": "0510-85102902",
    "desc": "营业时间：周一至周日 10:00-22:00",
    "areaCode": "320211",
    "longitude": 120.2636,
    "note": "",
    "orgAddr": "滨湖区太湖大道1500号无锡游泳跳水馆3楼",
    "score": 3.5,
    "orgId": 154478279,
    "latitude": 31.5446
  },
  {
    "tags": [
      {
        "type": 2,
        "value": "评分：3.5"
      }
    ],
    "orgName": "向阳少儿足球青训（惠山区体育中心）",
    "mtId": 1138189858,
    "phone": "4001016029-0980",
    "desc": "营业时间：周一至周日 10:00-22:00",
    "areaCode": "320206",
    "longitude": 120.3125,
    "note": "¥9.9起，足球体验课-¥19",
    "orgAddr": "惠山区欣惠路惠山区体育中心",
    "score": 3.5,
    "orgId": 1138189858,
    "latitude": 31.6714
  },
  {
    "tags": [
      {
        "type": 2,
        "value": "评分：3.5"
      },
      {
        "type": 1,
        "value": "有储物柜"
      },
      {
        "type": 1,
        "value": "可预订场地"
      },
      {
        "type": 1,
        "value": "有休息区"
      },
      {
        "type": 1,
        "value": "有卫生间"
      },
      {
        "type": 1,
        "value": "无烟环境"
      },
      {
        "type": 1,
        "value": "免费WiFi"
      }
    ],
    "orgName": "爱弈特体育篮球训练营（新区店）",
    "mtId": 1954429200,
    "phone": "4000303096-08914",
    "desc": "营业时间：周一至周日 09:00-22:00",
    "areaCode": "320214",
    "longitude": 120.3471,
    "note": "¥9.9起，3-5周岁篮球小班课【体验券】-¥9.9，篮球私教课【体验券】-¥9.9，篮球寒暑假班【体验券】-¥9.9，12-16周岁篮球课程【体验券】-¥9.9，8-12周岁篮球小班课【体验券】-¥9.9，5-7周岁篮球小班课【体验券】-¥9.9",
    "orgAddr": "新吴区南方中路零度公园篮球馆内",
    "score": 3.5,
    "orgId": 1954429200,
    "latitude": 31.5714
  },
  {
    "tags": [
      {
        "type": 2,
        "value": "评分：4.0"
      }
    ],
    "orgName": "恒心动综合体能跑酷",
    "mtId": 1234605186,
    "phone": "17361755888",
    "desc": "营业时间：周二至周五 14:00-20:00  周六,周日 09:00-20:00",
    "areaCode": "320214",
    "longitude": 120.4474,
    "note": "¥9.9起，代金券-¥100，【开业特惠】9.9单次体验-¥9.9",
    "orgAddr": "新吴区硕放街道11生活广场一楼5-17",
    "score": 4,
    "orgId": 1234605186,
    "latitude": 31.471
  },
  {
    "tags": [
      {
        "type": 2,
        "value": "评分：4.6"
      },
      {
        "type": 1,
        "value": "考级指导"
      },
      {
        "type": 1,
        "value": "有储物柜"
      },
      {
        "type": 1,
        "value": "有充电宝"
      },
      {
        "type": 1,
        "value": "有休息区"
      },
      {
        "type": 1,
        "value": "有卫生间"
      },
      {
        "type": 1,
        "value": "无烟环境"
      },
      {
        "type": 1,
        "value": "免费茶水"
      },
      {
        "type": 1,
        "value": "免费WiFi"
      }
    ],
    "orgName": "舞之篮舞蹈篮球培训中心（太湖广场店）",
    "mtId": 1471153466,
    "phone": "4000303096-07280",
    "desc": "营业时间：周三至周日 09:00-21:00  周二 14:00-21:00",
    "areaCode": "320213",
    "longitude": 120.3062,
    "note": "¥9.8起，【新客推荐】零基础舞蹈体验课-¥9.9，【春季班】舞蹈精品体验课-¥39.8，【春季班】篮球精品体验课-¥39.8",
    "orgAddr": "梁溪区清扬路数码大厦一楼",
    "score": 4.6,
    "orgId": 1471153466,
    "latitude": 31.5544
  },
  {
    "tags": [
      {
        "type": 2,
        "value": "评分：4.0"
      },
      {
        "type": 1,
        "value": "有充电宝"
      },
      {
        "type": 1,
        "value": "无烟环境"
      },
      {
        "type": 1,
        "value": "免费茶水"
      },
      {
        "type": 1,
        "value": "免费WiFi"
      }
    ],
    "orgName": "IKIDFIT爱酷少儿体能（梁溪万达广场店）",
    "mtId": 839328475,
    "phone": "4001016029-3598",
    "desc": "营业时间：周一至周日 10:00-21:00",
    "areaCode": "320213",
    "longitude": 120.3379,
    "note": "¥29.9起，【5-12】篮球体能课-¥29.9",
    "orgAddr": "梁溪区广南路388号梁溪万达广场3楼",
    "score": 4,
    "orgId": 839328475,
    "latitude": 31.5903
  },
  {
    "tags": [
      {
        "type": 2,
        "value": "评分：3.5"
      }
    ],
    "orgAddr": "新吴区塘南路88号招商城内",
    "mtId": 1518409390,
    "phone": "4000303096-58379",
    "desc": "营业时间：周一至周日 08:30-22:00",
    "areaCode": "320214",
    "longitude": 120.3267,
    "note": "¥9.9起，小牛篮球/足球体验课咨询｜Age4-14-¥60",
    "orgName": "小牛体育足球训练营（招商城运动公园店）",
    "score": 3.5,
    "orgId": 1518409390,
    "latitude": 31.5585
  },
  {
    "tags": [
      {
        "type": 2,
        "value": "评分：-"
      }
    ],
    "orgAddr": "江阴市嘉年华广场香山路106号1楼",
    "mtId": 657205232,
    "phone": "4000303096-69328",
    "desc": "营业时间：周一至周日 09:00-21:30",
    "areaCode": "320281",
    "longitude": 120.2959,
    "note": "¥9.9起，极风篮球4-6启点班体验课-¥9.9，羽毛球白天场地券1小时-¥40，羽扬羽球4-6萌芽班体验课-¥9.9，羽扬羽球10-12旗帜班体验课-¥9.9，羽扬羽球7-9丰羽班体验课-¥9.9，极风篮球10-12飞越班体验课-¥9.9，羽扬羽球成人1对1私教-¥300，极风篮球7-9征途班体验课-¥9.9",
    "orgName": "榜样体育·嘉年华分部",
    "score": 0,
    "orgId": 657205232,
    "latitude": 31.9265
  },
  {
    "tags": [
      {
        "type": 2,
        "value": "评分：4.7"
      }
    ],
    "orgAddr": "宜兴市锦绣碓坊路58号金丽城市花园往南20米",
    "mtId": 4830426,
    "phone": "0510-87999084",
    "desc": "营业时间：周一至周日 08:30-17:30",
    "areaCode": "320282",
    "longitude": 119.8153,
    "note": "¥11.8起，6英寸男款AJ篮球蛋糕1个，约6英寸，圆形-¥158.8",
    "orgName": "西雅图小佬家",
    "score": 4.7,
    "orgId": 4830426,
    "latitude": 31.3535
  },
  {
    "tags": [
      {
        "type": 2,
        "value": "评分：4.6"
      },
      {
        "type": 1,
        "value": "有充电宝"
      },
      {
        "type": 1,
        "value": "免费WiFi"
      }
    ],
    "orgAddr": "梁溪区红星路229号缤购邻里星巴克旁",
    "mtId": 1798447992,
    "phone": "4000303096-16574",
    "desc": "营业时间：周一至周五 13:30-20:30  周六,周日 09:00-19:00",
    "areaCode": "320213",
    "longitude": 120.2912,
    "note": "¥9.9起，【5-12】篮球体能课-¥9.9",
    "orgName": "IKIDFIT爱酷少儿体能（阳光广场店）",
    "score": 4.6,
    "orgId": 1798447992,
    "latitude": 31.5487
  },
  {
    "tags": [
      {
        "type": 2,
        "value": "评分：-"
      }
    ],
    "orgAddr": "新吴区1960创意工厂内",
    "mtId": 1277254883,
    "phone": "15021052468",
    "desc": "营业时间：周一至周日 09:00-22:00",
    "areaCode": "320214",
    "longitude": 120.3471,
    "note": "¥9.9起，【复工优选】单人畅打券-¥9.9",
    "orgName": "ZeroPark零度公园篮球馆",
    "score": 0,
    "orgId": 1277254883,
    "latitude": 31.5713
  },
  {
    "tags": [
      {
        "type": 2,
        "value": "评分：3.5"
      }
    ],
    "orgAddr": "滨湖区信成道信成花园61-34-2号",
    "mtId": 1946131714,
    "phone": "17706179150",
    "desc": "营业时间：周二至周日 08:30-20:00",
    "areaCode": "320211",
    "longitude": 120.298,
    "note": "¥19.9起，篮球体验-¥29.9",
    "orgName": "适能盒子综合运动馆",
    "score": 3.5,
    "orgId": 1946131714,
    "latitude": 31.4911
  },
  {
    "tags": [
      {
        "type": 2,
        "value": "评分：3.5"
      },
      {
        "type": 1,
        "value": "有充电宝"
      },
      {
        "type": 1,
        "value": "有卫生间"
      },
      {
        "type": 1,
        "value": "无烟环境"
      },
      {
        "type": 1,
        "value": "免费茶水"
      },
      {
        "type": 1,
        "value": "免费WiFi"
      }
    ],
    "orgAddr": "滨湖区太湖大道1500号新体育中心足球场内",
    "mtId": 1917942926,
    "phone": "4000303096-58501",
    "desc": "营业时间：周二至周日 09:00-17:00",
    "areaCode": "320211",
    "longitude": 120.2661,
    "note": "¥9.9起，小牛篮球/足球体验课咨询｜Age4-14-¥60",
    "orgName": "小牛体育足球训练营（新体育中心店）",
    "score": 3.5,
    "orgId": 1917942926,
    "latitude": 31.5438
  },
  {
    "tags": [
      {
        "type": 2,
        "value": "评分：4.2"
      },
      {
        "type": 1,
        "value": "上门授课"
      },
      {
        "type": 1,
        "value": "有充电宝"
      },
      {
        "type": 1,
        "value": "免费WiFi"
      }
    ],
    "orgAddr": "梁溪区兴源北路800号二楼",
    "mtId": 1823165440,
    "phone": "18552048243",
    "desc": "营业时间：周一至周日 09:00-20:00",
    "areaCode": "320213",
    "longitude": 120.3009,
    "note": "",
    "orgName": "人从众体育篮球培训（荡客部落馆）",
    "score": 4.2,
    "orgId": 1823165440,
    "latitude": 31.5877
  },
  {
    "tags": [
      {
        "type": 2,
        "value": "评分：3.5"
      },
      {
        "type": 1,
        "value": "有充电宝"
      },
      {
        "type": 1,
        "value": "免费WiFi"
      }
    ],
    "orgAddr": "新吴区江溪街道南方中路南方球馆内二楼",
    "mtId": 1020440811,
    "phone": "18618142130",
    "desc": "营业时间：周一至周日 09:00-18:00",
    "areaCode": "320214",
    "longitude": 120.3467,
    "note": "",
    "orgName": "未篮小篮球（新区店）",
    "score": 3.5,
    "orgId": 1020440811,
    "latitude": 31.572
  },
  {
    "tags": [
      {
        "type": 2,
        "value": "评分：4.7"
      }
    ],
    "orgAddr": "宜兴市光荣西路169号",
    "mtId": 953733434,
    "phone": "13861507496",
    "desc": "营业时间：周一至周日 07:00-21:00",
    "areaCode": "320282",
    "longitude": 119.8156,
    "note": "¥1起，【全市免费取衣】轻奢潮牌运动篮球鞋靴子精洗1双-¥98",
    "orgName": "UCC洗衣奢护（氿滨店）",
    "score": 4.7,
    "orgId": 953733434,
    "latitude": 31.3684
  },
  {
    "tags": [
      {
        "type": 2,
        "value": "评分：3.5"
      },
      {
        "type": 1,
        "value": "免费WiFi"
      }
    ],
    "orgName": "迪卡侬青少年篮球训练营（滨湖店）",
    "mtId": 195083698,
    "phone": "18006184810",
    "desc": "营业时间：周一至周日 09:00-20:00",
    "areaCode": "320211",
    "longitude": 120.2633,
    "note": "",
    "orgAddr": "滨湖区太湖西大道1500号西北方向5米",
    "score": 3.5,
    "orgId": 195083698,
    "latitude": 31.5462
  },
  {
    "tags": [
      {
        "type": 2,
        "value": "评分：3.5"
      },
      {
        "type": 1,
        "value": "免费WiFi"
      },
      {
        "type": 1,
        "value": "免费停车"
      }
    ],
    "orgName": "动客青少年篮球俱乐部",
    "mtId": 195169457,
    "phone": "0510-66899998/0510-66899958",
    "desc": "营业时间：周一至周日 08:30-20:30",
    "areaCode": "320211",
    "longitude": 120.2657,
    "note": "",
    "orgAddr": "滨湖区青山路13号（近无锡市人民印刷厂）",
    "score": 3.5,
    "orgId": 195169457,
    "latitude": 31.5684
  },
  {
    "tags": [
      {
        "type": 2,
        "value": "评分：-"
      },
      {
        "type": 1,
        "value": "有充电宝"
      },
      {
        "type": 1,
        "value": "有休息区"
      },
      {
        "type": 1,
        "value": "有卫生间"
      },
      {
        "type": 1,
        "value": "无烟环境"
      },
      {
        "type": 1,
        "value": "免费茶水"
      },
      {
        "type": 1,
        "value": "免费WiFi"
      }
    ],
    "orgName": "NEW STAR篮球（红星店）",
    "mtId": 1240243754,
    "phone": "4000303096-79125",
    "desc": "营业时间：周二至周五 13:30-21:00  周六,周日 08:00-21:00",
    "areaCode": "320211",
    "longitude": 120.2888,
    "note": "¥1起，智能体测-¥1，竞赛班体验课-¥9.9，金牌教练私教-¥360",
    "orgAddr": "滨湖区锡南道星汇广场商铺1层11-103室",
    "score": 0,
    "orgId": 1240243754,
    "latitude": 31.4915
  },
  {
    "tags": [
      {
        "type": 2,
        "value": "评分：3.5"
      },
      {
        "type": 1,
        "value": "有卫生间"
      },
      {
        "type": 1,
        "value": "免费茶水"
      },
      {
        "type": 1,
        "value": "免费WiFi"
      }
    ],
    "orgName": "小牛体育足球训练营（老体育公园店）",
    "mtId": 1739189745,
    "phone": "4000303096-93254",
    "desc": "营业时间：周一至周五 15:00-21:00  周六,周日 08:00-20:00",
    "areaCode": "320213",
    "longitude": 120.3004,
    "note": "¥9.9起，小牛篮球/足球体验课咨询｜Age4-14-¥60",
    "orgAddr": "梁溪区健康路105号体育公园内",
    "score": 3.5,
    "orgId": 1739189745,
    "latitude": 31.5642
  },
  {
    "tags": [
      {
        "type": 2,
        "value": "评分：4.5"
      },
      {
        "type": 1,
        "value": "有充电宝"
      },
      {
        "type": 1,
        "value": "免费茶水"
      },
      {
        "type": 1,
        "value": "育儿讲座"
      },
      {
        "type": 1,
        "value": "免费WiFi"
      }
    ],
    "orgName": "启明星亲子园",
    "mtId": 42310760,
    "phone": "4000303096-46435",
    "desc": "营业时间：周一至周日 08:00-20:30",
    "areaCode": "320282",
    "longitude": 119.8094,
    "note": "¥9.9起，未来星篮球2节体验-¥9.9",
    "orgAddr": "宜兴市宜城街道永安路42号",
    "score": 4.5,
    "orgId": 42310760,
    "latitude": 31.3432
  },
  {
    "tags": [
      {
        "type": 2,
        "value": "评分：-"
      }
    ],
    "orgName": "IKIDFIT爱酷少儿体能（宜兴店）",
    "mtId": 775284872,
    "phone": "4000303096-63803",
    "desc": "营业时间：周二至周五 13:30-20:30  周六,周日 09:00-20:30",
    "areaCode": "320282",
    "longitude": 119.8468,
    "note": "¥29.9起，【4-12】篮球体能课-¥29.9",
    "orgAddr": "宜兴市巷头东路88号",
    "score": 0,
    "orgId": 775284872,
    "latitude": 31.3805
  },
  {
    "tags": [
      {
        "type": 2,
        "value": "评分：3.0"
      },
      {
        "type": 1,
        "value": "免费WiFi"
      },
      {
        "type": 1,
        "value": "免费停车"
      }
    ],
    "orgName": "弗格斯篮球训练营",
    "mtId": 88406228,
    "phone": "13812084888",
    "desc": "营业时间：周一至周日 09:00-21:00",
    "areaCode": "320213",
    "longitude": 120.3102,
    "note": "",
    "orgAddr": "梁溪区通江大道辅路与广勤路交叉口东北80米",
    "score": 3,
    "orgId": 88406228,
    "latitude": 31.593
  },
  {
    "tags": [
      {
        "type": 2,
        "value": "评分：3.5"
      },
      {
        "type": 1,
        "value": "有储物柜"
      },
      {
        "type": 1,
        "value": "有充电宝"
      },
      {
        "type": 1,
        "value": "免费WiFi"
      }
    ],
    "orgName": "唯玩星球·少儿篮球馆",
    "mtId": 1687622817,
    "phone": "18101528891/13515195828",
    "desc": "营业时间：周六,周日 09:00-21:00  周二至周五 12:00-20:30",
    "areaCode": "320281",
    "longitude": 120.2942,
    "note": "",
    "orgAddr": "江阴市澄江中路29号江阴体育中心A座",
    "score": 3.5,
    "orgId": 1687622817,
    "latitude": 31.9243
  },
  {
    "tags": [
      {
        "type": 2,
        "value": "评分：5.0"
      }
    ],
    "orgAddr": "新吴区江溪街道南丰路138号",
    "mtId": 566233100,
    "phone": "15861594022",
    "desc": "营业时间：周一至周日 11:00-21:30",
    "areaCode": "320214",
    "longitude": 120.3388,
    "note": "¥2.88起，篮球鞋换底+精洗套餐-¥279",
    "orgName": "重生球鞋REBIRTH",
    "score": 5,
    "orgId": 566233100,
    "latitude": 31.5625
  },
  {
    "tags": [
      {
        "type": 2,
        "value": "评分：-"
      }
    ],
    "orgAddr": "梁溪区墨文路80-47号",
    "mtId": 1504163623,
    "phone": "4001016029-4078",
    "desc": "营业时间：周一至周日 10:00-22:00",
    "areaCode": "320213",
    "longitude": 120.3064,
    "note": "¥9.9起，初级篮球体验课-¥9.9，中级篮球体验课-¥9.9，启蒙篮球体验课-¥9.9，高级篮球体验课-¥9.9",
    "orgName": "大胜少儿篮球运动馆",
    "score": 0,
    "orgId": 1504163623,
    "latitude": 31.5371
  },
  {
    "tags": [
      {
        "type": 2,
        "value": "评分：4.2"
      },
      {
        "type": 1,
        "value": "有储物柜"
      },
      {
        "type": 1,
        "value": "上门授课"
      },
      {
        "type": 1,
        "value": "有充电宝"
      }
    ],
    "orgAddr": "新吴区南方中路4018号cd球馆（新区店）",
    "mtId": 1435611372,
    "phone": "18951515777",
    "desc": "营业时间：周一至周日 08:30-22:30",
    "areaCode": "320214",
    "longitude": 120.3473,
    "note": "",
    "orgName": "新星篮球培训学院",
    "score": 4.2,
    "orgId": 1435611372,
    "latitude": 31.5721
  },
  {
    "tags": [
      {
        "type": 2,
        "value": "评分：-"
      }
    ],
    "orgAddr": "锡山区南园村东孟家桥26号",
    "mtId": 1145092822,
    "phone": "",
    "desc": "营业时间：",
    "areaCode": "320205",
    "longitude": 120.5143,
    "note": "",
    "orgName": "兄弟篮球厂",
    "score": 0,
    "orgId": 1145092822,
    "latitude": 31.677
  },
  {
    "tags": [
      {
        "type": 2,
        "value": "评分：4.9"
      },
      {
        "type": 1,
        "value": "回头客多"
      },
      {
        "type": 1,
        "value": "实体店洗护"
      }
    ],
    "orgAddr": "江阴市澄江街道万达广场322号",
    "mtId": 676950667,
    "phone": "18761506162/15161601493",
    "desc": "营业时间：周一至周日 08:00-21:00",
    "areaCode": "320281",
    "longitude": 120.2437,
    "note": "¥5起，1双轻奢潮牌限量运动鞋篮球鞋-¥108",
    "orgName": "赛维洗衣生活馆（万达广场江阴店）",
    "score": 4.9,
    "orgId": 676950667,
    "latitude": 31.8971
  },
  {
    "tags": [
      {
        "type": 2,
        "value": "评分：3.0"
      },
      {
        "type": 1,
        "value": "全城配送"
      },
      {
        "type": 1,
        "value": "礼品鲜花"
      },
      {
        "type": 1,
        "value": "开业花篮"
      }
    ],
    "orgAddr": "新吴区欣鸿路549号水岸观邸北门门口",
    "mtId": 41718633,
    "phone": "4008700900",
    "desc": "营业时间：周一至周日 08:00-23:30",
    "areaCode": "320214",
    "longitude": 120.4873,
    "note": "¥98起",
    "orgName": "绿韵花艺（欣鸿路店）",
    "score": 3,
    "orgId": 41718633,
    "latitude": 31.4938
  },
  {
    "tags": [
      {
        "type": 2,
        "value": "评分：4.9"
      },
      {
        "type": 1,
        "value": "实体店洗护"
      }
    ],
    "orgAddr": "惠山区华府路72号",
    "mtId": 190879227,
    "phone": "17798766665",
    "desc": "营业时间：周一至周日 09:00-21:00",
    "areaCode": "320206",
    "longitude": 120.3115,
    "note": "¥18起，篮球鞋清洗-¥25",
    "orgName": "UCC国际洗衣（华府店）",
    "score": 4.9,
    "orgId": 190879227,
    "latitude": 31.6639
  },
  {
    "tags": [
      {
        "type": 2,
        "value": "评分：-"
      },
      {
        "type": 1,
        "value": "有充电宝"
      },
      {
        "type": 1,
        "value": "免费茶水"
      },
      {
        "type": 1,
        "value": "免费WiFi"
      }
    ],
    "orgAddr": "锡山区锡山开发区春雷路1号",
    "mtId": 937064533,
    "phone": "18114111149",
    "desc": "营业时间：周一至周日 10:00-22:00",
    "areaCode": "320205",
    "longitude": 120.3916,
    "note": "",
    "orgName": "HOBBOR篮球培训中心（云林店）",
    "score": 0,
    "orgId": 937064533,
    "latitude": 31.6017
  },
  {
    "tags": [
      {
        "type": 2,
        "value": "评分：4.0"
      }
    ],
    "orgAddr": "梁溪区沁园新村681号-1",
    "mtId": 1052730868,
    "phone": "15852835387",
    "desc": "营业时间：周一至周日 08:30-20:00",
    "areaCode": "320213",
    "longitude": 120.3157,
    "note": "¥20起，「篮球运动镜」1.60非球面镜片搭配篮球运动镜-¥240",
    "orgName": "蠡太院同学眼镜",
    "score": 4,
    "orgId": 1052730868,
    "latitude": 31.5397
  },
  {
    "tags": [
      {
        "type": 2,
        "value": "评分：-"
      }
    ],
    "orgName": "星耀艺体成长中心",
    "mtId": 719988695,
    "phone": "4001016029-2570",
    "desc": "营业时间：周一至周五 13:00-20:30  周六,周日 09:00-20:00",
    "areaCode": "320205",
    "longitude": 120.3826,
    "note": "¥1起，篮球体验课1节-¥1",
    "orgAddr": "锡山区二泉东路55号东亭庄桥工业园2号楼",
    "score": 0,
    "orgId": 719988695,
    "latitude": 31.5841
  },
  {
    "tags": [
      {
        "type": 2,
        "value": "评分：3.8"
      },
      {
        "type": 1,
        "value": "免费WiFi"
      }
    ],
    "orgName": "向阳少儿足球青训（开源校区）",
    "mtId": 1642419114,
    "phone": "4000303096-53286",
    "desc": "营业时间：周一至周日 09:30-19:00",
    "areaCode": "320211",
    "longitude": 120.2831,
    "note": "¥3起，足球体验课-¥19",
    "orgAddr": "滨湖区湖滨东路4号开源大桥下",
    "score": 3.8,
    "orgId": 1642419114,
    "latitude": 31.5623
  },
  {
    "tags": [
      {
        "type": 2,
        "value": "评分：-"
      },
      {
        "type": 1,
        "value": "有充电宝"
      },
      {
        "type": 1,
        "value": "免费WiFi"
      }
    ],
    "orgName": "超巨星少儿足球篮球青训",
    "mtId": 724020859,
    "phone": "15961741610/18961519720",
    "desc": "营业时间：周二至周日 09:00-22:00",
    "areaCode": "320205",
    "longitude": 120.3629,
    "note": "",
    "orgAddr": "锡山区东亭卜蜂莲花广场三楼",
    "score": 0,
    "orgId": 724020859,
    "latitude": 31.5833
  },
  {
    "tags": [
      {
        "type": 2,
        "value": "评分：3.7"
      },
      {
        "type": 1,
        "value": "面积300㎡ | 可容纳20人"
      }
    ],
    "orgName": "巴缔Body Builder 健身工作室",
    "mtId": 165276729,
    "phone": "13914254565",
    "desc": "营业时间：周一至周日 09:00-22:00",
    "areaCode": "320213",
    "longitude": 120.3087,
    "note": "¥28起，篮球运动员专项训练-¥35",
    "orgAddr": "梁溪区清名桥街道清扬路茂业观园6栋702室",
    "score": 3.7,
    "orgId": 165276729,
    "latitude": 31.5496
  },
  {
    "tags": [
      {
        "type": 2,
        "value": "评分：-"
      }
    ],
    "orgName": "体育公园篮球场（健康路老体店）",
    "mtId": 870511,
    "phone": "4001867267",
    "desc": "营业时间：周一至周日 09:00-22:00",
    "areaCode": "320213",
    "longitude": 120.2991,
    "note": "",
    "orgAddr": "梁溪区健康路105号体育公园内（近解放南路）",
    "score": 0,
    "orgId": 870511,
    "latitude": 31.5654
  },
  {
    "tags": [
      {
        "type": 2,
        "value": "评分：3.7"
      }
    ],
    "orgName": "鑫空篮球公园",
    "mtId": 1553308133,
    "phone": "0510-85171598",
    "desc": "营业时间：周一至周日 10:00-22:00",
    "areaCode": "320213",
    "longitude": 120.3078,
    "note": "",
    "orgAddr": "梁溪区金城路706号（芦庄金科世界城旁）",
    "score": 3.7,
    "orgId": 1553308133,
    "latitude": 31.5341
  },
  {
    "tags": [
      {
        "type": 2,
        "value": "评分：3.4"
      }
    ],
    "orgName": "鑫空篮球俱乐部·XK Hoop Park",
    "mtId": 1819531424,
    "phone": "0510-85581598/18961891598",
    "desc": "营业时间：周一至周日 09:00-22:00",
    "areaCode": "320213",
    "longitude": 120.3376,
    "note": "",
    "orgAddr": "梁溪区广南路388号万达广场3号门北客梯6楼",
    "score": 3.4,
    "orgId": 1819531424,
    "latitude": 31.5903
  },
  {
    "tags": [
      {
        "type": 2,
        "value": "评分：3.3"
      }
    ],
    "orgName": "畅享家运动馆（和畅睦邻中心店）",
    "mtId": 569943253,
    "phone": "13914168290",
    "desc": "营业时间：周五,周六 10:00-22:00  周一至周四,周日 10:00-21:30",
    "areaCode": "320211",
    "longitude": 120.3382,
    "note": "",
    "orgAddr": "滨湖区和畅路299号和畅睦邻中心三楼",
    "score": 3.3,
    "orgId": 569943253,
    "latitude": 31.4931
  },
  {
    "tags": [
      {
        "type": 2,
        "value": "评分：-"
      }
    ],
    "orgName": "江南大学篮球场",
    "mtId": 162705120,
    "phone": "0510-85917056",
    "desc": "营业时间：周一至周日 09:00-21:00",
    "areaCode": "320211",
    "longitude": 120.2767,
    "note": "",
    "orgAddr": "滨湖区蠡湖大道1014号",
    "score": 0,
    "orgId": 162705120,
    "latitude": 31.4868
  },
  {
    "tags": [
      {
        "type": 2,
        "value": "评分：4.1"
      }
    ],
    "orgName": "鑫空体育篮球旗舰店",
    "mtId": 1008946250,
    "phone": "13182086043/19534010442",
    "desc": "营业时间：周三至周日 10:00-21:00",
    "areaCode": "320281",
    "longitude": 120.2701,
    "note": "",
    "orgAddr": "江阴市虹桥南路八佰伴南门店4楼",
    "score": 4.1,
    "orgId": 1008946250,
    "latitude": 31.8987
  },
  {
    "tags": [
      {
        "type": 2,
        "value": "评分：-"
      }
    ],
    "orgAddr": "滨湖区太湖街道金匮公园东入口",
    "mtId": 193477049,
    "phone": "",
    "desc": "营业时间：周一至周日 10:00-21:00",
    "areaCode": "320211",
    "longitude": 120.3154,
    "note": "",
    "orgName": "金匮公园篮球场",
    "score": 0,
    "orgId": 193477049,
    "latitude": 31.4967
  },
  {
    "tags": [
      {
        "type": 2,
        "value": "评分：-"
      }
    ],
    "orgAddr": "滨湖区隐秀路612号附近",
    "mtId": 80167466,
    "phone": "",
    "desc": "营业时间：周一至周日 9:00-22:00",
    "areaCode": "320211",
    "longitude": 120.2579,
    "note": "",
    "orgName": "风情梁溪河篮球场",
    "score": 0,
    "orgId": 80167466,
    "latitude": 31.555
  },
  {
    "tags": [
      {
        "type": 2,
        "value": "评分：-"
      }
    ],
    "orgAddr": "惠山区锡澄路时代广场8-107号",
    "mtId": 1755247803,
    "phone": "15370851611",
    "desc": "营业时间：周一至周日 08:00-21:00",
    "areaCode": "320206",
    "longitude": 120.2944,
    "note": "",
    "orgName": "唯玩星球少儿篮球运动馆（惠山店）",
    "score": 0,
    "orgId": 1755247803,
    "latitude": 31.678
  },
  {
    "tags": [
      {
        "type": 2,
        "value": "评分：-"
      }
    ],
    "orgAddr": "江阴市东外环新园路1号（经达实业厂房内）",
    "mtId": 152097585,
    "phone": "0510-80682088",
    "desc": "营业时间：周一至周五 13:00-22:00 周日 08:00-22:00",
    "areaCode": "320281",
    "longitude": 120.3217,
    "note": "",
    "orgName": "嘉博篮球馆（贯庄店）",
    "score": 0,
    "orgId": 152097585,
    "latitude": 31.8997
  },
  {
    "tags": [
      {
        "type": 2,
        "value": "评分：-"
      },
      {
        "type": 1,
        "value": "免费WiFi"
      }
    ],
    "orgAddr": "江阴市环城南路南门印象中庭二楼",
    "mtId": 1950975901,
    "phone": "15906292010",
    "desc": "营业时间：周一至周日 10:00-22:00",
    "areaCode": "320281",
    "longitude": 120.2717,
    "note": "",
    "orgName": "艾伦篮球运动馆（南门印象店）",
    "score": 0,
    "orgId": 1950975901,
    "latitude": 31.8986
  },
  {
    "tags": [
      {
        "type": 2,
        "value": "评分：-"
      }
    ],
    "orgAddr": "梁溪区民丰路与凤宾路交叉口西100米",
    "mtId": 188124757,
    "phone": "13063675578",
    "desc": "营业时间：周一至周日 09:00-22:00",
    "areaCode": "320213",
    "longitude": 120.2925,
    "note": "",
    "orgName": "乐享城篮球馆",
    "score": 0,
    "orgId": 188124757,
    "latitude": 31.6033
  },
  {
    "tags": [
      {
        "type": 2,
        "value": "评分：-"
      }
    ],
    "orgAddr": "新吴区震泽路33号万达广场无锡新吴店F3层",
    "mtId": 619653036,
    "phone": "",
    "desc": "营业时间：",
    "areaCode": "320214",
    "longitude": 120.3671,
    "note": "",
    "orgName": "乐康体育少儿篮球运动馆",
    "score": 0,
    "orgId": 619653036,
    "latitude": 31.4854
  },
  {
    "tags": [
      {
        "type": 2,
        "value": "评分：-"
      }
    ],
    "orgAddr": "梁溪区广吉路与广南路交叉口东北约80米",
    "mtId": 154121009,
    "phone": "",
    "desc": "营业时间：周一至周四,周日 10:00-21:30 周五,周六 10:00-22:00",
    "areaCode": "320213",
    "longitude": 120.3371,
    "note": "",
    "orgName": "泽辉篮球馆",
    "score": 0,
    "orgId": 154121009,
    "latitude": 31.5904
  },
  {
    "tags": [
      {
        "type": 2,
        "value": "评分：-"
      }
    ],
    "orgAddr": "梁溪区新桥花园102-3号",
    "mtId": 5271632,
    "phone": "13812531558",
    "desc": "营业时间：周一至周日 08:00-21:30",
    "areaCode": "320213",
    "longitude": 120.2938,
    "note": "",
    "orgName": "新桥花园篮球场",
    "score": 0,
    "orgId": 5271632,
    "latitude": 31.5986
  },
  {
    "tags": [
      {
        "type": 2,
        "value": "评分：-"
      }
    ],
    "orgAddr": "江阴市周东小学155号",
    "mtId": 716564926,
    "phone": "13515195828",
    "desc": "营业时间：",
    "areaCode": "320281",
    "longitude": 120.4256,
    "note": "",
    "orgName": "曼巴传澄篮球馆",
    "score": 0,
    "orgId": 716564926,
    "latitude": 31.866
  },
  {
    "tags": [
      {
        "type": 2,
        "value": "评分：-"
      }
    ],
    "orgName": "扬体ASK篮球",
    "mtId": 1165994551,
    "phone": "19850107901",
    "desc": "营业时间：周五,周六 10:00-22:00  周一至周四,周日 10:00-21:30",
    "areaCode": "320213",
    "longitude": 120.2907,
    "note": "",
    "orgAddr": "梁溪区贡湖大道2无锡方圆荟购物中心F3层",
    "score": 0,
    "orgId": 1165994551,
    "latitude": 31.5367
  },
  {
    "tags": [
      {
        "type": 2,
        "value": "评分：3.0"
      }
    ],
    "orgName": "杰宁体育体适能篮球培训",
    "mtId": 586332302,
    "phone": "18851513309",
    "desc": "营业时间：周一至周日 10:00-22:00",
    "areaCode": "320211",
    "longitude": 120.2847,
    "note": "",
    "orgAddr": "滨湖区万顺道万科邻里家LIVE（新酩悦)",
    "score": 3,
    "orgId": 586332302,
    "latitude": 31.4984
  },
  {
    "tags": [
      {
        "type": 2,
        "value": "评分：-"
      }
    ],
    "orgName": "艾伦篮球",
    "mtId": 1246638536,
    "phone": "15961505230",
    "desc": "营业时间：周一至周日 10:00-22:00",
    "areaCode": "320205",
    "longitude": 120.4817,
    "note": "",
    "orgAddr": "锡山区安镇水岸街50号",
    "score": 0,
    "orgId": 1246638536,
    "latitude": 31.5944
  },
  {
    "tags": [
      {
        "type": 2,
        "value": "评分：-"
      }
    ],
    "orgName": "全明星篮球",
    "mtId": 1943643039,
    "phone": "",
    "desc": "营业时间：",
    "areaCode": "320213",
    "longitude": 120.3291,
    "note": "",
    "orgAddr": "梁溪区广益路190号三楼",
    "score": 0,
    "orgId": 1943643039,
    "latitude": 31.5958
  },
  {
    "tags": [
      {
        "type": 2,
        "value": "评分：-"
      }
    ],
    "orgName": "江南影视学院篮球场",
    "mtId": 153968434,
    "phone": "0510-83275908",
    "desc": "营业时间：周一至周日 09:00-22:00",
    "areaCode": "320206",
    "longitude": 120.1749,
    "note": "",
    "orgAddr": "惠山区钱桥街道江南影视艺术学院",
    "score": 0,
    "orgId": 153968434,
    "latitude": 31.5687
  },
  {
    "tags": [
      {
        "type": 2,
        "value": "评分：4.3"
      },
      {
        "type": 1,
        "value": "有储物柜"
      },
      {
        "type": 1,
        "value": "无烟环境"
      },
      {
        "type": 1,
        "value": "免费茶水"
      },
      {
        "type": 1,
        "value": "免费WiFi"
      }
    ],
    "orgName": "小虎少儿篮球馆（万达校区）",
    "mtId": 1279647132,
    "phone": "13861518708",
    "desc": "营业时间：周一至周日 10:00-22:00",
    "areaCode": "320206",
    "longitude": 120.2997,
    "note": "",
    "orgAddr": "惠山区万达广场莫比乌斯小镇4楼",
    "score": 4.3,
    "orgId": 1279647132,
    "latitude": 31.6751
  },
  {
    "tags": [
      {
        "type": 2,
        "value": "评分：3.5"
      }
    ],
    "orgName": "花香盛世篮球培训（BOB运动校区）",
    "mtId": 1797848607,
    "phone": "17611328356",
    "desc": "营业时间：周一至周日 09:00-21:00",
    "areaCode": "320214",
    "longitude": 120.3594,
    "note": "",
    "orgAddr": "新吴区江溪街道富力星光里62号",
    "score": 3.5,
    "orgId": 1797848607,
    "latitude": 31.5621
  },
  {
    "tags": [
      {
        "type": 2,
        "value": "评分：-"
      }
    ],
    "orgName": "ALLSTAR全明星篮球俱乐部",
    "mtId": 1484888127,
    "phone": "4009005380",
    "desc": "营业时间：周一至周日 08:00-22:00",
    "areaCode": "320213",
    "longitude": 120.2974,
    "note": "",
    "orgAddr": "梁溪区健康路105号 体育公园游泳馆一楼",
    "score": 0,
    "orgId": 1484888127,
    "latitude": 31.5664
  },
  {
    "tags": [
      {
        "type": 2,
        "value": "评分：-"
      }
    ],
    "orgName": "艾伦篮球运动馆",
    "mtId": 1932166452,
    "phone": "18114876963",
    "desc": "营业时间：",
    "areaCode": "320214",
    "longitude": 120.4473,
    "note": "",
    "orgAddr": "新吴区南星路11生活广场负一层",
    "score": 0,
    "orgId": 1932166452,
    "latitude": 31.4716
  },
  {
    "tags": [
      {
        "type": 2,
        "value": "评分：-"
      }
    ],
    "orgName": "蜗壳篮球公园",
    "mtId": 1481532716,
    "phone": "18914191918",
    "desc": "营业时间：周一至周日 10:00-22:00",
    "areaCode": "320281",
    "longitude": 120.2088,
    "note": "",
    "orgAddr": "江阴市夏港街道江南路98号",
    "score": 0,
    "orgId": 1481532716,
    "latitude": 31.8939
  },
  {
    "tags": [
      {
        "type": 2,
        "value": "评分：3.2"
      }
    ],
    "orgAddr": "新吴区江溪路富力星光里S4号楼负1-4层",
    "mtId": 1129510909,
    "phone": "18800540155",
    "desc": "营业时间：周一至周日 10:00-21:00",
    "areaCode": "320214",
    "longitude": 120.3595,
    "note": "",
    "orgName": "BOB篮球公园·健身·游泳",
    "score": 3.2,
    "orgId": 1129510909,
    "latitude": 31.5621
  },
  {
    "tags": [
      {
        "type": 2,
        "value": "评分：3.5"
      }
    ],
    "orgAddr": "滨湖区蠡溪路家乐福2楼",
    "mtId": 794987616,
    "phone": "17366381852",
    "desc": "营业时间：周一至周日 10:00-22:00",
    "areaCode": "320211",
    "longitude": 120.2615,
    "note": "",
    "orgName": "熊熊篮球馆",
    "score": 3.5,
    "orgId": 794987616,
    "latitude": 31.5493
  },
  {
    "tags": [
      {
        "type": 2,
        "value": "评分：-"
      }
    ],
    "orgAddr": "锡山区金锡大厦B1层极星健身内",
    "mtId": 1782731757,
    "phone": "18921303569",
    "desc": "营业时间：周二至周日 09:00-18:00",
    "areaCode": "320205",
    "longitude": 120.3553,
    "note": "",
    "orgName": "KBT篮球训练营（东亭店）",
    "score": 0,
    "orgId": 1782731757,
    "latitude": 31.5933
  },
  {
    "tags": [
      {
        "type": 2,
        "value": "评分：-"
      }
    ],
    "orgAddr": "梁溪区曹张新村曹婆桥124号",
    "mtId": 88316532,
    "phone": "",
    "desc": "营业时间：周一至周日 09:00-22:00",
    "areaCode": "320213",
    "longitude": 120.2963,
    "note": "",
    "orgName": "扬名中心小学篮球场",
    "score": 0,
    "orgId": 88316532,
    "latitude": 31.5562
  },
  {
    "tags": [
      {
        "type": 2,
        "value": "评分：-"
      }
    ],
    "orgAddr": "宜兴市东坡西路与青龙路交叉口东北角宜兴宝龙广场内",
    "mtId": 1714084251,
    "phone": "",
    "desc": "营业时间：",
    "areaCode": "320282",
    "longitude": 119.8356,
    "note": "",
    "orgName": "恒熠篮球运动中心",
    "score": 0,
    "orgId": 1714084251,
    "latitude": 31.2703
  },
  {
    "tags": [
      {
        "type": 2,
        "value": "评分：-"
      }
    ],
    "orgAddr": "江阴市俭益路31号附近",
    "mtId": 117886493,
    "phone": "",
    "desc": "营业时间：",
    "areaCode": "320281",
    "longitude": 120.4717,
    "note": "",
    "orgName": "华士门球场",
    "score": 0,
    "orgId": 117886493,
    "latitude": 31.8254
  },
  {
    "tags": [
      {
        "type": 2,
        "value": "评分：3.0"
      }
    ],
    "orgAddr": "滨湖区玉兰西花园59-114室",
    "mtId": 627216890,
    "phone": "13701537695",
    "desc": "营业时间：周一至周日 10:00-22:00",
    "areaCode": "320211",
    "longitude": 120.302,
    "note": "",
    "orgName": "NEW STAR青少年篮球培训中心",
    "score": 3,
    "orgId": 627216890,
    "latitude": 31.4933
  },
  {
    "tags": [
      {
        "type": 2,
        "value": "评分：-"
      }
    ],
    "orgAddr": "江阴市通渡南路98号内",
    "mtId": 572655727,
    "phone": "",
    "desc": "营业时间：周一至周日 10:00-22:00",
    "areaCode": "320281",
    "longitude": 120.2513,
    "note": "",
    "orgName": "林书豪-李群篮球联盟",
    "score": 0,
    "orgId": 572655727,
    "latitude": 31.8892
  },
  {
    "tags": [
      {
        "type": 2,
        "value": "评分：3.0"
      },
      {
        "type": 1,
        "value": "免费WiFi"
      },
      {
        "type": 1,
        "value": "付费停车"
      }
    ],
    "orgAddr": "新吴区旺庄街道长江路茂业百货长江一号109",
    "mtId": 1473547094,
    "phone": "15380942586",
    "desc": "营业时间：周一至周日 08:00-21:00",
    "areaCode": "320214",
    "longitude": 120.3597,
    "note": "",
    "orgName": "腾悦体育篮球运动",
    "score": 3,
    "orgId": 1473547094,
    "latitude": 31.5424
  },
  {
    "tags": [
      {
        "type": 2,
        "value": "评分：-"
      }
    ],
    "orgAddr": "锡山区东亭北路5号星叶生活广场F4层",
    "mtId": 1525063555,
    "phone": "13222926986",
    "desc": "营业时间：周一至周日 09:00-20:30",
    "areaCode": "320205",
    "longitude": 120.3631,
    "note": "",
    "orgName": "小牛体育篮球运动中心（星叶店）",
    "score": 0,
    "orgId": 1525063555,
    "latitude": 31.6187
  },
  {
    "tags": [
      {
        "type": 2,
        "value": "评分：-"
      },
      {
        "type": 1,
        "value": "有储物柜"
      },
      {
        "type": 1,
        "value": "空调开放"
      },
      {
        "type": 1,
        "value": "有休息区"
      },
      {
        "type": 1,
        "value": "有卫生间"
      },
      {
        "type": 1,
        "value": "无烟环境"
      }
    ],
    "orgName": "DH篮球学院",
    "mtId": 695843417,
    "phone": "",
    "desc": "营业时间：",
    "areaCode": "320281",
    "longitude": 120.3426,
    "note": "",
    "orgAddr": "江阴市敔山湾金桂路88号二楼",
    "score": 0,
    "orgId": 695843417,
    "latitude": 31.8911
  },
  {
    "tags": [
      {
        "type": 2,
        "value": "评分：-"
      }
    ],
    "orgName": "金匮公园-足球场",
    "mtId": 1464817770,
    "phone": "",
    "desc": "营业时间：",
    "areaCode": "320211",
    "longitude": 120.3077,
    "note": "",
    "orgAddr": "滨湖区贡湖大道与高浪西路交叉口金匮公园",
    "score": 0,
    "orgId": 1464817770,
    "latitude": 31.4954
  },
  {
    "tags": [
      {
        "type": 2,
        "value": "评分：-"
      }
    ],
    "orgName": "小牛体育篮球运动中心",
    "mtId": 1106833233,
    "phone": "13358155617",
    "desc": "营业时间：",
    "areaCode": "320205",
    "longitude": 120.4764,
    "note": "",
    "orgAddr": "锡山区无锡碧桂园东区北2门旁丹山路350号",
    "score": 0,
    "orgId": 1106833233,
    "latitude": 31.6
  },
  {
    "tags": [
      {
        "type": 2,
        "value": "评分：-"
      }
    ],
    "orgName": "小牛体育篮球运动中心",
    "mtId": 541382542,
    "phone": "13382884918",
    "desc": "营业时间：周一至周日 15:00-22:00",
    "areaCode": "320214",
    "longitude": 120.403,
    "note": "",
    "orgAddr": "新吴区锡义路76号",
    "score": 0,
    "orgId": 541382542,
    "latitude": 31.5575
  },
  {
    "tags": [
      {
        "type": 2,
        "value": "评分：-"
      }
    ],
    "orgName": "奇点体育（希望广场店）",
    "mtId": 1551877322,
    "phone": "13779079837",
    "desc": "营业时间：",
    "areaCode": "320281",
    "longitude": 120.3026,
    "note": "",
    "orgAddr": "江阴市延陵路528号A1-89",
    "score": 0,
    "orgId": 1551877322,
    "latitude": 31.9069
  },
  {
    "tags": [
      {
        "type": 2,
        "value": "评分：-"
      }
    ],
    "orgName": "人从众体育篮球培训（新区店）",
    "mtId": 1438793024,
    "phone": "18552048243",
    "desc": "营业时间：周一至周日 10:00-22:00",
    "areaCode": "320214",
    "longitude": 120.347,
    "note": "",
    "orgAddr": "新吴区南方中路（CD球馆内）",
    "score": 0,
    "orgId": 1438793024,
    "latitude": 31.5721
  },
  {
    "tags": [
      {
        "type": 2,
        "value": "评分：-"
      }
    ],
    "orgName": "嘻嘻篮球俱乐部",
    "mtId": 1102968169,
    "phone": "15950130033",
    "desc": "营业时间：",
    "areaCode": "320281",
    "longitude": 120.2825,
    "note": "",
    "orgAddr": "江阴市北潮路107号",
    "score": 0,
    "orgId": 1102968169,
    "latitude": 31.8704
  },
  {
    "tags": [
      {
        "type": 2,
        "value": "评分：-"
      }
    ],
    "orgName": "吾畏篮球",
    "mtId": 1803584285,
    "phone": "",
    "desc": "营业时间：",
    "areaCode": "320281",
    "longitude": 120.2853,
    "note": "",
    "orgAddr": "江阴市大桥路",
    "score": 0,
    "orgId": 1803584285,
    "latitude": 31.92
  },
  {
    "tags": [
      {
        "type": 2,
        "value": "评分：-"
      }
    ],
    "orgName": "弘兆阳少儿篮球馆",
    "mtId": 1727403978,
    "phone": "17714559976/15949250345",
    "desc": "营业时间：周一至周日 10:00-22:00",
    "areaCode": "320214",
    "longitude": 120.3738,
    "note": "",
    "orgAddr": "新吴区锡兴路国际一花园43号宜客莱超市三楼",
    "score": 0,
    "orgId": 1727403978,
    "latitude": 31.5602
  },
  {
    "tags": [
      {
        "type": 2,
        "value": "评分：-"
      }
    ],
    "orgName": "ECBA PARK 恒冠篮球公园",
    "mtId": 1820625542,
    "phone": "",
    "desc": "营业时间：",
    "areaCode": "320282",
    "longitude": 119.7919,
    "note": "",
    "orgAddr": "宜兴市杏园路上海铁路公安局南京公安处宜兴站派出所北侧约260米",
    "score": 0,
    "orgId": 1820625542,
    "latitude": 31.3468
  },
  {
    "tags": [
      {
        "type": 2,
        "value": "评分：-"
      }
    ],
    "orgAddr": "江阴市五星路泓家汇571号",
    "mtId": 1630321058,
    "phone": "15852616989",
    "desc": "营业时间：周一至周日 10:00-18:00",
    "areaCode": "320281",
    "longitude": 120.2265,
    "note": "",
    "orgName": "立杰少儿篮球运动馆",
    "score": 0,
    "orgId": 1630321058,
    "latitude": 31.902
  },
  {
    "tags": [
      {
        "type": 2,
        "value": "评分：-"
      }
    ],
    "orgAddr": "江阴市穿山路112号",
    "mtId": 1814909161,
    "phone": "13626231668",
    "desc": "营业时间：",
    "areaCode": "320281",
    "longitude": 120.4727,
    "note": "",
    "orgName": "方速体育",
    "score": 0,
    "orgId": 1814909161,
    "latitude": 31.8289
  },
  {
    "tags": [
      {
        "type": 2,
        "value": "评分：-"
      }
    ],
    "orgAddr": "梁溪区清扬茂业",
    "mtId": 1632193878,
    "phone": "18006181469",
    "desc": "营业时间：周一至周日 10:00-22:00",
    "areaCode": "320213",
    "longitude": 120.3107,
    "note": "",
    "orgName": "零点体育",
    "score": 0,
    "orgId": 1632193878,
    "latitude": 31.5492
  },
  {
    "tags": [
      {
        "type": 2,
        "value": "评分：-"
      }
    ],
    "orgAddr": "梁溪区人民东路531号红豆万花城3楼",
    "mtId": 1387722927,
    "phone": "13511655751",
    "desc": "营业时间：",
    "areaCode": "320213",
    "longitude": 120.3258,
    "note": "",
    "orgName": "无锡SFC上影鑫空篮球馆",
    "score": 0,
    "orgId": 1387722927,
    "latitude": 31.5863
  },
  {
    "tags": [
      {
        "type": 2,
        "value": "评分：-"
      }
    ],
    "orgAddr": "锡山区八佰伴中心（5楼奇迹健身旁）",
    "mtId": 871047029,
    "phone": "13771011497",
    "desc": "营业时间：周一至周日 10:00-22:00",
    "areaCode": "320205",
    "longitude": 120.3484,
    "note": "",
    "orgName": "日落锡东篮球馆（八佰伴店）",
    "score": 0,
    "orgId": 871047029,
    "latitude": 31.5844
  },
  {
    "tags": [
      {
        "type": 2,
        "value": "评分：-"
      }
    ],
    "orgAddr": "梁溪区中山路168号无锡八佰伴F6层",
    "mtId": 534374513,
    "phone": "0510-82701982",
    "desc": "营业时间：周五至周日 10:00-21:30  周一至周四 10:00-21:00",
    "areaCode": "320213",
    "longitude": 120.3025,
    "note": "",
    "orgName": "阿迪达斯（八佰伴篮球店）",
    "score": 0,
    "orgId": 534374513,
    "latitude": 31.5719
  },
  {
    "tags": [
      {
        "type": 2,
        "value": "评分：-"
      }
    ],
    "orgAddr": "江阴市中央公园东江阴红豆万花城F2层",
    "mtId": 1755253323,
    "phone": "",
    "desc": "营业时间：",
    "areaCode": "320281",
    "longitude": 120.1353,
    "note": "",
    "orgName": "林书豪-李群篮球联盟（红豆万花城店）",
    "score": 0,
    "orgId": 1755253323,
    "latitude": 31.8987
  },
  {
    "tags": [
      {
        "type": 2,
        "value": "评分：-"
      }
    ],
    "orgAddr": "江阴市蟠龙山路25号",
    "mtId": 523101395,
    "phone": "",
    "desc": "营业时间：",
    "areaCode": "320281",
    "longitude": 120.3334,
    "note": "",
    "orgName": "篮球奶茶吧",
    "score": 0,
    "orgId": 523101395,
    "latitude": 31.9253
  },
  {
    "tags": [
      {
        "type": 2,
        "value": "评分：-"
      }
    ],
    "orgAddr": "宜兴市100凤凰街阳光100凤凰街",
    "mtId": 1657987995,
    "phone": "",
    "desc": "营业时间：",
    "areaCode": "320282",
    "longitude": 119.8551,
    "note": "",
    "orgName": "尚篮篮球俱乐部",
    "score": 0,
    "orgId": 1657987995,
    "latitude": 31.3535
  },
  {
    "tags": [
      {
        "type": 2,
        "value": "评分：-"
      }
    ],
    "orgAddr": "梁溪区青石路518号金太湖国际城3楼",
    "mtId": 806898375,
    "phone": "18006181469",
    "desc": "营业时间：周一至周日 10:00-22:00",
    "areaCode": "320213",
    "longitude": 120.288,
    "note": "",
    "orgName": "零点体育",
    "score": 0,
    "orgId": 806898375,
    "latitude": 31.5925
  },
  {
    "tags": [
      {
        "type": 2,
        "value": "评分：-"
      }
    ],
    "orgName": "路人王·魔杰篮球馆",
    "mtId": 1174223032,
    "phone": "13151191088",
    "desc": "营业时间：",
    "areaCode": "320281",
    "longitude": 120.4847,
    "note": "",
    "orgAddr": "江阴市龙山路15号",
    "score": 0,
    "orgId": 1174223032,
    "latitude": 31.846
  },
  {
    "tags": [
      {
        "type": 2,
        "value": "评分：-"
      }
    ],
    "orgName": "大胜体育青训营",
    "mtId": 640507064,
    "phone": "15358000158",
    "desc": "营业时间：",
    "areaCode": "320211",
    "longitude": 120.297,
    "note": "",
    "orgAddr": "滨湖区金石路华邦球馆",
    "score": 0,
    "orgId": 640507064,
    "latitude": 31.5175
  },
  {
    "tags": [
      {
        "type": 2,
        "value": "评分：-"
      }
    ],
    "orgName": "鑫空篮球馆",
    "mtId": 1502298366,
    "phone": "13182086043",
    "desc": "营业时间：周一至周日 10:00-20:00",
    "areaCode": "320281",
    "longitude": 120.2698,
    "note": "",
    "orgAddr": "江阴市环城南路178号负一楼B1009-1012号",
    "score": 0,
    "orgId": 1502298366,
    "latitude": 31.8987
  },
  {
    "tags": [
      {
        "type": 2,
        "value": "评分：-"
      }
    ],
    "orgName": "CB城市网红篮球馆",
    "mtId": 1089878047,
    "phone": "13961584284",
    "desc": "营业时间：周一至周日 13:00-17:00 18:00-22:00",
    "areaCode": "320282",
    "longitude": 119.7861,
    "note": "",
    "orgAddr": "宜兴市岳东路99号",
    "score": 0,
    "orgId": 1089878047,
    "latitude": 31.341
  },
  {
    "tags": [
      {
        "type": 2,
        "value": "评分：-"
      }
    ],
    "orgName": "自由人篮球馆",
    "mtId": 150253118,
    "phone": "13606178898",
    "desc": "营业时间：周一至周日 09:00-22:00",
    "areaCode": "320206",
    "longitude": 120.1821,
    "note": "",
    "orgAddr": "惠山区永安路52号",
    "score": 0,
    "orgId": 150253118,
    "latitude": 31.7189
  },
  {
    "tags": [
      {
        "type": 2,
        "value": "评分：-"
      }
    ],
    "orgName": "体育中心篮球训练馆",
    "mtId": 42670529,
    "phone": "0510-87966515",
    "desc": "营业时间：",
    "areaCode": "320282",
    "longitude": 119.8258,
    "note": "",
    "orgAddr": "宜兴市体育中心",
    "score": 0,
    "orgId": 42670529,
    "latitude": 31.3541
  },
  {
    "tags": [
      {
        "type": 2,
        "value": "评分：-"
      }
    ],
    "orgName": "无锡华蒙星少儿篮球俱乐部",
    "mtId": 1618991422,
    "phone": "15370419609",
    "desc": "营业时间：周六,周日 09:00-21:30  周一至周五 14:00-20:30",
    "areaCode": "320206",
    "longitude": 120.2158,
    "note": "",
    "orgAddr": "惠山区锡陆路369号二楼（苏庙地铁2号出口）",
    "score": 0,
    "orgId": 1618991422,
    "latitude": 31.5976
  },
  {
    "tags": [
      {
        "type": 2,
        "value": "评分：-"
      },
      {
        "type": 1,
        "value": "室内"
      },
      {
        "type": 1,
        "value": "塑料地板"
      }
    ],
    "orgName": "火星篮球馆",
    "mtId": 1521530231,
    "phone": "15251632772",
    "desc": "营业时间：周一至周日 12:00-21:30",
    "areaCode": "320205",
    "longitude": 120.4439,
    "note": "",
    "orgAddr": "锡山区泾安路周家阁健身中心三楼",
    "score": 0,
    "orgId": 1521530231,
    "latitude": 31.6527
  },
  {
    "tags": [
      {
        "type": 2,
        "value": "评分：-"
      }
    ],
    "orgName": "坐标篮球馆（崇安店）",
    "mtId": 1453442306,
    "phone": "13812281831",
    "desc": "营业时间：周一至周日 09:00-22:00",
    "areaCode": "320213",
    "longitude": 120.329,
    "note": "",
    "orgAddr": "梁溪区广益路190号美洲健身3楼",
    "score": 0,
    "orgId": 1453442306,
    "latitude": 31.5955
  },
  {
    "tags": [
      {
        "type": 2,
        "value": "评分：-"
      }
    ],
    "orgName": "龙珠篮球",
    "mtId": 1730569223,
    "phone": "",
    "desc": "营业时间：",
    "areaCode": "320211",
    "longitude": 120.2977,
    "note": "",
    "orgAddr": "滨湖区太湖街道万科方糖1楼",
    "score": 0,
    "orgId": 1730569223,
    "latitude": 31.4911
  },
  {
    "tags": [
      {
        "type": 2,
        "value": "评分：-"
      }
    ],
    "orgAddr": "江阴市迎瑞路南江阴国际会展中心",
    "mtId": 1107221148,
    "phone": "18921218806",
    "desc": "营业时间：",
    "areaCode": "320281",
    "longitude": 120.3442,
    "note": "",
    "orgName": "嘉博篮球馆（敔山湾店）",
    "score": 0,
    "orgId": 1107221148,
    "latitude": 31.8928
  },
  {
    "tags": [
      {
        "type": 2,
        "value": "评分：-"
      }
    ],
    "orgAddr": "梁溪区梁东路无锡曙光薇酒店(扬名店)北侧约150米",
    "mtId": 739099544,
    "phone": "",
    "desc": "营业时间：",
    "areaCode": "320213",
    "longitude": 120.3248,
    "note": "",
    "orgName": "扬名幸福篮球公园",
    "score": 0,
    "orgId": 739099544,
    "latitude": 31.5215
  },
  {
    "tags": [
      {
        "type": 2,
        "value": "评分：-"
      }
    ],
    "orgAddr": "宜兴市东虹东路万达广场",
    "mtId": 914755827,
    "phone": "15862390968",
    "desc": "营业时间：周一至周日 09:30-21:00",
    "areaCode": "320282",
    "longitude": 119.8522,
    "note": "",
    "orgName": "勇者小篮球",
    "score": 0,
    "orgId": 914755827,
    "latitude": 31.3635
  },
  {
    "tags": [
      {
        "type": 2,
        "value": "评分：-"
      }
    ],
    "orgAddr": "惠山区金岸路78号",
    "mtId": 740755140,
    "phone": "17671760754/17368770858",
    "desc": "营业时间：周五至周日 08:30-20:30  周三 16:30-20:00",
    "areaCode": "320206",
    "longitude": 120.2293,
    "note": "",
    "orgName": "杜特体育篮球运动馆（惠山钱桥店）",
    "score": 0,
    "orgId": 740755140,
    "latitude": 31.6019
  },
  {
    "tags": [
      {
        "type": 2,
        "value": "评分：-"
      }
    ],
    "orgAddr": "滨湖区新体育中心",
    "mtId": 75220686,
    "phone": "0510-85108195",
    "desc": "营业时间：周一至周日 09:00-22:00",
    "areaCode": "320211",
    "longitude": 120.2666,
    "note": "",
    "orgName": "体育中心篮球馆",
    "score": 0,
    "orgId": 75220686,
    "latitude": 31.5441
  },
  {
    "tags": [
      {
        "type": 2,
        "value": "评分：-"
      }
    ],
    "orgAddr": "惠山区无锡北枢纽与凤翔快速路出口交叉口东约160米",
    "mtId": 1761549421,
    "phone": "0510-89895858",
    "desc": "营业时间：",
    "areaCode": "320206",
    "longitude": 120.3016,
    "note": "",
    "orgName": "紫藤篮球",
    "score": 0,
    "orgId": 1761549421,
    "latitude": 31.6547
  },
  {
    "tags": [
      {
        "type": 2,
        "value": "评分：-"
      }
    ],
    "orgAddr": "宜兴市美术馆东氿大道与解放东路交叉口",
    "mtId": 572923691,
    "phone": "13606159897",
    "desc": "营业时间：周一至周日 08:00-20:00",
    "areaCode": "320282",
    "longitude": 119.852,
    "note": "",
    "orgName": "伯乐篮球",
    "score": 0,
    "orgId": 572923691,
    "latitude": 31.3559
  },
  {
    "tags": [
      {
        "type": 2,
        "value": "评分：3.0"
      },
      {
        "type": 1,
        "value": "有充电宝"
      },
      {
        "type": 1,
        "value": "免费WiFi"
      }
    ],
    "orgAddr": "梁溪区梁东路扬名工业园A区18号-07",
    "mtId": 1615170838,
    "phone": "19952212116",
    "desc": "营业时间：周一至周日 10:00-21:00",
    "areaCode": "320213",
    "longitude": 120.3229,
    "note": "",
    "orgName": "第七区篮球体验馆",
    "score": 3,
    "orgId": 1615170838,
    "latitude": 31.5186
  },
  {
    "tags": [
      {
        "type": 2,
        "value": "评分：3.0"
      }
    ],
    "orgAddr": "新吴区哥伦布4楼",
    "mtId": 1287746713,
    "phone": "13771137731",
    "desc": "营业时间：周一至周日 10:00-22:00",
    "areaCode": "320214",
    "longitude": 120.3372,
    "note": "",
    "orgName": "艾伦篮球运动馆",
    "score": 3,
    "orgId": 1287746713,
    "latitude": 31.5675
  },
  {
    "tags": [
      {
        "type": 2,
        "value": "评分：3.5"
      },
      {
        "type": 1,
        "value": "免费WiFi"
      }
    ],
    "orgAddr": "梁溪区茂业百货5楼",
    "mtId": 770487952,
    "phone": "13861692048/13511655751",
    "desc": "营业时间：周一至周日 09:00-22:00",
    "areaCode": "320213",
    "longitude": 120.3106,
    "note": "",
    "orgName": "鑫空篮球青少年培训中心",
    "score": 3.5,
    "orgId": 770487952,
    "latitude": 31.5493
  }
]
