[
  {
    "tags": [
      {
        "type": 2,
        "value": "评分：4.8"
      },
      {
        "type": 1,
        "value": "有充电宝"
      },
      {
        "type": 1,
        "value": "免费WiFi"
      }
    ],
    "orgName": "准者篮球体适能培训（集美嘉庚中心）",
    "mtId": 752824739,
    "phone": "4000303096-89721",
    "desc": "营业时间：周一至周日 10:00-22:00",
    "areaCode": "350211",
    "longitude": 118.1065,
    "note": "¥9.9起，【散客专享】单次畅打体验价-¥25，篮球散客三人票-¥70，半场两小时篮球馆订场-¥450，7-9专享|篮球体验课-¥9.9，90分钟篮球启蒙体验课-¥9.9，【送篮球】+2节精品篮球课-¥69.9，10-12专享|篮球体验课-¥9.9，【送篮球】+1节精品篮球课-¥29.9，4-6篮球启蒙体验课-¥9.9，1V1私教课-¥380",
    "orgAddr": "集美区乐海北路1号嘉庚体育馆C门",
    "score": 4.8,
    "orgId": 752824739,
    "latitude": 24.5884
  },
  {
    "tags": [
      {
        "type": 2,
        "value": "评分：4.6"
      },
      {
        "type": 1,
        "value": "有充电宝"
      },
      {
        "type": 1,
        "value": "免费WiFi"
      }
    ],
    "orgName": "准者篮球体适能培训（东南店）",
    "mtId": 552324048,
    "phone": "4000303096-49645",
    "desc": "营业时间：周一至周日 09:00-22:00",
    "areaCode": "350206",
    "longitude": 118.0967,
    "note": "¥9.9起，【散客专享】单次畅打体验价-¥25，半场两小时篮球馆订场-¥450，篮球散客三人票-¥70，全场两小时篮球馆订场（周末可用）-¥888，10-12专享|篮球体验课-¥9.9，7-9专享|篮球体验课-¥9.9，90分钟篮球启蒙体验课-¥9.9，【送篮球】+1节精品篮球课-¥29.9，【送篮球】+2节精品篮球课-¥69.9，4-6篮球启蒙体验课-¥9.9",
    "orgAddr": "湖里区华昌路125号东南天地E栋101室",
    "score": 4.6,
    "orgId": 552324048,
    "latitude": 24.5123
  },
  {
    "tags": [
      {
        "type": 2,
        "value": "评分：3.5"
      },
      {
        "type": 1,
        "value": "有充电宝"
      },
      {
        "type": 1,
        "value": "免费WiFi"
      }
    ],
    "orgName": "准者篮球体适能培训（金林店）",
    "mtId": 1607460962,
    "phone": "4000303096-47289",
    "desc": "营业时间：周一至周日 08:00-23:00",
    "areaCode": "350206",
    "longitude": 118.1882,
    "note": "¥9.9起，【散客专享】单次畅打体验价-¥25，7-9专享|篮球体验课-¥9.9，半场两小时篮球馆订场-¥450，10-12专享|篮球体验课-¥9.9，【送篮球】+1节精品篮球课-¥29.9，90分钟篮球启蒙体验课-¥9.9，4-6篮球启蒙体验课-¥9.9，【送篮球】+2节精品篮球课-¥69.9，4-6体能特训篮球课-¥9.9，1V1私教课-¥380",
    "orgAddr": "湖里区莲山头路66号",
    "score": 3.5,
    "orgId": 1607460962,
    "latitude": 24.5006
  },
  {
    "tags": [
      {
        "type": 2,
        "value": "评分：4.3"
      }
    ],
    "orgName": "天空健身篮球馆",
    "mtId": 1263876463,
    "phone": "15711559798",
    "desc": "营业时间：周一至周日 09:00-22:00",
    "areaCode": "350203",
    "longitude": 118.1777,
    "note": "¥19.9起，（限期活动）篮球馆散客单人｜健身卡｜1天1次-¥49.9，【酸痛缓解】筋膜刀深度放松-¥66，减脂小班课-¥999，【STR健身区】1V1私教体验课-¥19.9，七天极速燃脂塑形-¥699，关节运动损伤评估与复健-¥198",
    "orgAddr": "思明区前埔东路555号明丰财富中心写字楼1号楼B座25楼2501室",
    "score": 4.3,
    "orgId": 1263876463,
    "latitude": 24.4793
  },
  {
    "tags": [
      {
        "type": 2,
        "value": "评分：4.2"
      }
    ],
    "orgName": "兄弟连篮球国贸馆",
    "mtId": 1553838249,
    "phone": "13205922946",
    "desc": "营业时间：周一至周日 10:00-22:00",
    "areaCode": "350211",
    "longitude": 118.0506,
    "note": "¥19起，篮球场馆场地租用/人/每小时-¥20，篮球特惠体验课-¥19，篮球体验课一节-¥19.9，篮球特惠体验课-¥19，精品篮球2节体验课-¥29.9",
    "orgAddr": "集美区杏林北二路148-4号",
    "score": 4.2,
    "orgId": 1553838249,
    "latitude": 24.5786
  },
  {
    "tags": [
      {
        "type": 2,
        "value": "评分：5.0"
      },
      {
        "type": 1,
        "value": "有淋浴间"
      },
      {
        "type": 1,
        "value": "有充电宝"
      },
      {
        "type": 1,
        "value": "免费茶水"
      },
      {
        "type": 1,
        "value": "免费WiFi"
      }
    ],
    "orgName": "网胜篮球训练营（文灶校区）",
    "mtId": 1114648188,
    "phone": "13606096808/15959352759",
    "desc": "营业时间：周一至周日 08:00-22:00",
    "areaCode": "350203",
    "longitude": 118.1026,
    "note": "¥9.9起，篮球一对一私教-¥350，篮球体验课1节-¥9.9，篮球体验课-¥9.9，散客单次打球-¥30，散客会员卡-¥500，球场租用（半场）一小时-¥200，网球一对一私教-¥350，网球成人CP配-¥128，室外1对1网球培训1课时-¥98，球场租用（全场）一小时-¥400",
    "orgAddr": "思明区厦禾路827号",
    "score": 5,
    "orgId": 1114648188,
    "latitude": 24.4659
  },
  {
    "tags": [
      {
        "type": 2,
        "value": "评分：4.0"
      },
      {
        "type": 1,
        "value": "有充电宝"
      },
      {
        "type": 1,
        "value": "免费WiFi"
      }
    ],
    "orgName": "准者篮球体适能培训（观音山校区）",
    "mtId": 600834594,
    "phone": "4000303096-27205",
    "desc": "营业时间：周一至周五 16:00-22:00  周六,周日 09:00-22:00",
    "areaCode": "350203",
    "longitude": 118.1988,
    "note": "¥9.9起，【散客专享】单次畅打体验价-¥25，篮球散客双人票-¥50，半场两小时篮球馆订场-¥450，10-12专享|篮球体验课-¥9.9，7-9专享|篮球体验课-¥9.9，90分钟篮球启蒙体验课-¥9.9，4-6篮球启蒙体验课-¥9.9，【送篮球】+1节精品篮球课-¥29.9，【送篮球】+2节精品篮球课-¥69.9，4-6体能特训篮球课-¥9.9",
    "orgAddr": "思明区环岛东路2188号-24室",
    "score": 4,
    "orgId": 600834594,
    "latitude": 24.5014
  },
  {
    "tags": [
      {
        "type": 2,
        "value": "评分：4.4"
      },
      {
        "type": 1,
        "value": "空调开放"
      },
      {
        "type": 1,
        "value": "有充电宝"
      },
      {
        "type": 1,
        "value": "有休息区"
      },
      {
        "type": 1,
        "value": "有卫生间"
      },
      {
        "type": 1,
        "value": "无烟环境"
      },
      {
        "type": 1,
        "value": "免费WiFi"
      }
    ],
    "orgName": "莱恩儿童篮球体能中心（松柏校区）",
    "mtId": 1515649450,
    "phone": "4000303096-15750",
    "desc": "营业时间：周一至周日 09:00-20:30",
    "areaCode": "350203",
    "longitude": 118.1212,
    "note": "¥9.9起，7-10 篮球基础课程2节-¥9.9，篮球体验课程两节-¥99，3-6 篮球启蒙课程2节-¥9.9，门票(1小时畅打)-¥39，体适能课程两节-¥99",
    "orgAddr": "思明区仙岳路屿后北里435号)源盛花园与松柏禾山家园20米元处",
    "score": 4.4,
    "orgId": 1515649450,
    "latitude": 24.4958
  },
  {
    "tags": [
      {
        "type": 2,
        "value": "评分：4.0"
      },
      {
        "type": 1,
        "value": "有充电宝"
      }
    ],
    "orgName": "花香盛世篮球羽毛球培训（辛巴篮球馆校区）",
    "mtId": 567513739,
    "phone": "4000303096-79526",
    "desc": "营业时间：周一至周日 09:00-21:00",
    "areaCode": "350203",
    "longitude": 118.1755,
    "note": "¥8起，【10-12】 篮球课（购买后请拨打门店电话）-¥23，【春季福利】4节篮球课学会运球、投篮基本动作-¥8，【8-10】篮球课（购买后请拨打门店电话）-¥23，【5-7】篮球课（购买后请拨打门店电话）-¥23，【6-8】羽毛球课（购买后请拨打门店电话）-¥23，【春季福利】4节羽毛球课学会握拍、挥拍基本技巧-¥8，体测课+篮球课（购买后请拨打门店电话）-¥9.9，【11-12】羽毛球课（购买后请拨打门店电话）-¥23，【13-14】羽毛球课（购买后请拨打门店电话）-¥23，【9-10】羽毛球课（购买后请拨打门店电话）-¥23",
    "orgAddr": "思明区前埔东路辛巴篮球公园内（不接散客、不租赁）",
    "score": 4,
    "orgId": 567513739,
    "latitude": 24.4779
  },
  {
    "tags": [
      {
        "type": 2,
        "value": "评分：3.5"
      },
      {
        "type": 1,
        "value": "可预订场地"
      },
      {
        "type": 1,
        "value": "有休息区"
      },
      {
        "type": 1,
        "value": "有卫生间"
      },
      {
        "type": 1,
        "value": "无烟环境"
      },
      {
        "type": 1,
        "value": "免费WiFi"
      }
    ],
    "orgName": "铭星体育（摩尔莲花商务中心店）",
    "mtId": 855620960,
    "phone": "4001016029-6028",
    "desc": "营业时间：周一至周日 09:00-21:00",
    "areaCode": "350203",
    "longitude": 118.1299,
    "note": "¥9.9起，篮球场地租场（半场）-¥150，篮球场地租场（全场）-¥300，成人篮球私教课一节-¥299，散客租场-¥20，篮球+体适能/体验课-¥9.9",
    "orgAddr": "思明区摩尔莲花商务中心5楼天台铭星体育篮球公园",
    "score": 3.5,
    "orgId": 855620960,
    "latitude": 24.4888
  },
  {
    "tags": [
      {
        "type": 2,
        "value": "评分：4.0"
      },
      {
        "type": 1,
        "value": "有充电宝"
      },
      {
        "type": 1,
        "value": "免费WiFi"
      }
    ],
    "orgName": "准者篮球体适能培训（大同店）",
    "mtId": 914197090,
    "phone": "4000303096-45348",
    "desc": "营业时间：周一至周日 09:30-22:30",
    "areaCode": "350203",
    "longitude": 118.17,
    "note": "¥9.9起，篮球散客四人票-¥90，【散客专享】单次畅打体验价-¥25，篮球春季班6节45分钟入门课-¥398，10-12专享|篮球体验课-¥9.9，半场两小时篮球馆订场-¥450，7-9专享|篮球体验课-¥9.9，90分钟篮球启蒙体验课-¥9.9，【送篮球】+2节精品篮球课-¥69.9，4-6篮球启蒙体验课-¥9.9，【送篮球】+1节精品篮球课-¥29.9",
    "orgAddr": "思明区古楼南里32号",
    "score": 4,
    "orgId": 914197090,
    "latitude": 24.4653
  },
  {
    "tags": [
      {
        "type": 2,
        "value": "评分：3.5"
      },
      {
        "type": 1,
        "value": "有储物柜"
      },
      {
        "type": 1,
        "value": "有充电宝"
      },
      {
        "type": 1,
        "value": "免费WiFi"
      },
      {
        "type": 1,
        "value": "付费停车"
      }
    ],
    "orgAddr": "思明区中山路南中广场篮球场",
    "mtId": 1372057795,
    "phone": "4000303096-38661",
    "desc": "营业时间：周一至周日 09:00-21:00",
    "areaCode": "350203",
    "longitude": 118.0786,
    "note": "¥9.9起，少年篮球0基础A班-¥9.9，少年篮球0基础B班-¥9.9，少年篮球进阶班-¥9.9，球场租用（半场）1小时-¥175，球场租用（全场）1小时-¥300，儿童培训0基础班+体能测评-¥9.9",
    "orgName": "优尔篮球培训（南中广场店）",
    "score": 3.5,
    "orgId": 1372057795,
    "latitude": 24.4547
  },
  {
    "tags": [
      {
        "type": 2,
        "value": "评分：4.5"
      },
      {
        "type": 1,
        "value": "有淋浴间"
      },
      {
        "type": 1,
        "value": "有充电宝"
      },
      {
        "type": 1,
        "value": "免费WiFi"
      }
    ],
    "orgAddr": "思明区凤屿路270号二层商场23-35号店面",
    "mtId": 182502563,
    "phone": "4000303096-92800",
    "desc": "营业时间：周一至周日 09:00-20:30",
    "areaCode": "350203",
    "longitude": 118.1138,
    "note": "¥9.9起，篮球综合运动体验课-幼儿-¥9.9，篮球综合运动体验课-¥9.9，中考体育测试体验课-¥9.9",
    "orgName": "契击·超能学院",
    "score": 4.5,
    "orgId": 182502563,
    "latitude": 24.4789
  },
  {
    "tags": [
      {
        "type": 2,
        "value": "评分：4.4"
      },
      {
        "type": 1,
        "value": "有充电宝"
      },
      {
        "type": 1,
        "value": "免费WiFi"
      }
    ],
    "orgAddr": "思明区吕岭路1739号创想中心B座一层",
    "mtId": 1428771759,
    "phone": "4000303096-79367",
    "desc": "营业时间：周一至周日 09:00-22:00",
    "areaCode": "350203",
    "longitude": 118.1847,
    "note": "¥9.9起，篮球春季班6节45分钟入门课-¥398，7-9专享|篮球体验课-¥9.9，90分钟篮球启蒙体验课-¥9.9，10-12专享|篮球体验课-¥9.9，【送篮球】+1节精品篮球课-¥29.9，【送篮球】+2节精品篮球课-¥69.9，4-6篮球启蒙体验课-¥9.9，4-6体能特训篮球课-¥9.9，1V1私教课-¥380",
    "orgName": "准者篮球体适能培训（创想中心馆）",
    "score": 4.4,
    "orgId": 1428771759,
    "latitude": 24.4813
  },
  {
    "tags": [
      {
        "type": 2,
        "value": "评分：4.0"
      },
      {
        "type": 1,
        "value": "有储物柜"
      },
      {
        "type": 1,
        "value": "有充电宝"
      },
      {
        "type": 1,
        "value": "有卫生间"
      },
      {
        "type": 1,
        "value": "无烟环境"
      },
      {
        "type": 1,
        "value": "免费茶水"
      },
      {
        "type": 1,
        "value": "免费WiFi"
      }
    ],
    "orgAddr": "集美区杏林宁海二里5号楼314室",
    "mtId": 1712065203,
    "phone": "4000303096-31414",
    "desc": "营业时间：周一至周日 10:00-22:00",
    "areaCode": "350211",
    "longitude": 118.065,
    "note": "¥158起，室外小班篮球培训4课时-¥158，室内小班篮球培训2课时-¥300，体适能秋季体验课4次课-¥158",
    "orgName": "智信体育（杏林店）",
    "score": 4,
    "orgId": 1712065203,
    "latitude": 24.5614
  },
  {
    "tags": [
      {
        "type": 2,
        "value": "评分：3.0"
      },
      {
        "type": 1,
        "value": "有充电宝"
      },
      {
        "type": 1,
        "value": "免费WiFi"
      },
      {
        "type": 1,
        "value": "免费停车"
      }
    ],
    "orgAddr": "思明区凤屿路448号",
    "mtId": 1237654625,
    "phone": "4000303096-63642",
    "desc": "营业时间：周一至周日 10:00-22:00",
    "areaCode": "350203",
    "longitude": 118.1136,
    "note": "¥9.9起，篮球体验课程两节-¥99，7-10 篮球基础课程2节-¥9.9，3-6 篮球启蒙课程2节-¥9.9，体适能课程两节-¥99，门票(1小时畅打)-¥39",
    "orgName": "莱恩儿童篮球体能中心（槟榔校区）",
    "score": 3,
    "orgId": 1237654625,
    "latitude": 24.4804
  },
  {
    "tags": [
      {
        "type": 2,
        "value": "评分：4.6"
      },
      {
        "type": 1,
        "value": "有储物柜"
      },
      {
        "type": 1,
        "value": "有充电宝"
      },
      {
        "type": 1,
        "value": "免费WiFi"
      }
    ],
    "orgAddr": "思明区体育路41号顺承大厦4号梯1楼",
    "mtId": 684596381,
    "phone": "4000303096-85067",
    "desc": "营业时间：周一至周日 10:00-22:00",
    "areaCode": "350203",
    "longitude": 118.0997,
    "note": "¥1起，钟鑫教练初级篮球课-¥9.9，谢枫教练高级篮球课-¥9.9，9.9篮球体验课1节-¥9.9，吴耿煌教练中级篮球课-¥9.9，傅敏毅教练中级篮球课-¥9.9，室内小班篮球培训10课时-¥1500，9.9元通用体验课一节-¥9.9，9.9元幼儿体验课一节-¥9.9，9.9元通用体验课一节-¥9.9，零基础体验课2节-¥49.9",
    "orgName": "鹭岛飓风篮球训练营（体育中心店）",
    "score": 4.6,
    "orgId": 684596381,
    "latitude": 24.4858
  },
  {
    "tags": [
      {
        "type": 2,
        "value": "评分：4.5"
      },
      {
        "type": 1,
        "value": "有充电宝"
      },
      {
        "type": 1,
        "value": "有休息区"
      },
      {
        "type": 1,
        "value": "有卫生间"
      },
      {
        "type": 1,
        "value": "无烟环境"
      },
      {
        "type": 1,
        "value": "免费茶水"
      },
      {
        "type": 1,
        "value": "免费WiFi"
      }
    ],
    "orgAddr": "思明区美仁宫大厦南梯2楼",
    "mtId": 180659879,
    "phone": "4000303096-56396",
    "desc": "营业时间：周一至周日 10:00-22:00",
    "areaCode": "350203",
    "longitude": 118.0922,
    "note": "¥1起，室内小班篮球培训3课时-¥450，谢枫教练高级篮球课-¥9.9，傅敏毅教练中级篮球课-¥9.9，室内小班篮球培训15课时-¥2200，室内小班篮球培训1课时-¥9.9，室内小班篮球培训10课时-¥1500，1元体验课一节-¥1，9.9元幼儿体验课一节-¥9.9，9.9元通用体验课一节-¥9.9，零基础体验课2节-¥49.9",
    "orgName": "鹭岛飓风篮球训练营",
    "score": 4.5,
    "orgId": 180659879,
    "latitude": 24.4625
  },
  {
    "tags": [
      {
        "type": 2,
        "value": "评分：4.6"
      },
      {
        "type": 1,
        "value": "有充电宝"
      },
      {
        "type": 1,
        "value": "有卫生间"
      },
      {
        "type": 1,
        "value": "免费WiFi"
      },
      {
        "type": 1,
        "value": "免费停车"
      }
    ],
    "orgAddr": "思明区嘉禾良库文创园1-4号131室",
    "mtId": 663448835,
    "phone": "4000303096-48578",
    "desc": "营业时间：周一至周五 10:00-12:00 14:30-21:30  周六,周日 08:30-21:30",
    "areaCode": "350203",
    "longitude": 118.1069,
    "note": "¥1起，一颗精品篮球+两节精品体验课-¥99.9，初级篮球体验课-¥19.9，一对二私教课(基础版）-¥480，零基础体验课一节-¥19.9，童鹭人不温不火体验课-¥1，一对一私教课（基础版）-¥300",
    "orgName": "童鹭人篮球馆",
    "score": 4.6,
    "orgId": 663448835,
    "latitude": 24.4642
  },
  {
    "tags": [
      {
        "type": 2,
        "value": "评分：3.5"
      },
      {
        "type": 1,
        "value": "有储物柜"
      },
      {
        "type": 1,
        "value": "有淋浴间"
      },
      {
        "type": 1,
        "value": "有卫生间"
      },
      {
        "type": 1,
        "value": "无烟环境"
      },
      {
        "type": 1,
        "value": "免费茶水"
      },
      {
        "type": 1,
        "value": "器材租赁"
      },
      {
        "type": 1,
        "value": "免费WiFi"
      }
    ],
    "orgAddr": "思明区大学路沙坡尾66号中华儿女美术馆一楼(临海一侧",
    "mtId": 1796481063,
    "phone": "4001016029-5263",
    "desc": "营业时间：周一至周日 08:30-20:30",
    "areaCode": "350203",
    "longitude": 118.0871,
    "note": "¥9.9起，【3-6年及】篮球+体能 体验课-¥9.9",
    "orgName": "竞飒体育（沙坡尾校区）",
    "score": 3.5,
    "orgId": 1796481063,
    "latitude": 24.4366
  },
  {
    "tags": [
      {
        "type": 2,
        "value": "评分：4.0"
      }
    ],
    "orgAddr": "集美区柏仕搏青少年训练馆27号",
    "mtId": 1915274607,
    "phone": "4000303096-69649",
    "desc": "营业时间：周一至周日 08:00-22:00",
    "areaCode": "350211",
    "longitude": 118.0493,
    "note": "¥19起，篮球场馆场地租用（半场）-¥70，篮球场馆场地租用-¥120，篮球场馆场地租用/人/每小时-¥20，篮球特惠体验课-¥19，篮球体验课一节-¥19.9，精品篮球2节体验课-¥29.9",
    "orgName": "兄弟连篮球训练营",
    "score": 4,
    "orgId": 1915274607,
    "latitude": 24.5664
  },
  {
    "tags": [
      {
        "type": 2,
        "value": "评分：4.9"
      },
      {
        "type": 1,
        "value": "有储物柜"
      },
      {
        "type": 1,
        "value": "有充电宝"
      },
      {
        "type": 1,
        "value": "有卫生间"
      },
      {
        "type": 1,
        "value": "无烟环境"
      },
      {
        "type": 1,
        "value": "免费茶水"
      },
      {
        "type": 1,
        "value": "免费WiFi"
      }
    ],
    "orgName": "K7儿童运动馆",
    "mtId": 1895905355,
    "phone": "4000303096-52608",
    "desc": "营业时间：周一至周五 10:00-22:00  周六,周日 10:00-22:30",
    "areaCode": "350203",
    "longitude": 118.1398,
    "note": "¥9.9起，篮球20节课-¥2960，篮球课一节-¥19.9，篮球服-¥78，篮球/体适能私教课-¥300，紧身衣-¥68",
    "orgAddr": "思明区龙山南路万物工场C区2楼",
    "score": 4.9,
    "orgId": 1895905355,
    "latitude": 24.484
  },
  {
    "tags": [
      {
        "type": 2,
        "value": "评分：4.6"
      },
      {
        "type": 1,
        "value": "有储物柜"
      },
      {
        "type": 1,
        "value": "有淋浴间"
      },
      {
        "type": 1,
        "value": "有充电宝"
      },
      {
        "type": 1,
        "value": "无烟环境"
      },
      {
        "type": 1,
        "value": "器材租赁"
      },
      {
        "type": 1,
        "value": "免费WiFi"
      }
    ],
    "orgName": "哈林秀王运动中心",
    "mtId": 1945928339,
    "phone": "4001016029-9494",
    "desc": "营业时间：周一至周日 06:00-23:00",
    "areaCode": "350203",
    "longitude": 118.1043,
    "note": "¥1起，10-12|篮球体验课-¥1，篮球暑假班-¥1，一对一篮球课-¥150，篮球寒假班-¥9.9，【散客专享】1人单次打球-¥30，【散客专享】2人单次打球-¥55，羽毛球体验课-¥9.9，乒乓球体验课-¥9.9",
    "orgAddr": "思明区万寿路29号",
    "score": 4.6,
    "orgId": 1945928339,
    "latitude": 24.4605
  },
  {
    "tags": [
      {
        "type": 2,
        "value": "评分：4.6"
      },
      {
        "type": 1,
        "value": "有储物柜"
      },
      {
        "type": 1,
        "value": "空调开放"
      },
      {
        "type": 1,
        "value": "可预订场地"
      },
      {
        "type": 1,
        "value": "有淋浴间"
      },
      {
        "type": 1,
        "value": "有充电宝"
      },
      {
        "type": 1,
        "value": "有休息区"
      },
      {
        "type": 1,
        "value": "有卫生间"
      },
      {
        "type": 1,
        "value": "无烟环境"
      },
      {
        "type": 1,
        "value": "免费茶水"
      },
      {
        "type": 1,
        "value": "免费WiFi"
      }
    ],
    "orgName": "风暴篮球训练营（白石校区）",
    "mtId": 634553324,
    "phone": "4000303096-69819",
    "desc": "营业时间：周一至周日 08:30-19:00",
    "areaCode": "350211",
    "longitude": 118.0688,
    "note": "¥9.9起，90分钟【提高班】体验课-¥9.9，90分钟【强化班】体验课-¥9.9，90分钟【精英班】体验课-¥9.9，60分钟【启蒙班】体验课-¥9.9，90分钟【战队班】体验课-¥9.9，90分钟【基础班】体验课-¥9.9",
    "orgAddr": "集美区海翔大道东宅白石三里30号楼1层1号商铺",
    "score": 4.6,
    "orgId": 634553324,
    "latitude": 24.6123
  },
  {
    "tags": [
      {
        "type": 2,
        "value": "评分：4.0"
      },
      {
        "type": 1,
        "value": "可淋浴"
      },
      {
        "type": 1,
        "value": "储物柜"
      }
    ],
    "orgName": "医瑞运动康复中心（前埔店）",
    "mtId": 1123950558,
    "phone": "18965192198",
    "desc": "营业时间：周一至周日 13:00-21:00",
    "areaCode": "350203",
    "longitude": 118.1776,
    "note": "¥99起，【2小时赛事防护保障】篮球赛/足球赛/羽毛球/排球-¥500，【关节手术复健评估与体验】膝／踝／肩／肘等-¥388",
    "orgAddr": "思明区前埔东路555号明丰财富中心B座25楼（天空之竞内）",
    "score": 4,
    "orgId": 1123950558,
    "latitude": 24.4792
  },
  {
    "tags": [
      {
        "type": 2,
        "value": "评分：3.5"
      },
      {
        "type": 1,
        "value": "无烟环境"
      },
      {
        "type": 1,
        "value": "免费WiFi"
      }
    ],
    "orgName": "哈林秀王篮球训练营（斗西校区）",
    "mtId": 976276268,
    "phone": "4000303096-53823",
    "desc": "营业时间：周一至周日 10:00-22:00",
    "areaCode": "350203",
    "longitude": 118.0865,
    "note": "¥1起，10-12|篮球体验课-¥1，篮球暑假班-¥1，篮球寒假班-¥9.9，一对一篮球课-¥150，羽毛球体验课-¥9.9",
    "orgAddr": "思明区斗西路156-158号祥和广场3楼",
    "score": 3.5,
    "orgId": 976276268,
    "latitude": 24.4633
  },
  {
    "tags": [
      {
        "type": 2,
        "value": "评分：-"
      }
    ],
    "orgName": "飞傲篮球",
    "mtId": 1430688379,
    "phone": "4001016029-8510",
    "desc": "营业时间：周一至周日 10:00-22:00",
    "areaCode": "350205",
    "longitude": 118.0481,
    "note": "¥1起，成人篮球体验课一节-¥19，3-9篮球启蒙体验课-¥99，【暑期特惠】篮球体验课一节-¥9.9，篮球一对一私教精品课-¥399，篮球体验课两节-¥99，10-14篮球启蒙体验课-¥99，暑期夏令营咨询-¥1",
    "orgAddr": "海沧区沧林东路与沧林东二路交叉口西北180米",
    "score": 0,
    "orgId": 1430688379,
    "latitude": 24.4919
  },
  {
    "tags": [
      {
        "type": 2,
        "value": "评分：3.5"
      },
      {
        "type": 1,
        "value": "空调开放"
      },
      {
        "type": 1,
        "value": "上门授课"
      },
      {
        "type": 1,
        "value": "可预订场地"
      },
      {
        "type": 1,
        "value": "有休息区"
      },
      {
        "type": 1,
        "value": "有卫生间"
      },
      {
        "type": 1,
        "value": "无烟环境"
      },
      {
        "type": 1,
        "value": "免费茶水"
      },
      {
        "type": 1,
        "value": "器材租赁"
      },
      {
        "type": 1,
        "value": "免费WiFi"
      }
    ],
    "orgName": "琦殿体育（思明体育中心校区）",
    "mtId": 194832927,
    "phone": "4000303096-45242",
    "desc": "营业时间：周一至周日 07:00-22:00",
    "areaCode": "350203",
    "longitude": 118.1075,
    "note": "¥9.9起，篮球场地预定-¥50，篮球 一对一 私教 体验课-¥99，篮球体育用品-¥100，篮球体验课-¥9.9，体能训练体验课-¥9.9，跳绳 一对一 私教 体验课-¥99",
    "orgAddr": "思明区体育2号体育中心西1看台下2-30-105",
    "score": 3.5,
    "orgId": 194832927,
    "latitude": 24.4867
  },
  {
    "tags": [
      {
        "type": 2,
        "value": "评分：4.0"
      },
      {
        "type": 1,
        "value": "有充电宝"
      },
      {
        "type": 1,
        "value": "免费WiFi"
      }
    ],
    "orgName": "准者篮球体适能培训（君尚店）",
    "mtId": 1343907039,
    "phone": "4001016029-4347",
    "desc": "营业时间：周一至周日 10:00-22:00",
    "areaCode": "350203",
    "longitude": 118.1925,
    "note": "¥9.9起，7-9专享|篮球体验课-¥9.9，90分钟篮球启蒙体验课-¥9.9，10-12专享|篮球体验课-¥9.9，篮球春季班6节45分钟入门课-¥398，4-6篮球启蒙体验课-¥9.9，【送篮球】+2节精品篮球课-¥69.9，【送篮球】+1节精品篮球课-¥29.9，4-6体能特训篮球课-¥9.9，1V1私教课-¥380",
    "orgAddr": "思明区环岛东路1803号会展北天虹购物中心1F",
    "score": 4,
    "orgId": 1343907039,
    "latitude": 24.4769
  },
  {
    "tags": [
      {
        "type": 2,
        "value": "评分：4.8"
      },
      {
        "type": 1,
        "value": "面积2000㎡ | 可容纳300人"
      }
    ],
    "orgName": "悠乐汇运动生活馆",
    "mtId": 906974699,
    "phone": "15306091886",
    "desc": "营业时间：周一至周日 09:30-22:00",
    "areaCode": "350205",
    "longitude": 118.0389,
    "note": "¥15.9起，火箭篮球体深度规划课三节-¥19.9",
    "orgAddr": "海沧区嵩屿南二路99号厦门海联综合楼201室",
    "score": 4.8,
    "orgId": 906974699,
    "latitude": 24.4545
  },
  {
    "tags": [
      {
        "type": 2,
        "value": "评分：3.5"
      },
      {
        "type": 1,
        "value": "有充电宝"
      },
      {
        "type": 1,
        "value": "免费茶水"
      },
      {
        "type": 1,
        "value": "免费WiFi"
      }
    ],
    "orgName": "鹭岛飓风篮球训练营（东浦店）",
    "mtId": 1131065509,
    "phone": "4000303096-89272",
    "desc": "营业时间：周一至周日 10:00-22:00",
    "areaCode": "350203",
    "longitude": 118.1294,
    "note": "¥1起，9.9篮球体验课1节-¥9.9，成人篮球畅打门票1小时-¥200，室内小班篮球培训1课时-¥1，室内小班篮球培训3课时-¥450，室内小班篮球培训1课时-¥9.9，室内小班篮球培训10课时-¥1500，9.9元通用体验课一节-¥9.9，9.9元幼儿体验课一节-¥9.9，零基础体验课2节-¥49.9，1元体验课一节-¥1",
    "orgAddr": "思明区浦南一路35号1层",
    "score": 3.5,
    "orgId": 1131065509,
    "latitude": 24.4714
  },
  {
    "tags": [
      {
        "type": 2,
        "value": "评分：4.0"
      },
      {
        "type": 1,
        "value": "有储物柜"
      },
      {
        "type": 1,
        "value": "无烟环境"
      },
      {
        "type": 1,
        "value": "免费茶水"
      },
      {
        "type": 1,
        "value": "免费WiFi"
      }
    ],
    "orgAddr": "湖里区五缘湾道湾悦城购物中心5楼天空球场",
    "mtId": 544735861,
    "phone": "4001016029-5497",
    "desc": "营业时间：周一至周日 10:00-22:00",
    "areaCode": "350206",
    "longitude": 118.1616,
    "note": "¥158起，室外小班篮球培训4课时-¥158，室内小班篮球培训2课时-¥300，体适能秋季体验课4次课-¥158",
    "orgName": "智信体育（湾悦城校区）",
    "score": 4,
    "orgId": 544735861,
    "latitude": 24.5156
  },
  {
    "tags": [
      {
        "type": 2,
        "value": "评分：3.5"
      }
    ],
    "orgAddr": "集美区集源路31号886文创园101",
    "mtId": 843012615,
    "phone": "4000303096-79265",
    "desc": "营业时间：周一至周日 10:00-22:00",
    "areaCode": "350211",
    "longitude": 118.1014,
    "note": "¥9.9起，【四店可约】3-7 篮球体验课-¥9.9，【四店可约】8-14 篮球体验课-¥9.9，【9-15】体考体育-¥9.9，【两店可约】3-7 幼儿体适能-¥9.9，平衡车体验课-¥9.9",
    "orgName": "篮博万体育",
    "score": 3.5,
    "orgId": 843012615,
    "latitude": 24.5753
  },
  {
    "tags": [
      {
        "type": 2,
        "value": "评分：4.1"
      },
      {
        "type": 1,
        "value": "有淋浴间"
      },
      {
        "type": 1,
        "value": "免费WiFi"
      }
    ],
    "orgAddr": "思明区洪莲西路31号7-3室",
    "mtId": 909996765,
    "phone": "18859220660",
    "desc": "营业时间：周一至周日 10:00-22:00",
    "areaCode": "350203",
    "longitude": 118.1591,
    "note": "",
    "orgName": "向壹篮球",
    "score": 4.1,
    "orgId": 909996765,
    "latitude": 24.4814
  },
  {
    "tags": [
      {
        "type": 2,
        "value": "评分：3.5"
      }
    ],
    "orgAddr": "思明区文屏路嘉禾良库2号仓",
    "mtId": 1796069426,
    "phone": "18659210989",
    "desc": "营业时间：周一至周日 10:00-22:00",
    "areaCode": "350203",
    "longitude": 118.1078,
    "note": "",
    "orgName": "劲兔篮球俱乐部",
    "score": 3.5,
    "orgId": 1796069426,
    "latitude": 24.4646
  },
  {
    "tags": [
      {
        "type": 2,
        "value": "评分：4.0"
      },
      {
        "type": 1,
        "value": "有储物柜"
      },
      {
        "type": 1,
        "value": "有充电宝"
      },
      {
        "type": 1,
        "value": "无烟环境"
      },
      {
        "type": 1,
        "value": "免费茶水"
      },
      {
        "type": 1,
        "value": "免费WiFi"
      }
    ],
    "orgAddr": "思明区体育中心北3台",
    "mtId": 784910376,
    "phone": "4000303096-59149",
    "desc": "营业时间：周一至周日 08:00-21:00",
    "areaCode": "350203",
    "longitude": 118.1082,
    "note": "¥9.9起，【3-6年及】篮球+体能 体验课-¥9.9",
    "orgName": "竞飒体育（体育中心校区）",
    "score": 4,
    "orgId": 784910376,
    "latitude": 24.4872
  },
  {
    "tags": [
      {
        "type": 2,
        "value": "评分：4.6"
      },
      {
        "type": 1,
        "value": "有充电宝"
      },
      {
        "type": 1,
        "value": "有卫生间"
      },
      {
        "type": 1,
        "value": "器材租赁"
      },
      {
        "type": 1,
        "value": "免费WiFi"
      }
    ],
    "orgAddr": "湖里区兴隆路88-2号104室",
    "mtId": 1368413477,
    "phone": "13606089936",
    "desc": "营业时间：周六,周日 08:00-22:30  周一至周五 09:30-22:30",
    "areaCode": "350206",
    "longitude": 118.1068,
    "note": "",
    "orgName": "鹭人甲体育（湖里灿坤校区）",
    "score": 4.6,
    "orgId": 1368413477,
    "latitude": 24.5074
  },
  {
    "tags": [
      {
        "type": 2,
        "value": "评分：4.5"
      },
      {
        "type": 1,
        "value": "有卫生间"
      },
      {
        "type": 1,
        "value": "免费WiFi"
      }
    ],
    "orgAddr": "湖里区钟岭路88-101号（创享天地运动馆A馆）",
    "mtId": 769004107,
    "phone": "4000303096-23149",
    "desc": "营业时间：周一至周日 09:00-22:00",
    "areaCode": "350206",
    "longitude": 118.1595,
    "note": "¥9.9起，【年龄12-16】+1节篮球课-¥9.9，【年龄4-6】1节篮球课-¥9.9，【年龄10-12】1节篮球课-¥9.9，【全龄段】篮球启蒙线下体验课（支付时勾选电话）-¥1500，【年龄7-9】1节篮球课-¥9.9，【送护腕】+1节篮球课-¥9.9，【送发带】+1节篮球课-¥9.9，【送篮球】+2节篮球课-¥78",
    "orgName": "梦凡体育少儿篮球培训（五缘湾店）",
    "score": 4.5,
    "orgId": 769004107,
    "latitude": 24.5312
  },
  {
    "tags": [
      {
        "type": 2,
        "value": "评分：4.7"
      },
      {
        "type": 1,
        "value": "中医正骨"
      },
      {
        "type": 1,
        "value": "中医调理"
      },
      {
        "type": 1,
        "value": "中医敷贴"
      },
      {
        "type": 1,
        "value": "中医康复科"
      }
    ],
    "orgAddr": "思明区厦禾路139号永安盛大厦13楼（银行中心旁）",
    "mtId": 1672888447,
    "phone": "0592-5886718/18150901816",
    "desc": "营业时间：周一至周日 09:00-18:00",
    "areaCode": "350203",
    "longitude": 118.0784,
    "note": "¥99起，【2小时赛事保障服务】篮球赛/足球赛/羽毛球/排球-¥500",
    "orgName": "医瑞运动康复中心（思北店）",
    "score": 4.7,
    "orgId": 1672888447,
    "latitude": 24.4602
  },
  {
    "tags": [
      {
        "type": 2,
        "value": "评分：3.0"
      }
    ],
    "orgAddr": "集美区洪埭路117号",
    "mtId": 180798492,
    "phone": "0592-6288255",
    "desc": "营业时间：周一至周日 10:00-22:00",
    "areaCode": "350211",
    "longitude": 118.0459,
    "note": "",
    "orgName": "厦门炫锋体育文化推广有限公司",
    "score": 3,
    "orgId": 180798492,
    "latitude": 24.563
  },
  {
    "tags": [
      {
        "type": 2,
        "value": "评分：4.0"
      },
      {
        "type": 1,
        "value": "可预订场地"
      },
      {
        "type": 1,
        "value": "有充电宝"
      },
      {
        "type": 1,
        "value": "有卫生间"
      },
      {
        "type": 1,
        "value": "无烟环境"
      },
      {
        "type": 1,
        "value": "免费WiFi"
      }
    ],
    "orgName": "英杰篮球训练营（五缘湾店）",
    "mtId": 1740140931,
    "phone": "4001016029-2652",
    "desc": "营业时间：周一至周日 10:00-22:00",
    "areaCode": "350206",
    "longitude": 118.159,
    "note": "¥9.9起，4-6 篮球运动启蒙班-¥9.9，6-8 兴趣培养篮球体验课-¥9.9，12-14 营地训练篮球课程-¥9.9，10-12 团队塑造篮球体验课-¥9.9，8-10 基础培养篮球体验课-¥9.9，12-16 专业进阶篮球训练体验课-¥9.9",
    "orgAddr": "湖里区钟岭路88号创享天地篮球场旁",
    "score": 4,
    "orgId": 1740140931,
    "latitude": 24.5314
  },
  {
    "tags": [
      {
        "type": 2,
        "value": "评分：4.4"
      },
      {
        "type": 1,
        "value": "有充电宝"
      },
      {
        "type": 1,
        "value": "有卫生间"
      },
      {
        "type": 1,
        "value": "无烟环境"
      },
      {
        "type": 1,
        "value": "免费茶水"
      },
      {
        "type": 1,
        "value": "免费WiFi"
      }
    ],
    "orgName": "开普昂少儿体能中心（海沧西雅图店）",
    "mtId": 1647796827,
    "phone": "18850587919/18020768011",
    "desc": "营业时间：周一至周日 10:00-22:00",
    "areaCode": "350205",
    "longitude": 118.0288,
    "note": "¥1起",
    "orgAddr": "海沧区西雅图购物中心（马青路地铁2号出口）",
    "score": 4.4,
    "orgId": 1647796827,
    "latitude": 24.4944
  },
  {
    "tags": [
      {
        "type": 2,
        "value": "评分：4.1"
      }
    ],
    "orgName": "逍遥优质胡辣汤（石村篮球场）",
    "mtId": 191808756,
    "phone": "",
    "desc": "营业时间：",
    "areaCode": "350203",
    "longitude": 118.1679,
    "note": "",
    "orgAddr": "思明区莲前街道洪文石村社北片区312南片55-109室",
    "score": 4.1,
    "orgId": 191808756,
    "latitude": 24.4794
  },
  {
    "tags": [
      {
        "type": 2,
        "value": "评分：4.8"
      },
      {
        "type": 1,
        "value": "有充电宝"
      },
      {
        "type": 1,
        "value": "有卫生间"
      },
      {
        "type": 1,
        "value": "免费WiFi"
      }
    ],
    "orgName": "开普昂少儿体能中心（集美ioi中心）",
    "mtId": 997742082,
    "phone": "18205900013/18020768011",
    "desc": "营业时间：周一至周日 10:00-21:00",
    "areaCode": "350211",
    "longitude": 118.0753,
    "note": "¥1起，开普昂篮球体验课-¥9.9，篮球体验课-¥9.9",
    "orgAddr": "集美区杏林湾路ioiMALL3层327号",
    "score": 4.8,
    "orgId": 997742082,
    "latitude": 24.6004
  },
  {
    "tags": [
      {
        "type": 2,
        "value": "评分：3.0"
      },
      {
        "type": 1,
        "value": "有充电宝"
      },
      {
        "type": 1,
        "value": "免费WiFi"
      }
    ],
    "orgName": "厦门新空气体育少儿篮球训练基地",
    "mtId": 190354932,
    "phone": "19859212522/18659779580",
    "desc": "营业时间：周一至周日 10:00-22:00",
    "areaCode": "350206",
    "longitude": 118.15,
    "note": "",
    "orgAddr": "湖里区县后阳光公寓东二里4-2-103号",
    "score": 3,
    "orgId": 190354932,
    "latitude": 24.5271
  },
  {
    "tags": [
      {
        "type": 2,
        "value": "评分：3.5"
      }
    ],
    "orgName": "奇恩创体育·篮球少儿体适能馆",
    "mtId": 1989655710,
    "phone": "4000303096-82159",
    "desc": "营业时间：周一至周日 10:00-22:00",
    "areaCode": "350206",
    "longitude": 118.1549,
    "note": "¥9.9起，场地租赁/企业团建定制服务-¥9.9，【年龄2-7】篮球精品体验课-¥9.9，奇恩篮球体验课-¥9.9，【年龄10-12】篮球精品体验课-¥9.9，【年龄8-10】篮球精品体验课-¥9.9，【年龄12-16】篮球精品体验课-¥9.9，奇恩体适能体验课-¥9.9",
    "orgAddr": "湖里区蔡塘商业中心A栋1008号108室",
    "score": 3.5,
    "orgId": 1989655710,
    "latitude": 24.484
  },
  {
    "tags": [
      {
        "type": 2,
        "value": "评分：4.0"
      },
      {
        "type": 1,
        "value": "空调开放"
      },
      {
        "type": 1,
        "value": "专业队输送点"
      },
      {
        "type": 1,
        "value": "有充电宝"
      },
      {
        "type": 1,
        "value": "有休息区"
      },
      {
        "type": 1,
        "value": "无烟环境"
      },
      {
        "type": 1,
        "value": "免费茶水"
      },
      {
        "type": 1,
        "value": "免费WiFi"
      }
    ],
    "orgName": "爱酷少儿体适能（君尚店）",
    "mtId": 828887207,
    "phone": "4000303096-69535",
    "desc": "营业时间：周一至周日 10:00-22:00",
    "areaCode": "350203",
    "longitude": 118.1921,
    "note": "¥8.8起，【5-12】篮球体能体验课-¥8.8",
    "orgAddr": "思明区环岛东路1803号会展北天虹购物中心L3层3011A铺",
    "score": 4,
    "orgId": 828887207,
    "latitude": 24.4764
  },
  {
    "tags": [
      {
        "type": 2,
        "value": "评分：3.5"
      },
      {
        "type": 1,
        "value": "无烟环境"
      },
      {
        "type": 1,
        "value": "免费茶水"
      },
      {
        "type": 1,
        "value": "免费WiFi"
      }
    ],
    "orgAddr": "思明区吕岭路1597号",
    "mtId": 1793788592,
    "phone": "4001016029-3713",
    "desc": "营业时间：周一至周日 10:00-22:00",
    "areaCode": "350203",
    "longitude": 118.1714,
    "note": "¥9.9起，U10小篮球+体适能试听课-¥9.9，U4小篮球+体适能试听课-¥9.9，U6小篮球+体适能试听课-¥9.9，U12小篮球+体适能试听课-¥9.9，U8小篮球+体适能试听课-¥9.9",
    "orgName": "唯玩星球少儿篮球运动馆（宝龙一城店）",
    "score": 3.5,
    "orgId": 1793788592,
    "latitude": 24.4858
  },
  {
    "tags": [
      {
        "type": 2,
        "value": "评分：3.5"
      }
    ],
    "orgAddr": "湖里区冠军路1号（中国乒乓训练基地乒羽篮球馆）",
    "mtId": 168097175,
    "phone": "18065925507",
    "desc": "营业时间：周一至周日 10:00-22:00",
    "areaCode": "350206",
    "longitude": 118.0949,
    "note": "",
    "orgName": "英杰篮球训练营（英杰体育）",
    "score": 3.5,
    "orgId": 168097175,
    "latitude": 24.5013
  },
  {
    "tags": [
      {
        "type": 2,
        "value": "评分：4.7"
      },
      {
        "type": 1,
        "value": "空调开放"
      },
      {
        "type": 1,
        "value": "可预订场地"
      },
      {
        "type": 1,
        "value": "有淋浴间"
      },
      {
        "type": 1,
        "value": "有充电宝"
      },
      {
        "type": 1,
        "value": "有休息区"
      },
      {
        "type": 1,
        "value": "有卫生间"
      },
      {
        "type": 1,
        "value": "免费茶水"
      }
    ],
    "orgAddr": "湖里区永建顶尚175号102门店",
    "mtId": 1787076765,
    "phone": "4000303096-15739",
    "desc": "营业时间：周一至周日 09:00-22:00",
    "areaCode": "350206",
    "longitude": 118.1501,
    "note": "¥9.9起，4-6综合篮球体能课-¥9.9，3-6室内小班体适能课程-¥9.9，7-10综合篮球体能课程-¥9.9",
    "orgName": "狒特少儿篮球体能中心",
    "score": 4.7,
    "orgId": 1787076765,
    "latitude": 24.513
  },
  {
    "tags": [
      {
        "type": 2,
        "value": "评分：4.0"
      },
      {
        "type": 1,
        "value": "无烟环境"
      }
    ],
    "orgAddr": "思明区七星西路3号欢乐颂二楼L244号",
    "mtId": 1500501138,
    "phone": "4000303096-42674",
    "desc": "营业时间：周一至周日 08:30-21:30",
    "areaCode": "350203",
    "longitude": 118.0959,
    "note": "¥1起，U4-U17篮球基础训练课-¥137，U4-U17篮球基础训练课-¥9.9，U4-U17暑假体验课-¥1，体适能体验课-¥198，3节课学会篮球“左右手运球”-¥298，【拼团9.9】U4-U17篮球基础训练课-¥274，代金券-¥1",
    "orgName": "鲸少年运动馆（欢乐颂店）",
    "score": 4,
    "orgId": 1500501138,
    "latitude": 24.4862
  },
  {
    "tags": [
      {
        "type": 2,
        "value": "评分：3.5"
      },
      {
        "type": 1,
        "value": "有卫生间"
      },
      {
        "type": 1,
        "value": "免费茶水"
      },
      {
        "type": 1,
        "value": "免费WiFi"
      }
    ],
    "orgAddr": "思明区龙山文创园龙山南路84号-111室",
    "mtId": 1868440845,
    "phone": "15160444448",
    "desc": "营业时间：周一至周日 10:00-22:00",
    "areaCode": "350203",
    "longitude": 118.1392,
    "note": "",
    "orgName": "小霸王训练中心（龙山校区）",
    "score": 3.5,
    "orgId": 1868440845,
    "latitude": 24.4827
  },
  {
    "tags": [
      {
        "type": 2,
        "value": "评分：5.0"
      },
      {
        "type": 1,
        "value": "有储物柜"
      },
      {
        "type": 1,
        "value": "有充电宝"
      },
      {
        "type": 1,
        "value": "免费WiFi"
      }
    ],
    "orgAddr": "湖里区仙岳路4688号116室银泰百货1楼5号门（国贸中心）",
    "mtId": 1526950797,
    "phone": "18205900013/18020768011",
    "desc": "营业时间：周一至周日 10:00-22:00",
    "areaCode": "350206",
    "longitude": 118.18,
    "note": "¥1起，开普昂篮球体验课-¥9.9，篮球体验课-¥9.9",
    "orgName": "开普昂少儿体能中心（国贸中心校区）",
    "score": 5,
    "orgId": 1526950797,
    "latitude": 24.507
  },
  {
    "tags": [
      {
        "type": 2,
        "value": "评分：5.0"
      }
    ],
    "orgName": "爱球鞋·专业篮球鞋修复洗护",
    "mtId": 841307799,
    "phone": "15960285703",
    "desc": "营业时间：周一至周日 10:00-12:00 15:00-18:00 20:00-22:00",
    "areaCode": "350203",
    "longitude": 118.1099,
    "note": "¥40起，篮球鞋专业深度精洗-¥40，实战篮球鞋换鞋底+换气垫-¥350，实战篮球鞋换鞋底-¥220，换内衬-¥260，AJ11换漆皮-¥450，库里8换鞋底-¥350，Air Max720换鞋底-¥450，AJ3换鞋底-¥400，1双休闲鞋/跑步鞋任意洗-¥40，Vapor Max气垫跑步鞋换鞋底-¥450",
    "orgAddr": "思明区湖滨北路体育中心南二门(体育路2-33)（洗车店旁）",
    "score": 5,
    "orgId": 841307799,
    "latitude": 24.4851
  },
  {
    "tags": [
      {
        "type": 2,
        "value": "评分：3.5"
      },
      {
        "type": 1,
        "value": "有储物柜"
      },
      {
        "type": 1,
        "value": "有充电宝"
      },
      {
        "type": 1,
        "value": "有休息区"
      },
      {
        "type": 1,
        "value": "有卫生间"
      },
      {
        "type": 1,
        "value": "无烟环境"
      },
      {
        "type": 1,
        "value": "免费茶水"
      },
      {
        "type": 1,
        "value": "免费WiFi"
      }
    ],
    "orgName": "八皮体育少儿体育综合训练营",
    "mtId": 1274191849,
    "phone": "4001016029-7035",
    "desc": "营业时间：周六,周日 08:00-10:30 15:30-20:30  周一至周五 15:00-20:30",
    "areaCode": "350203",
    "longitude": 118.1081,
    "note": "¥9.9起，【暑期档】篮球 体验课-¥9.9，【暑期档】身体素质 体验课-¥9.9，篮球 一对一 私教体验课-¥199，【暑期档】中铐体育 体验课-¥9.9，【暑期档】体适能 体验课-¥9.9",
    "orgAddr": "思明区体育中心北四店面",
    "score": 3.5,
    "orgId": 1274191849,
    "latitude": 24.4873
  },
  {
    "tags": [
      {
        "type": 2,
        "value": "评分：4.7"
      },
      {
        "type": 1,
        "value": "回头客多"
      },
      {
        "type": 1,
        "value": "实体店洗护"
      }
    ],
    "orgName": "嗯小马洗鞋",
    "mtId": 1762837491,
    "phone": "13779951376",
    "desc": "营业时间：周一至周日 09:00-22:00",
    "areaCode": "350211",
    "longitude": 118.053,
    "note": "¥1起，乔丹皮面篮球鞋清洗（满50免费配送）-¥59.9，乔丹翻毛皮篮球鞋清洗（满50免费配送）-¥69.9",
    "orgAddr": "集美区珩圣路8号泊寓13楼1304",
    "score": 4.7,
    "orgId": 1762837491,
    "latitude": 24.6244
  },
  {
    "tags": [
      {
        "type": 2,
        "value": "评分：-"
      }
    ],
    "orgName": "沙县小吃（塘边篮球场店）",
    "mtId": 152554402,
    "phone": "13459260598",
    "desc": "营业时间：",
    "areaCode": "350206",
    "longitude": 118.116,
    "note": "",
    "orgAddr": "湖里区塘边社86号",
    "score": 0,
    "orgId": 152554402,
    "latitude": 24.5075
  },
  {
    "tags": [
      {
        "type": 2,
        "value": "评分：4.0"
      },
      {
        "type": 1,
        "value": "有储物柜"
      },
      {
        "type": 1,
        "value": "有充电宝"
      },
      {
        "type": 1,
        "value": "有卫生间"
      },
      {
        "type": 1,
        "value": "无烟环境"
      },
      {
        "type": 1,
        "value": "免费茶水"
      },
      {
        "type": 1,
        "value": "免费WiFi"
      }
    ],
    "orgName": "智信体育（海沧体育中心校区）",
    "mtId": 1858444192,
    "phone": "4000303096-57541",
    "desc": "营业时间：周一至周日 10:00-22:00",
    "areaCode": "350205",
    "longitude": 118.0299,
    "note": "¥158起，室外小班篮球培训4课时-¥158，室内小班篮球培训2课时-¥300",
    "orgAddr": "海沧区兴港路",
    "score": 4,
    "orgId": 1858444192,
    "latitude": 24.4695
  },
  {
    "tags": [
      {
        "type": 2,
        "value": "评分：3.8"
      }
    ],
    "orgName": "阳易网球俱乐部",
    "mtId": 875206182,
    "phone": "18876320159/13779902141",
    "desc": "营业时间：周一至周日 07:00-23:00",
    "areaCode": "350203",
    "longitude": 118.0923,
    "note": "¥68起，【新鲜玩意】篮球 体适能体验-¥88",
    "orgAddr": "思明区湖滨中路503-517号",
    "score": 3.8,
    "orgId": 875206182,
    "latitude": 24.4842
  },
  {
    "tags": [
      {
        "type": 2,
        "value": "评分：3.5"
      }
    ],
    "orgName": "樱木小将篮球培训中心（象屿店）",
    "mtId": 1067543368,
    "phone": "15659260669",
    "desc": "营业时间：周一至周日 09:00-22:00",
    "areaCode": "350206",
    "longitude": 118.0997,
    "note": "",
    "orgAddr": "湖里区长虹路厦门跨境电商产业园2号楼121室",
    "score": 3.5,
    "orgId": 1067543368,
    "latitude": 24.5192
  },
  {
    "tags": [
      {
        "type": 2,
        "value": "评分：4.0"
      },
      {
        "type": 1,
        "value": "有储物柜"
      },
      {
        "type": 1,
        "value": "无烟环境"
      },
      {
        "type": 1,
        "value": "免费茶水"
      },
      {
        "type": 1,
        "value": "免费WiFi"
      }
    ],
    "orgAddr": "海沧区未来海岸阿罗海广场二楼",
    "mtId": 812089979,
    "phone": "4000303096-64108",
    "desc": "营业时间：周二至周日 09:00-20:30",
    "areaCode": "350205",
    "longitude": 118.0329,
    "note": "¥158起，室外小班篮球培训4课时-¥158，体适能秋季体验课4次课-¥158，室内小班篮球培训2课时-¥300",
    "orgName": "智信体育（海沧未来海岸校区）",
    "score": 4,
    "orgId": 812089979,
    "latitude": 24.4596
  },
  {
    "tags": [
      {
        "type": 2,
        "value": "评分：3.5"
      },
      {
        "type": 1,
        "value": "有储物柜"
      },
      {
        "type": 1,
        "value": "免费WiFi"
      }
    ],
    "orgAddr": "思明区霞溪路名汇广场中庭豪家辉主题公寓隔壁",
    "mtId": 505276118,
    "phone": "15159157795",
    "desc": "营业时间：周一至周日 10:00-22:00",
    "areaCode": "350203",
    "longitude": 118.0829,
    "note": "",
    "orgName": "樱木小将篮球培训中心（名汇广场店）",
    "score": 3.5,
    "orgId": 505276118,
    "latitude": 24.4554
  },
  {
    "tags": [
      {
        "type": 2,
        "value": "评分：3.5"
      },
      {
        "type": 1,
        "value": "免费WiFi"
      }
    ],
    "orgAddr": "思明区文屏西路18号（地丰体育文化中心）",
    "mtId": 169424947,
    "phone": "17338753400",
    "desc": "营业时间：周一至周日 09:00-21:00",
    "areaCode": "350203",
    "longitude": 118.1058,
    "note": "",
    "orgName": "哈林秀王国际英语篮球营",
    "score": 3.5,
    "orgId": 169424947,
    "latitude": 24.4619
  },
  {
    "tags": [
      {
        "type": 2,
        "value": "评分：4.6"
      },
      {
        "type": 1,
        "value": "空调开放"
      },
      {
        "type": 1,
        "value": "可预订场地"
      },
      {
        "type": 1,
        "value": "有充电宝"
      },
      {
        "type": 1,
        "value": "有休息区"
      },
      {
        "type": 1,
        "value": "无烟环境"
      },
      {
        "type": 1,
        "value": "免费茶水"
      },
      {
        "type": 1,
        "value": "免费WiFi"
      }
    ],
    "orgAddr": "思明区七星西路3号欢乐颂2楼",
    "mtId": 1209923210,
    "phone": "4000303096-69523",
    "desc": "营业时间：周一至周日 10:00-22:00",
    "areaCode": "350203",
    "longitude": 118.0958,
    "note": "¥1起，开普昂篮球体验课-¥9.9，篮球体验课-¥9.9",
    "orgName": "开普昂少儿体能中心（思明欢乐颂中心）",
    "score": 4.6,
    "orgId": 1209923210,
    "latitude": 24.4867
  },
  {
    "tags": [
      {
        "type": 2,
        "value": "评分：4.6"
      },
      {
        "type": 1,
        "value": "有充电宝"
      },
      {
        "type": 1,
        "value": "免费WiFi"
      }
    ],
    "orgAddr": "思明区万寿路6-8号2层8-220室",
    "mtId": 1148144168,
    "phone": "4000303096-85698",
    "desc": "营业时间：周一至周日 10:00-22:00",
    "areaCode": "350203",
    "longitude": 118.1014,
    "note": "¥9.9起，【4-6】篮球体验课1节-¥19.9，【开学季】体适能体验课1节-¥9.9，【8-10】篮球体验课-¥19.9，【3-10】寒暑假班级篮球课-¥9.9，【6-8】篮球体验课1节-¥9.9",
    "orgName": "城市玩家少儿篮球",
    "score": 4.6,
    "orgId": 1148144168,
    "latitude": 24.4598
  },
  {
    "tags": [
      {
        "type": 2,
        "value": "评分：4.0"
      }
    ],
    "orgAddr": "思明区梧村街道厦禾路839号汇成商业中心1层",
    "mtId": 1547026,
    "phone": "0592-5807300/18030022950",
    "desc": "营业时间：周一至周日 09:00-20:00",
    "areaCode": "350203",
    "longitude": 118.1047,
    "note": "",
    "orgName": "劲兔运动馆",
    "score": 4,
    "orgId": 1547026,
    "latitude": 24.467
  },
  {
    "tags": [
      {
        "type": 2,
        "value": "评分：5.0"
      },
      {
        "type": 1,
        "value": "有淋浴间"
      },
      {
        "type": 1,
        "value": "免费点心"
      },
      {
        "type": 1,
        "value": "免费WiFi"
      }
    ],
    "orgAddr": "思明区洪莲路厦门牛庄文创园20号楼（加州商业广场旁）",
    "mtId": 189169433,
    "phone": "4001016029-3795",
    "desc": "营业时间：周一至周日 09:00-12:30 14:00-21:30",
    "areaCode": "350203",
    "longitude": 118.1596,
    "note": "¥9.8起，幼儿篮球团体课（首次体验）-¥9.8，篮球（首次体验）-¥9.8，学童学生篮球团体课（人气体验推荐）-¥9.8，幼儿学生篮球小班课（人气体验推荐）-¥9.8",
    "orgName": "水育巢亲子游泳俱乐部（牛庄店）",
    "score": 5,
    "orgId": 189169433,
    "latitude": 24.4781
  },
  {
    "tags": [
      {
        "type": 2,
        "value": "评分：-"
      }
    ],
    "orgAddr": "集美区杏林镇岑马路43号",
    "mtId": 1895422243,
    "phone": "",
    "desc": "营业时间：",
    "areaCode": "350211",
    "longitude": 118.0325,
    "note": "",
    "orgName": "岑尾篮球厂",
    "score": 0,
    "orgId": 1895422243,
    "latitude": 24.5582
  },
  {
    "tags": [
      {
        "type": 2,
        "value": "评分：4.9"
      },
      {
        "type": 1,
        "value": "有充电宝"
      },
      {
        "type": 1,
        "value": "免费WiFi"
      },
      {
        "type": 1,
        "value": "付费停车"
      }
    ],
    "orgName": "开普昂少儿体能中心（体育中心校区）",
    "mtId": 1699917255,
    "phone": "18959203028/18020768011",
    "desc": "营业时间：周一至周日 10:00-22:00",
    "areaCode": "350205",
    "longitude": 118.0323,
    "note": "¥1起，开普昂篮球体验课-¥9.9，篮球体验课-¥9.9",
    "orgAddr": "海沧区嵩屿街道海沧体育中心商铺A129号",
    "score": 4.9,
    "orgId": 1699917255,
    "latitude": 24.4713
  },
  {
    "tags": [
      {
        "type": 2,
        "value": "评分：4.0"
      },
      {
        "type": 1,
        "value": "有淋浴间"
      },
      {
        "type": 1,
        "value": "有充电宝"
      },
      {
        "type": 1,
        "value": "免费茶水"
      },
      {
        "type": 1,
        "value": "免费WiFi"
      }
    ],
    "orgName": "啵啵运动表现家",
    "mtId": 1872904053,
    "phone": "4001016029-8198",
    "desc": "营业时间：周三至周日 09:00-21:00",
    "areaCode": "350211",
    "longitude": 118.1015,
    "note": "¥29.9起，篮球综合运动体验课-¥29.9",
    "orgAddr": "集美区886文创园二楼",
    "score": 4,
    "orgId": 1872904053,
    "latitude": 24.5756
  },
  {
    "tags": [
      {
        "type": 2,
        "value": "评分：4.3"
      },
      {
        "type": 1,
        "value": "回头客多"
      }
    ],
    "orgName": "鞋护士专业洗鞋店",
    "mtId": 1168584943,
    "phone": "15159281605",
    "desc": "营业时间：周一至周日 10:00-21:00",
    "areaCode": "350211",
    "longitude": 118.0804,
    "note": "¥19.9起，洗1双椰子aj系篮球运动鞋干精洗鞋+杀菌除臭-¥35，3双高档运动鞋aj椰子空军篮球运动鞋清干洗修复翻新-¥115，【纯手工洗】任意4双洗运动鞋/篮球鞋麦昆空军老爹鞋-¥160，球鞋换底篮球鞋换底AJ联名鞋-¥189，【新客专享】5双任洗AJ椰子皮鞋运动小白篮球运动鞋-¥125",
    "orgAddr": "集美区后溪镇孙坂南路港头二里95号103",
    "score": 4.3,
    "orgId": 1168584943,
    "latitude": 24.6175
  },
  {
    "tags": [
      {
        "type": 2,
        "value": "评分：3.8"
      },
      {
        "type": 1,
        "value": "游泳池"
      },
      {
        "type": 1,
        "value": "可淋浴"
      }
    ],
    "orgName": "191运动空间·篮球馆（TBK商业中心店）",
    "mtId": 941223519,
    "phone": "15105990237/18559299527",
    "desc": "营业时间：周一至周日 08:00-22:00",
    "areaCode": "350206",
    "longitude": 118.1385,
    "note": "",
    "orgAddr": "湖里区金湖路5号枋湖客运中心内",
    "score": 3.8,
    "orgId": 941223519,
    "latitude": 24.5087
  },
  {
    "tags": [
      {
        "type": 2,
        "value": "评分：-"
      }
    ],
    "orgName": "黑液47号篮球工厂",
    "mtId": 1383080327,
    "phone": "18050108067",
    "desc": "营业时间：周一至周日 09:00-22:00",
    "areaCode": "350206",
    "longitude": 118.1364,
    "note": "",
    "orgAddr": "湖里区成功大道枋湖工业小区47号",
    "score": 0,
    "orgId": 1383080327,
    "latitude": 24.5136
  },
  {
    "tags": [
      {
        "type": 2,
        "value": "评分：-"
      }
    ],
    "orgName": "辛巴篮球公园",
    "mtId": 66883405,
    "phone": "18659210989",
    "desc": "营业时间：周一至周日 10:00-22:00",
    "areaCode": "350203",
    "longitude": 118.1752,
    "note": "",
    "orgAddr": "思明区前埔东路前埔工业园34号",
    "score": 0,
    "orgId": 66883405,
    "latitude": 24.4776
  },
  {
    "tags": [
      {
        "type": 2,
        "value": "评分：-"
      }
    ],
    "orgName": "体育中心篮球场",
    "mtId": 84672302,
    "phone": "0592-5399159",
    "desc": "营业时间：周一至周日 10:00-22:00",
    "areaCode": "350203",
    "longitude": 118.1077,
    "note": "",
    "orgAddr": "思明区体育路82号",
    "score": 0,
    "orgId": 84672302,
    "latitude": 24.4848
  },
  {
    "tags": [
      {
        "type": 2,
        "value": "评分：-"
      }
    ],
    "orgName": "泥金篮球场",
    "mtId": 85892425,
    "phone": "",
    "desc": "营业时间：",
    "areaCode": "350206",
    "longitude": 118.1919,
    "note": "",
    "orgAddr": "湖里区泥金社629号502室",
    "score": 0,
    "orgId": 85892425,
    "latitude": 24.5099
  },
  {
    "tags": [
      {
        "type": 2,
        "value": "评分：3.0"
      }
    ],
    "orgName": "鹭人甲体育（牛头山校区）",
    "mtId": 680653350,
    "phone": "18120779183",
    "desc": "营业时间：周一至周日 10:00-22:00",
    "areaCode": "350206",
    "longitude": 118.0831,
    "note": "",
    "orgAddr": "湖里区东渡路127-39号",
    "score": 3,
    "orgId": 680653350,
    "latitude": 24.4935
  },
  {
    "tags": [
      {
        "type": 2,
        "value": "评分：-"
      }
    ],
    "orgName": "围里社区篮球场",
    "mtId": 165118448,
    "phone": "18359726231",
    "desc": "营业时间：周一至周五 08:30-10:30 14:30-18:00  周六,周日 08:30-11:30 14:30-21:30",
    "areaCode": "350206",
    "longitude": 118.1473,
    "note": "",
    "orgAddr": "湖里区围里社256号对面",
    "score": 0,
    "orgId": 165118448,
    "latitude": 24.5305
  },
  {
    "tags": [
      {
        "type": 2,
        "value": "评分：-"
      }
    ],
    "orgAddr": "海沧区嵩屿街道未来城堡渐美里84号店面",
    "mtId": 1899961902,
    "phone": "",
    "desc": "营业时间：",
    "areaCode": "350205",
    "longitude": 118.0245,
    "note": "",
    "orgName": "海沧渐美村篮球场菜鸟驿站",
    "score": 0,
    "orgId": 1899961902,
    "latitude": 24.4798
  },
  {
    "tags": [
      {
        "type": 2,
        "value": "评分：-"
      }
    ],
    "orgAddr": "集美区石鼓路9号附近（集美大学机械与能源工程学院）",
    "mtId": 154214563,
    "phone": "",
    "desc": "营业时间：周一至周日 9:00-22:00",
    "areaCode": "350211",
    "longitude": 118.0972,
    "note": "",
    "orgName": "篮球场",
    "score": 0,
    "orgId": 154214563,
    "latitude": 24.5677
  },
  {
    "tags": [
      {
        "type": 2,
        "value": "评分：-"
      }
    ],
    "orgAddr": "思明区厦港街道思明南路479号F地块",
    "mtId": 1115309744,
    "phone": "18805059284",
    "desc": "营业时间：周日 08:00-18:00 18:30-20:30  周六 08:00-10:00 11:00-18:00 18:30-20:30  周一至周五 18:30-20:30",
    "areaCode": "350203",
    "longitude": 118.0885,
    "note": "",
    "orgName": "威耐斯篮球俱乐部",
    "score": 0,
    "orgId": 1115309744,
    "latitude": 24.4438
  },
  {
    "tags": [
      {
        "type": 2,
        "value": "评分：3.5"
      }
    ],
    "orgAddr": "海沧区沧虹路与海裕路交叉口东北80米",
    "mtId": 1934683801,
    "phone": "18030309937",
    "desc": "营业时间：周一至周日 10:00-22:00",
    "areaCode": "350205",
    "longitude": 118.0384,
    "note": "",
    "orgName": "艾森篮球训练营",
    "score": 3.5,
    "orgId": 1934683801,
    "latitude": 24.4986
  },
  {
    "tags": [
      {
        "type": 2,
        "value": "评分：-"
      }
    ],
    "orgAddr": "湖里区嘉禾路与湖里大道交叉口北130米路西",
    "mtId": 71453201,
    "phone": "0592-8692319",
    "desc": "营业时间：",
    "areaCode": "350206",
    "longitude": 118.117,
    "note": "",
    "orgName": "马垅篮球场",
    "score": 0,
    "orgId": 71453201,
    "latitude": 24.5123
  },
  {
    "tags": [
      {
        "type": 2,
        "value": "评分：-"
      }
    ],
    "orgAddr": "集美区396乡道与315乡道交叉口西480米",
    "mtId": 1469439509,
    "phone": "15959342413",
    "desc": "营业时间：",
    "areaCode": "350211",
    "longitude": 118.0273,
    "note": "",
    "orgName": "风暴篮球训练营",
    "score": 0,
    "orgId": 1469439509,
    "latitude": 24.6256
  },
  {
    "tags": [
      {
        "type": 2,
        "value": "评分：-"
      }
    ],
    "orgAddr": "湖里区向上幼儿园",
    "mtId": 607692377,
    "phone": "",
    "desc": "营业时间：",
    "areaCode": "350206",
    "longitude": 118.151,
    "note": "",
    "orgName": "县后篮球场",
    "score": 0,
    "orgId": 607692377,
    "latitude": 24.5254
  },
  {
    "tags": [
      {
        "type": 2,
        "value": "评分：-"
      }
    ],
    "orgAddr": "思明区坑内路18号",
    "mtId": 150251362,
    "phone": "",
    "desc": "营业时间：周一至周日 09:00-22:00",
    "areaCode": "350203",
    "longitude": 118.1006,
    "note": "",
    "orgName": "辛巴篮球馆",
    "score": 0,
    "orgId": 150251362,
    "latitude": 24.4577
  },
  {
    "tags": [
      {
        "type": 2,
        "value": "评分：-"
      }
    ],
    "orgAddr": "集美区高浦社区西潭路81号",
    "mtId": 176202117,
    "phone": "",
    "desc": "营业时间：",
    "areaCode": "350211",
    "longitude": 118.0535,
    "note": "",
    "orgName": "篮球场小卖部",
    "score": 0,
    "orgId": 176202117,
    "latitude": 24.5548
  },
  {
    "tags": [
      {
        "type": 2,
        "value": "评分：-"
      }
    ],
    "orgAddr": "集美区银亭路10-1号1层",
    "mtId": 1598248235,
    "phone": "13559210129",
    "desc": "营业时间：周一至周日 10:00-22:00",
    "areaCode": "350211",
    "longitude": 118.0988,
    "note": "",
    "orgName": "赤浪体育篮球馆",
    "score": 0,
    "orgId": 1598248235,
    "latitude": 24.5766
  },
  {
    "tags": [
      {
        "type": 2,
        "value": "评分：-"
      }
    ],
    "orgName": "NBA HOOP PARK（五缘湾馆）",
    "mtId": 1168019550,
    "phone": "0592-5571866",
    "desc": "营业时间：周一至周日 10:00-22:00",
    "areaCode": "350206",
    "longitude": 118.1867,
    "note": "",
    "orgAddr": "湖里区金山街道泗水道603号五缘湾运动馆",
    "score": 0,
    "orgId": 1168019550,
    "latitude": 24.5266
  },
  {
    "tags": [
      {
        "type": 2,
        "value": "评分：-"
      }
    ],
    "orgName": "洪厝村前铺边篮球场",
    "mtId": 1695610007,
    "phone": "",
    "desc": "营业时间：",
    "areaCode": "350213",
    "longitude": 118.2278,
    "note": "",
    "orgAddr": "翔安区中国福建省厦门市翔安区新店镇洪厝村",
    "score": 0,
    "orgId": 1695610007,
    "latitude": 24.5932
  },
  {
    "tags": [
      {
        "type": 2,
        "value": "评分：-"
      }
    ],
    "orgName": "奥伦启星体育AL智体篮球",
    "mtId": 1062772720,
    "phone": "13675001550",
    "desc": "营业时间：",
    "areaCode": "350213",
    "longitude": 118.2404,
    "note": "",
    "orgAddr": "翔安区鼓岩路1号（鼓锣地铁站2号口步行390米）",
    "score": 0,
    "orgId": 1062772720,
    "latitude": 24.5768
  },
  {
    "tags": [
      {
        "type": 2,
        "value": "评分：-"
      }
    ],
    "orgName": "豪刻轩篮球俱乐部",
    "mtId": 1024836148,
    "phone": "15042029031/13604060009",
    "desc": "营业时间：",
    "areaCode": "350212",
    "longitude": 118.1567,
    "note": "",
    "orgAddr": "同安区滨海西大道新城小学东北侧",
    "score": 0,
    "orgId": 1024836148,
    "latitude": 24.6386
  },
  {
    "tags": [
      {
        "type": 2,
        "value": "评分：-"
      }
    ],
    "orgName": "能量者体育篮球馆",
    "mtId": 946020185,
    "phone": "13124901205",
    "desc": "营业时间：周一至周日 06:00-23:00",
    "areaCode": "350212",
    "longitude": 118.1416,
    "note": "",
    "orgAddr": "同安区田洋村郊边里",
    "score": 0,
    "orgId": 946020185,
    "latitude": 24.7514
  },
  {
    "tags": [
      {
        "type": 2,
        "value": "评分：-"
      }
    ],
    "orgName": "智达篮球",
    "mtId": 1234199152,
    "phone": "13400730896",
    "desc": "营业时间：周一至周日 10:00-22:00",
    "areaCode": "350211",
    "longitude": 117.9932,
    "note": "",
    "orgAddr": "集美区凤山庙路与灌口街交叉口北40米",
    "score": 0,
    "orgId": 1234199152,
    "latitude": 24.6048
  },
  {
    "tags": [
      {
        "type": 2,
        "value": "评分：-"
      }
    ],
    "orgName": "沙美村篮球场",
    "mtId": 1082928429,
    "phone": "",
    "desc": "营业时间：",
    "areaCode": "350213",
    "longitude": 118.3234,
    "note": "",
    "orgAddr": "翔安区沙美路沙美小学东南侧约80米",
    "score": 0,
    "orgId": 1082928429,
    "latitude": 24.6126
  },
  {
    "tags": [
      {
        "type": 2,
        "value": "评分：-"
      }
    ],
    "orgName": "奇思篮球",
    "mtId": 1133186339,
    "phone": "18650138399",
    "desc": "营业时间：周一至周日 10:00-22:00",
    "areaCode": "350206",
    "longitude": 118.1548,
    "note": "",
    "orgAddr": "湖里区蔡塘商业中心1008102室",
    "score": 0,
    "orgId": 1133186339,
    "latitude": 24.484
  },
  {
    "tags": [
      {
        "type": 2,
        "value": "评分：-"
      }
    ],
    "orgName": "穆厝篮球场油条摊",
    "mtId": 1916289200,
    "phone": "",
    "desc": "营业时间：",
    "areaCode": "350206",
    "longitude": 118.1566,
    "note": "",
    "orgAddr": "湖里区穆厝社317号",
    "score": 0,
    "orgId": 1916289200,
    "latitude": 24.5094
  },
  {
    "tags": [
      {
        "type": 2,
        "value": "评分：-"
      }
    ],
    "orgName": "上篮球场",
    "mtId": 777852941,
    "phone": "",
    "desc": "营业时间：",
    "areaCode": "350211",
    "longitude": 117.9898,
    "note": "",
    "orgAddr": "集美区黄庄路今晓酒店",
    "score": 0,
    "orgId": 777852941,
    "latitude": 24.5977
  },
  {
    "tags": [
      {
        "type": 2,
        "value": "评分：-"
      }
    ],
    "orgAddr": "集美区纺织东路14-8号",
    "mtId": 792665417,
    "phone": "0592-6061689",
    "desc": "营业时间：周一至周日 10:00-22:00",
    "areaCode": "350211",
    "longitude": 118.0495,
    "note": "",
    "orgName": "耀华星篮球馆",
    "score": 0,
    "orgId": 792665417,
    "latitude": 24.5671
  },
  {
    "tags": [
      {
        "type": 2,
        "value": "评分：-"
      }
    ],
    "orgAddr": "海沧区新阳北路1898号",
    "mtId": 1639690899,
    "phone": "18030181882",
    "desc": "营业时间：周一至周日 10:00-22:00",
    "areaCode": "350205",
    "longitude": 118.0114,
    "note": "",
    "orgName": "前璟体育",
    "score": 0,
    "orgId": 1639690899,
    "latitude": 24.5301
  },
  {
    "tags": [
      {
        "type": 2,
        "value": "评分：-"
      }
    ],
    "orgAddr": "集美区灌口镇灌口大道1994号（涌泉公园旁）",
    "mtId": 1388220175,
    "phone": "13400730896/18965186675",
    "desc": "营业时间：周一至周五 09:00-11:30 15:00-22:00  周六,周日 08:00-12:00 15:00-22:00",
    "areaCode": "350211",
    "longitude": 118.0003,
    "note": "",
    "orgName": "智达篮球公园",
    "score": 0,
    "orgId": 1388220175,
    "latitude": 24.6165
  },
  {
    "tags": [
      {
        "type": 2,
        "value": "评分：-"
      }
    ],
    "orgAddr": "同安区西湖村卫生所东南",
    "mtId": 510935095,
    "phone": "",
    "desc": "营业时间：",
    "areaCode": "350212",
    "longitude": 118.1482,
    "note": "",
    "orgName": "西湖篮球场",
    "score": 0,
    "orgId": 510935095,
    "latitude": 24.6955
  },
  {
    "tags": [
      {
        "type": 2,
        "value": "评分：-"
      }
    ],
    "orgAddr": "集美区海凤路与凤安路交叉口西120米",
    "mtId": 998571189,
    "phone": "",
    "desc": "营业时间：",
    "areaCode": "350211",
    "longitude": 118.1128,
    "note": "",
    "orgName": "赤诚体育训练营1号球馆",
    "score": 0,
    "orgId": 998571189,
    "latitude": 24.592
  },
  {
    "tags": [
      {
        "type": 2,
        "value": "评分：-"
      }
    ],
    "orgAddr": "翔安区上吴路",
    "mtId": 1096022057,
    "phone": "13666059224",
    "desc": "营业时间：",
    "areaCode": "350213",
    "longitude": 118.2422,
    "note": "",
    "orgName": "少儿篮球培训",
    "score": 0,
    "orgId": 1096022057,
    "latitude": 24.6274
  },
  {
    "tags": [
      {
        "type": 2,
        "value": "评分：-"
      }
    ],
    "orgAddr": "集美区杏林北路31号",
    "mtId": 1269965157,
    "phone": "19525927479",
    "desc": "营业时间：周二至周日 08:30-22:00",
    "areaCode": "350211",
    "longitude": 118.0445,
    "note": "",
    "orgName": "聚明星篮球运动馆",
    "score": 0,
    "orgId": 1269965157,
    "latitude": 24.5751
  },
  {
    "tags": [
      {
        "type": 2,
        "value": "评分：3.5"
      }
    ],
    "orgAddr": "思明区火车站南广场西侧停车楼5楼",
    "mtId": 879586033,
    "phone": "0592-2271168",
    "desc": "营业时间：周一至周日 10:00-22:00",
    "areaCode": "350203",
    "longitude": 118.115,
    "note": "",
    "orgName": "菲奈斯智体篮球羽毛球运动培训",
    "score": 3.5,
    "orgId": 879586033,
    "latitude": 24.4666
  },
  {
    "tags": [
      {
        "type": 2,
        "value": "评分：-"
      }
    ],
    "orgAddr": "思明区宝龙一城M-B1-017/018",
    "mtId": 1533168358,
    "phone": "17359449253",
    "desc": "营业时间：周一至周日 10:00-22:00",
    "areaCode": "350203",
    "longitude": 118.1729,
    "note": "",
    "orgName": "准者体育儿童篮球训练营（宝龙一城店）",
    "score": 0,
    "orgId": 1533168358,
    "latitude": 24.4857
  },
  {
    "tags": [
      {
        "type": 2,
        "value": "评分：-"
      }
    ],
    "orgAddr": "集美区杏林湾营运中心6号楼杏林湾生活馆外围第一层",
    "mtId": 894991687,
    "phone": "18030261529",
    "desc": "营业时间：周一至周日 10:00-23:00",
    "areaCode": "350211",
    "longitude": 118.0642,
    "note": "",
    "orgName": "羿龙羽毛球·篮球·乒乓球",
    "score": 0,
    "orgId": 894991687,
    "latitude": 24.5934
  },
  {
    "tags": [
      {
        "type": 2,
        "value": "评分：-"
      }
    ],
    "orgName": "飞翔者幼儿青少年篮球俱乐部",
    "mtId": 1987127235,
    "phone": "15860801236/13063080099",
    "desc": "营业时间：",
    "areaCode": "350213",
    "longitude": 118.2405,
    "note": "",
    "orgAddr": "翔安区鼓岩路1号（鼓锣地铁站2号口步行390米）",
    "score": 0,
    "orgId": 1987127235,
    "latitude": 24.5767
  },
  {
    "tags": [
      {
        "type": 2,
        "value": "评分：-"
      },
      {
        "type": 1,
        "value": "免费WiFi"
      },
      {
        "type": 1,
        "value": "免费停车"
      }
    ],
    "orgName": "梦之星体育篮球训练营",
    "mtId": 1236151170,
    "phone": "18050017712",
    "desc": "营业时间：周一至周日 全天",
    "areaCode": "350211",
    "longitude": 118.1168,
    "note": "",
    "orgAddr": "集美区同集南路338号（集安广场）",
    "score": 0,
    "orgId": 1236151170,
    "latitude": 24.6058
  },
  {
    "tags": [
      {
        "type": 2,
        "value": "评分：-"
      }
    ],
    "orgName": "燃火儿童运动中心·篮球·体适能",
    "mtId": 1147834971,
    "phone": "17359291026",
    "desc": "营业时间：",
    "areaCode": "350205",
    "longitude": 118.055,
    "note": "",
    "orgAddr": "海沧区海沧大道1339号",
    "score": 0,
    "orgId": 1147834971,
    "latitude": 24.4901
  },
  {
    "tags": [
      {
        "type": 2,
        "value": "评分：-"
      }
    ],
    "orgName": "青卫篮球训练营",
    "mtId": 538445596,
    "phone": "18150091261",
    "desc": "营业时间：周一至周日 10:00-22:00",
    "areaCode": "350203",
    "longitude": 118.1142,
    "note": "",
    "orgAddr": "思明区凤屿路229号福津大街第三节点211室",
    "score": 0,
    "orgId": 538445596,
    "latitude": 24.4779
  },
  {
    "tags": [
      {
        "type": 2,
        "value": "评分：-"
      }
    ],
    "orgName": "八闽篮球训练基地",
    "mtId": 1391880352,
    "phone": "",
    "desc": "营业时间：",
    "areaCode": "350211",
    "longitude": 118.0653,
    "note": "",
    "orgAddr": "集美区宁海二里三号楼202室",
    "score": 0,
    "orgId": 1391880352,
    "latitude": 24.562
  },
  {
    "tags": [
      {
        "type": 2,
        "value": "评分：-"
      },
      {
        "type": 1,
        "value": "木质地板"
      }
    ],
    "orgName": "萝欧LO  木地板篮球场",
    "mtId": 77819912,
    "phone": "0592-8888999",
    "desc": "营业时间：周一至周日 10:00-22:00",
    "areaCode": "350206",
    "longitude": 118.1761,
    "note": "",
    "orgAddr": "湖里区金山街道软件园二期观日路1号楼（湖里万达附近）",
    "score": 0,
    "orgId": 77819912,
    "latitude": 24.4905
  },
  {
    "tags": [
      {
        "type": 2,
        "value": "评分：-"
      }
    ],
    "orgName": "my篮球场",
    "mtId": 150251709,
    "phone": "",
    "desc": "营业时间：周一至周日 9:00-22:00",
    "areaCode": "350211",
    "longitude": 118.0553,
    "note": "",
    "orgAddr": "集美区北门路16号",
    "score": 0,
    "orgId": 150251709,
    "latitude": 24.5615
  },
  {
    "tags": [
      {
        "type": 2,
        "value": "评分：-"
      }
    ],
    "orgName": "幼胜篮球体能馆（孚中央分馆）",
    "mtId": 1101990273,
    "phone": "15559089011",
    "desc": "营业时间：周一至周日 10:00-22:00",
    "areaCode": "350205",
    "longitude": 117.965,
    "note": "",
    "orgAddr": "海沧区后祥路孚莲一里223号",
    "score": 0,
    "orgId": 1101990273,
    "latitude": 24.5273
  },
  {
    "tags": [
      {
        "type": 2,
        "value": "评分：-"
      }
    ],
    "orgName": "山尾篮球场",
    "mtId": 153928621,
    "phone": "",
    "desc": "营业时间：周一至周日 10:00-22:00",
    "areaCode": "350205",
    "longitude": 118.0615,
    "note": "",
    "orgAddr": "海沧区鳌冠村东片区",
    "score": 0,
    "orgId": 153928621,
    "latitude": 24.5163
  },
  {
    "tags": [
      {
        "type": 2,
        "value": "评分：-"
      }
    ],
    "orgName": "下蔡篮球场",
    "mtId": 875909911,
    "phone": "",
    "desc": "营业时间：",
    "areaCode": "350211",
    "longitude": 118.0932,
    "note": "",
    "orgAddr": "集美区下蔡公园",
    "score": 0,
    "orgId": 875909911,
    "latitude": 24.5994
  },
  {
    "tags": [
      {
        "type": 2,
        "value": "评分：-"
      }
    ],
    "orgAddr": "海沧区新垵村西片369号",
    "mtId": 1067968331,
    "phone": "15260400964",
    "desc": "营业时间：周一至周日 10:00-22:00",
    "areaCode": "350205",
    "longitude": 117.9958,
    "note": "",
    "orgName": "幼胜篮球体能馆",
    "score": 0,
    "orgId": 1067968331,
    "latitude": 24.5284
  },
  {
    "tags": [
      {
        "type": 2,
        "value": "评分：3.5"
      }
    ],
    "orgAddr": "海沧区东孚街道新景西里377号108室",
    "mtId": 760232544,
    "phone": "15980869291",
    "desc": "营业时间：",
    "areaCode": "350205",
    "longitude": 117.9907,
    "note": "",
    "orgName": "永奥体育少儿篮球培训中心",
    "score": 3.5,
    "orgId": 760232544,
    "latitude": 24.5332
  },
  {
    "tags": [
      {
        "type": 2,
        "value": "评分：-"
      }
    ],
    "orgAddr": "集美区杏林三里与杏林北路交叉口西180米",
    "mtId": 888108347,
    "phone": "",
    "desc": "营业时间：",
    "areaCode": "350211",
    "longitude": 118.0458,
    "note": "",
    "orgName": "篮球馆",
    "score": 0,
    "orgId": 888108347,
    "latitude": 24.5795
  },
  {
    "tags": [
      {
        "type": 2,
        "value": "评分：-"
      }
    ],
    "orgAddr": "集美区理工路福州大学厦门工艺美术学院(集美校区)西侧约150米",
    "mtId": 906728860,
    "phone": "",
    "desc": "营业时间：",
    "areaCode": "350211",
    "longitude": 118.086,
    "note": "",
    "orgName": "埔中央篮球场",
    "score": 0,
    "orgId": 906728860,
    "latitude": 24.6345
  },
  {
    "tags": [
      {
        "type": 2,
        "value": "评分：-"
      }
    ],
    "orgAddr": "同安区祥桥中路祥桥程厝里276号",
    "mtId": 1834757960,
    "phone": "17376777715",
    "desc": "营业时间：",
    "areaCode": "350212",
    "longitude": 118.1443,
    "note": "",
    "orgName": "少年强篮球馆（祥平馆）",
    "score": 0,
    "orgId": 1834757960,
    "latitude": 24.7213
  },
  {
    "tags": [
      {
        "type": 2,
        "value": "评分：-"
      }
    ],
    "orgAddr": "湖里区台湾街1号",
    "mtId": 606044236,
    "phone": "15980768507",
    "desc": "营业时间：周一至周日 10:00-22:00",
    "areaCode": "350206",
    "longitude": 118.1316,
    "note": "",
    "orgName": "大鲨鱼篮球训练馆",
    "score": 0,
    "orgId": 606044236,
    "latitude": 24.4929
  },
  {
    "tags": [
      {
        "type": 2,
        "value": "评分：-"
      }
    ],
    "orgAddr": "海沧区锦里村北片142-102号",
    "mtId": 1727515954,
    "phone": "18059930993",
    "desc": "营业时间：",
    "areaCode": "350205",
    "longitude": 117.9965,
    "note": "",
    "orgName": "北纬之星专注少儿篮球馆",
    "score": 0,
    "orgId": 1727515954,
    "latitude": 24.4665
  },
  {
    "tags": [
      {
        "type": 2,
        "value": "评分：3.5"
      }
    ],
    "orgAddr": "湖里区兴隆路88号",
    "mtId": 506759841,
    "phone": "17605059425",
    "desc": "营业时间：周一至周日 10:00-22:00",
    "areaCode": "350206",
    "longitude": 118.1067,
    "note": "",
    "orgName": "伊善·宸锐体育篮球训练营",
    "score": 3.5,
    "orgId": 506759841,
    "latitude": 24.5079
  },
  {
    "tags": [
      {
        "type": 2,
        "value": "评分：3.5"
      }
    ],
    "orgAddr": "思明区莲前街道前埔不夜城",
    "mtId": 1218236388,
    "phone": "15060786663",
    "desc": "营业时间：周一至周日 10:00-22:00",
    "areaCode": "350203",
    "longitude": 118.1717,
    "note": "",
    "orgName": "里奥狮少儿篮球",
    "score": 3.5,
    "orgId": 1218236388,
    "latitude": 24.468
  },
  {
    "tags": [
      {
        "type": 2,
        "value": "评分：-"
      }
    ],
    "orgAddr": "湖里区金福缘新城墩上小区14T101室",
    "mtId": 1266503793,
    "phone": "18850557897",
    "desc": "营业时间：周一至周日 08:00-22:00",
    "areaCode": "350206",
    "longitude": 118.1602,
    "note": "",
    "orgName": "无限竞体育俱乐部",
    "score": 0,
    "orgId": 1266503793,
    "latitude": 24.5352
  },
  {
    "tags": [
      {
        "type": 2,
        "value": "评分：-"
      }
    ],
    "orgName": "厦门五缘第二实验学校小学部篮球场",
    "mtId": 1060073436,
    "phone": "",
    "desc": "营业时间：",
    "areaCode": "350206",
    "longitude": 118.1601,
    "note": "",
    "orgAddr": "湖里区钟智西3路99号",
    "score": 0,
    "orgId": 1060073436,
    "latitude": 24.5202
  },
  {
    "tags": [
      {
        "type": 2,
        "value": "评分：-"
      }
    ],
    "orgName": "青少儿篮球培训",
    "mtId": 737152043,
    "phone": "",
    "desc": "营业时间：",
    "areaCode": "350211",
    "longitude": 118.0971,
    "note": "",
    "orgAddr": "集美区天马路706号",
    "score": 0,
    "orgId": 737152043,
    "latitude": 24.6148
  },
  {
    "tags": [
      {
        "type": 2,
        "value": "评分：-"
      }
    ],
    "orgName": "少儿篮球运动馆",
    "mtId": 747551491,
    "phone": "18030960162",
    "desc": "营业时间：",
    "areaCode": "350211",
    "longitude": 118.05,
    "note": "",
    "orgAddr": "集美区诚毅北路310-102室",
    "score": 0,
    "orgId": 747551491,
    "latitude": 24.6042
  },
  {
    "tags": [
      {
        "type": 2,
        "value": "评分：-"
      }
    ],
    "orgName": "建希篮球训练营",
    "mtId": 651559910,
    "phone": "",
    "desc": "营业时间：",
    "areaCode": "350213",
    "longitude": 118.2291,
    "note": "",
    "orgAddr": "翔安区浦园肖厝里11号",
    "score": 0,
    "orgId": 651559910,
    "latitude": 24.5615
  },
  {
    "tags": [
      {
        "type": 2,
        "value": "评分：-"
      }
    ],
    "orgName": "星耀篮球训练营",
    "mtId": 1197880142,
    "phone": "18030087788/18906036622",
    "desc": "营业时间：周一至周日 10:00-22:00",
    "areaCode": "350205",
    "longitude": 118.0298,
    "note": "",
    "orgAddr": "海沧区兴港路2014号海沧体育中心",
    "score": 0,
    "orgId": 1197880142,
    "latitude": 24.4727
  },
  {
    "tags": [
      {
        "type": 2,
        "value": "评分：-"
      }
    ],
    "orgName": "2K少儿篮球运动馆",
    "mtId": 1880999034,
    "phone": "18106900946",
    "desc": "营业时间：周一至周日 10:00-22:00",
    "areaCode": "350211",
    "longitude": 118.0931,
    "note": "",
    "orgAddr": "集美区万达广场(集美店)1楼",
    "score": 0,
    "orgId": 1880999034,
    "latitude": 24.5737
  },
  {
    "tags": [
      {
        "type": 2,
        "value": "评分：-"
      }
    ],
    "orgName": "未来之星篮球体能馆",
    "mtId": 838094605,
    "phone": "13625009656",
    "desc": "营业时间：",
    "areaCode": "350205",
    "longitude": 118.0372,
    "note": "",
    "orgAddr": "海沧区嵩屿南一里147-148号",
    "score": 0,
    "orgId": 838094605,
    "latitude": 24.4532
  },
  {
    "tags": [
      {
        "type": 2,
        "value": "评分：-"
      }
    ],
    "orgName": "城市玩家篮球馆",
    "mtId": 579227441,
    "phone": "13696969673",
    "desc": "营业时间：周一至周日 10:00-22:00",
    "areaCode": "350206",
    "longitude": 118.0993,
    "note": "",
    "orgAddr": "湖里区华昌路132号华美空间A3栋129室",
    "score": 0,
    "orgId": 579227441,
    "latitude": 24.5128
  },
  {
    "tags": [
      {
        "type": 2,
        "value": "评分：-"
      }
    ],
    "orgName": "北椰球场",
    "mtId": 708011434,
    "phone": "16639642117",
    "desc": "营业时间：",
    "areaCode": "350211",
    "longitude": 118.11,
    "note": "",
    "orgAddr": "集美区北海湾惠龙万达嘉华酒店",
    "score": 0,
    "orgId": 708011434,
    "latitude": 24.5736
  },
  {
    "tags": [
      {
        "type": 2,
        "value": "评分：-"
      }
    ],
    "orgName": "篮帅少儿篮球馆（槟榔店）",
    "mtId": 532374100,
    "phone": "17706007687",
    "desc": "营业时间：周一至周日 10:00-22:00",
    "areaCode": "350203",
    "longitude": 118.1141,
    "note": "",
    "orgAddr": "思明区凤屿路262-1号",
    "score": 0,
    "orgId": 532374100,
    "latitude": 24.4782
  },
  {
    "tags": [
      {
        "type": 2,
        "value": "评分：-"
      }
    ],
    "orgAddr": "海沧区G228海沧万科城",
    "mtId": 1280230352,
    "phone": "",
    "desc": "营业时间：",
    "areaCode": "350205",
    "longitude": 118.0321,
    "note": "",
    "orgName": "胡椒体育",
    "score": 0,
    "orgId": 1280230352,
    "latitude": 24.5301
  },
  {
    "tags": [
      {
        "type": 2,
        "value": "评分：-"
      }
    ],
    "orgAddr": "海沧区诗山北路与诗山路交叉路口往西北约140米",
    "mtId": 153902611,
    "phone": "0592-6310923",
    "desc": "营业时间：周一至周日 10:00-22:00",
    "areaCode": "350205",
    "longitude": 117.9209,
    "note": "",
    "orgName": "诗山篮球场",
    "score": 0,
    "orgId": 153902611,
    "latitude": 24.5573
  },
  {
    "tags": [
      {
        "type": 2,
        "value": "评分：-"
      }
    ],
    "orgAddr": "海沧区霞阳南路与霞美东路交叉口东140米",
    "mtId": 1009731762,
    "phone": "13806091070",
    "desc": "营业时间：周一至周日 10:00-22:00",
    "areaCode": "350205",
    "longitude": 118.0189,
    "note": "",
    "orgName": "新阳DNA少儿篮球综合馆",
    "score": 0,
    "orgId": 1009731762,
    "latitude": 24.5318
  },
  {
    "tags": [
      {
        "type": 2,
        "value": "评分：-"
      }
    ],
    "orgAddr": "集美区东安东山里246号",
    "mtId": 150834780,
    "phone": "",
    "desc": "营业时间：",
    "areaCode": "350211",
    "longitude": 118.1116,
    "note": "",
    "orgName": "东山蓝球场",
    "score": 0,
    "orgId": 150834780,
    "latitude": 24.6073
  },
  {
    "tags": [
      {
        "type": 2,
        "value": "评分：3.0"
      },
      {
        "type": 1,
        "value": "免费WiFi"
      },
      {
        "type": 1,
        "value": "付费停车"
      }
    ],
    "orgAddr": "湖里区岭下路金福缘新城西南侧约220米",
    "mtId": 727128213,
    "phone": "15659260669",
    "desc": "营业时间：周一至周日 08:00-20:00",
    "areaCode": "350206",
    "longitude": 118.1609,
    "note": "",
    "orgName": "樱木小将篮球培训中心（瑞丰里店）",
    "score": 3,
    "orgId": 727128213,
    "latitude": 24.5317
  },
  {
    "tags": [
      {
        "type": 2,
        "value": "评分：3.0"
      },
      {
        "type": 1,
        "value": "免费WiFi"
      }
    ],
    "orgAddr": "湖里区兴隆路606号源益工业小区内",
    "mtId": 1149642108,
    "phone": "15659260669",
    "desc": "营业时间：周一至周日 10:00-22:00",
    "areaCode": "350206",
    "longitude": 118.1222,
    "note": "",
    "orgName": "樱木小将篮球培训中心（火炬园店）",
    "score": 3,
    "orgId": 1149642108,
    "latitude": 24.511
  },
  {
    "tags": [
      {
        "type": 2,
        "value": "评分：-"
      }
    ],
    "orgAddr": "集美区龙亭六里9-108室",
    "mtId": 1086261941,
    "phone": "15006046840",
    "desc": "营业时间：周六,周日 08:30-20:30  周一至周三,周五 17:00-20:00",
    "areaCode": "350211",
    "longitude": 118.0576,
    "note": "",
    "orgName": "燃火体育（集美校区）",
    "score": 0,
    "orgId": 1086261941,
    "latitude": 24.5993
  },
  {
    "tags": [
      {
        "type": 2,
        "value": "评分：-"
      }
    ],
    "orgAddr": "集美区诚毅北路310-101,310-102",
    "mtId": 1978298931,
    "phone": "18030060162",
    "desc": "营业时间：周一至周日 10:00-22:00",
    "areaCode": "350211",
    "longitude": 118.05,
    "note": "",
    "orgName": "新少年少儿篮球培训",
    "score": 0,
    "orgId": 1978298931,
    "latitude": 24.6042
  },
  {
    "tags": [
      {
        "type": 2,
        "value": "评分：-"
      }
    ],
    "orgAddr": "海沧区阿罗海城市广场南区3楼",
    "mtId": 1825055291,
    "phone": "18170873785",
    "desc": "营业时间：周一至周日 10:00-22:00",
    "areaCode": "350205",
    "longitude": 118.0319,
    "note": "",
    "orgName": "立志少儿篮球俱乐部",
    "score": 0,
    "orgId": 1825055291,
    "latitude": 24.4801
  },
  {
    "tags": [
      {
        "type": 2,
        "value": "评分：-"
      }
    ],
    "orgAddr": "集美区龙湖·春江郦城2期(规划路四南)杏北八里21-121室",
    "mtId": 1542162207,
    "phone": "18030060162",
    "desc": "营业时间：周一至周日 10:00-22:00",
    "areaCode": "350211",
    "longitude": 118.0534,
    "note": "",
    "orgName": "新少年篮球运动馆",
    "score": 0,
    "orgId": 1542162207,
    "latitude": 24.5848
  },
  {
    "tags": [
      {
        "type": 2,
        "value": "评分：-"
      }
    ],
    "orgName": "蓝星儿童运动馆",
    "mtId": 582653347,
    "phone": "",
    "desc": "营业时间：",
    "areaCode": "350203",
    "longitude": 118.1152,
    "note": "",
    "orgAddr": "思明区滨南建行小区",
    "score": 0,
    "orgId": 582653347,
    "latitude": 24.4761
  },
  {
    "tags": [
      {
        "type": 2,
        "value": "评分：-"
      }
    ],
    "orgName": "耀深体育",
    "mtId": 1831403558,
    "phone": "18850038803",
    "desc": "营业时间：周一至周日 10:00-22:00",
    "areaCode": "350211",
    "longitude": 118.1014,
    "note": "",
    "orgAddr": "集美区集美大道永祥花园东南侧约180米",
    "score": 0,
    "orgId": 1831403558,
    "latitude": 24.5911
  },
  {
    "tags": [
      {
        "type": 2,
        "value": "评分：-"
      }
    ],
    "orgName": "宗行篮球培训",
    "mtId": 1876695523,
    "phone": "13395055602",
    "desc": "营业时间：周一至周日 08:00-21:00",
    "areaCode": "350205",
    "longitude": 118.05,
    "note": "",
    "orgAddr": "海沧区东坑安居房篮球场",
    "score": 0,
    "orgId": 1876695523,
    "latitude": 24.4956
  },
  {
    "tags": [
      {
        "type": 2,
        "value": "评分：3.5"
      }
    ],
    "orgName": "鹭岛星球篮球训练营",
    "mtId": 527801764,
    "phone": "15980819586",
    "desc": "营业时间：",
    "areaCode": "350206",
    "longitude": 118.1425,
    "note": "",
    "orgAddr": "湖里区仙岳路1939号201单元",
    "score": 3.5,
    "orgId": 527801764,
    "latitude": 24.501
  },
  {
    "tags": [
      {
        "type": 2,
        "value": "评分：-"
      }
    ],
    "orgName": "琦殿体育（海沧万科城校区）",
    "mtId": 1185258405,
    "phone": "15060782037",
    "desc": "营业时间：周一至周日 10:00-22:00",
    "areaCode": "350205",
    "longitude": 118.0285,
    "note": "",
    "orgAddr": "海沧区霞光东路324号101室",
    "score": 0,
    "orgId": 1185258405,
    "latitude": 24.5321
  },
  {
    "tags": [
      {
        "type": 2,
        "value": "评分：-"
      }
    ],
    "orgName": "劲虎体育篮球运动馆海沧馆",
    "mtId": 1921229049,
    "phone": "17262034930",
    "desc": "营业时间：周一至周日 08:00-22:30",
    "areaCode": "350205",
    "longitude": 117.996,
    "note": "",
    "orgAddr": "海沧区新垵村西片55—102号",
    "score": 0,
    "orgId": 1921229049,
    "latitude": 24.526
  },
  {
    "tags": [
      {
        "type": 2,
        "value": "评分：-"
      }
    ],
    "orgName": "辰鹭体育",
    "mtId": 993622599,
    "phone": "17304688123",
    "desc": "营业时间：周六,周日 08:30-20:30  周二至周五 09:30-20:30",
    "areaCode": "350211",
    "longitude": 118.0556,
    "note": "",
    "orgAddr": "集美区诚毅中路398号红星美凯龙2门下沉广场",
    "score": 0,
    "orgId": 993622599,
    "latitude": 24.5968
  },
  {
    "tags": [
      {
        "type": 2,
        "value": "评分：-"
      }
    ],
    "orgName": "昕兰少儿篮球培训",
    "mtId": 112356645,
    "phone": "0592-5166629",
    "desc": "营业时间：周一至周日 09:00-23:00",
    "areaCode": "350203",
    "longitude": 118.1396,
    "note": "",
    "orgAddr": "思明区龙山中路10号万致文化创意中心F6层",
    "score": 0,
    "orgId": 112356645,
    "latitude": 24.4823
  },
  {
    "tags": [
      {
        "type": 2,
        "value": "评分：-"
      }
    ],
    "orgName": "花香青少年体育篮球羽毛球培训（四海明楼校区）",
    "mtId": 1676145615,
    "phone": "17611328356",
    "desc": "营业时间：",
    "areaCode": "350206",
    "longitude": 118.1417,
    "note": "",
    "orgAddr": "湖里区枋湖西路25号",
    "score": 0,
    "orgId": 1676145615,
    "latitude": 24.5076
  },
  {
    "tags": [
      {
        "type": 2,
        "value": "评分：-"
      }
    ],
    "orgName": "哈林秀王篮球训练营",
    "mtId": 1882641628,
    "phone": "",
    "desc": "营业时间：",
    "areaCode": "350203",
    "longitude": 118.1078,
    "note": "",
    "orgAddr": "思明区文屏路1号嘉禾良库文创园2号仓",
    "score": 0,
    "orgId": 1882641628,
    "latitude": 24.4645
  },
  {
    "tags": [
      {
        "type": 2,
        "value": "评分：-"
      }
    ],
    "orgAddr": "思明区厦禾路禹悦汇B馆301号",
    "mtId": 1280705206,
    "phone": "4000303096-22054",
    "desc": "营业时间：周一至周日 10:00-22:00",
    "areaCode": "350203",
    "longitude": 118.1135,
    "note": "",
    "orgName": "智信体育（火车站校区）",
    "score": 0,
    "orgId": 1280705206,
    "latitude": 24.4678
  },
  {
    "tags": [
      {
        "type": 2,
        "value": "评分：-"
      }
    ],
    "orgAddr": "集美区苑北路97号",
    "mtId": 1219866444,
    "phone": "13055877666",
    "desc": "营业时间：周六,周日 10:00-11:30 15:30-18:00",
    "areaCode": "350211",
    "longitude": 118.0575,
    "note": "",
    "orgName": "启新体育",
    "score": 0,
    "orgId": 1219866444,
    "latitude": 24.5765
  },
  {
    "tags": [
      {
        "type": 2,
        "value": "评分：-"
      }
    ],
    "orgAddr": "思明区松岳路6-10号厦门悦享中心L2-07A号",
    "mtId": 782190383,
    "phone": "18906000602",
    "desc": "营业时间：周一至周日 10:00-22:00",
    "areaCode": "350203",
    "longitude": 118.1126,
    "note": "",
    "orgName": "智信体育（悦享校区）",
    "score": 0,
    "orgId": 782190383,
    "latitude": 24.4943
  },
  {
    "tags": [
      {
        "type": 2,
        "value": "评分：-"
      }
    ],
    "orgAddr": "湖里区枋湖北路431号",
    "mtId": 1560131785,
    "phone": "13400689839",
    "desc": "营业时间：",
    "areaCode": "350206",
    "longitude": 118.1563,
    "note": "",
    "orgName": "未来之星体育",
    "score": 0,
    "orgId": 1560131785,
    "latitude": 24.5206
  },
  {
    "tags": [
      {
        "type": 2,
        "value": "评分：-"
      }
    ],
    "orgAddr": "海沧区锦里村北片142-102号",
    "mtId": 1284934485,
    "phone": "18059930993",
    "desc": "营业时间：",
    "areaCode": "350205",
    "longitude": 117.9965,
    "note": "",
    "orgName": "厦门市海沧区北纬之星篮球馆",
    "score": 0,
    "orgId": 1284934485,
    "latitude": 24.4666
  },
  {
    "tags": [
      {
        "type": 2,
        "value": "评分：3.5"
      }
    ],
    "orgAddr": "集美区中宛二路中海锦城国际",
    "mtId": 1092617246,
    "phone": "18030078160",
    "desc": "营业时间：周一至周日 10:00-22:00",
    "areaCode": "350211",
    "longitude": 118.0281,
    "note": "",
    "orgName": "前璟体育",
    "score": 3.5,
    "orgId": 1092617246,
    "latitude": 24.583
  },
  {
    "tags": [
      {
        "type": 2,
        "value": "评分：3.5"
      }
    ],
    "orgAddr": "湖里区湖滨西路9号大西洋海景城天虹旁二楼",
    "mtId": 582915462,
    "phone": "4000303096",
    "desc": "营业时间：",
    "areaCode": "350206",
    "longitude": 118.1286,
    "note": "",
    "orgName": "厦迈体育青少年体育教育中心（思北校区）",
    "score": 3.5,
    "orgId": 582915462,
    "latitude": 24.4973
  },
  {
    "tags": [
      {
        "type": 2,
        "value": "评分：-"
      }
    ],
    "orgAddr": "思明区体育路2号",
    "mtId": 1979584502,
    "phone": "13859905709",
    "desc": "营业时间：周一至周日 10:00-22:00",
    "areaCode": "350203",
    "longitude": 118.1084,
    "note": "",
    "orgName": "菁铭体育",
    "score": 0,
    "orgId": 1979584502,
    "latitude": 24.4874
  },
  {
    "tags": [
      {
        "type": 2,
        "value": "评分：-"
      }
    ],
    "orgAddr": "湖里区枋湖西三路271-102号",
    "mtId": 1258795115,
    "phone": "13774660618",
    "desc": "营业时间：周一至周日 10:00-22:00",
    "areaCode": "350206",
    "longitude": 118.139,
    "note": "",
    "orgName": "贝洛思体育",
    "score": 0,
    "orgId": 1258795115,
    "latitude": 24.5135
  },
  {
    "tags": [
      {
        "type": 2,
        "value": "评分：-"
      }
    ],
    "orgAddr": "湖里区新丰路29号二楼",
    "mtId": 1031355802,
    "phone": "4000303096/15759215208",
    "desc": "营业时间：周六,周日 09:00-18:00  周一至周五 14:00-21:00",
    "areaCode": "350206",
    "longitude": 118.1256,
    "note": "",
    "orgName": "厦迈体育青少年体育教育中心",
    "score": 0,
    "orgId": 1031355802,
    "latitude": 24.5116
  },
  {
    "tags": [
      {
        "type": 2,
        "value": "评分：-"
      }
    ],
    "orgName": "青卫体育",
    "mtId": 586247678,
    "phone": "18150091261",
    "desc": "营业时间：",
    "areaCode": "350203",
    "longitude": 118.1149,
    "note": "",
    "orgAddr": "思明区海晟花园",
    "score": 0,
    "orgId": 586247678,
    "latitude": 24.4783
  },
  {
    "tags": [
      {
        "type": 2,
        "value": "评分：-"
      }
    ],
    "orgName": "智信体育（杏锦校区）",
    "mtId": 688456617,
    "phone": "",
    "desc": "营业时间：",
    "areaCode": "350211",
    "longitude": 118.0564,
    "note": "",
    "orgAddr": "集美区园博五里27-28号",
    "score": 0,
    "orgId": 688456617,
    "latitude": 24.5844
  },
  {
    "tags": [
      {
        "type": 2,
        "value": "评分：-"
      }
    ],
    "orgName": "训坚体育",
    "mtId": 1740017755,
    "phone": "18950154949",
    "desc": "营业时间：周一至周日 10:00-22:00",
    "areaCode": "350206",
    "longitude": 118.1597,
    "note": "",
    "orgAddr": "湖里区云顶北路水上乐园",
    "score": 0,
    "orgId": 1740017755,
    "latitude": 24.512
  },
  {
    "tags": [
      {
        "type": 2,
        "value": "评分：-"
      }
    ],
    "orgName": "杨厝社篮球场小卖部",
    "mtId": 154755993,
    "phone": "",
    "desc": "营业时间：",
    "areaCode": "350205",
    "longitude": 117.9304,
    "note": "",
    "orgAddr": "海沧区东孚街道",
    "score": 0,
    "orgId": 154755993,
    "latitude": 24.574
  },
  {
    "tags": [
      {
        "type": 2,
        "value": "评分：-"
      }
    ],
    "orgName": "名师高徒",
    "mtId": 1292560788,
    "phone": "",
    "desc": "营业时间：",
    "areaCode": "350211",
    "longitude": 118.0487,
    "note": "",
    "orgAddr": "集美区鳌美路108号402号",
    "score": 0,
    "orgId": 1292560788,
    "latitude": 24.5556
  },
  {
    "tags": [
      {
        "type": 2,
        "value": "评分：-"
      }
    ],
    "orgName": "花香青少年体育篮球羽毛球培训",
    "mtId": 1176581622,
    "phone": "17611328356",
    "desc": "营业时间：",
    "areaCode": "350203",
    "longitude": 118.1179,
    "note": "",
    "orgAddr": "思明区湖滨南路二轻大厦1501",
    "score": 0,
    "orgId": 1176581622,
    "latitude": 24.4753
  },
  {
    "tags": [
      {
        "type": 2,
        "value": "评分：-"
      }
    ],
    "orgName": "AG篮球馆",
    "mtId": 1886335684,
    "phone": "17338753400",
    "desc": "营业时间：周一至周日 08:00-22:00",
    "areaCode": "350203",
    "longitude": 118.1039,
    "note": "",
    "orgAddr": "思明区万寿路29号",
    "score": 0,
    "orgId": 1886335684,
    "latitude": 24.4605
  },
  {
    "tags": [
      {
        "type": 2,
        "value": "评分：-"
      }
    ],
    "orgName": "能量者少年强篮球运动馆",
    "mtId": 1364154167,
    "phone": "18060942680",
    "desc": "营业时间：周一至周日 10:00-22:00",
    "areaCode": "350212",
    "longitude": 118.1557,
    "note": "",
    "orgAddr": "同安区碧溪路双栖公寓-厦门西北侧约50米",
    "score": 0,
    "orgId": 1364154167,
    "latitude": 24.725
  },
  {
    "tags": [
      {
        "type": 2,
        "value": "评分：-"
      }
    ],
    "orgName": "开彪体育篮球馆",
    "mtId": 1818109994,
    "phone": "19859191955",
    "desc": "营业时间：周六,周日 08:30-22:00  周一至周五 14:00-22:00",
    "areaCode": "350205",
    "longitude": 117.996,
    "note": "",
    "orgAddr": "海沧区新垵村西片55-102号",
    "score": 0,
    "orgId": 1818109994,
    "latitude": 24.526
  },
  {
    "tags": [
      {
        "type": 2,
        "value": "评分：-"
      }
    ],
    "orgName": "第七区体育公园（万物工场店）",
    "mtId": 91781974,
    "phone": "18030178387",
    "desc": "营业时间：周一至周日 08:00-22:00",
    "areaCode": "350203",
    "longitude": 118.1392,
    "note": "",
    "orgAddr": "思明区谊爱路102号-3",
    "score": 0,
    "orgId": 91781974,
    "latitude": 24.4844
  },
  {
    "tags": [
      {
        "type": 2,
        "value": "评分：-"
      }
    ],
    "orgAddr": "湖里区仙岳路66-68号厦门古玩城",
    "mtId": 793271278,
    "phone": "15506929459",
    "desc": "营业时间：",
    "areaCode": "350206",
    "longitude": 118.0861,
    "note": "",
    "orgName": "厦门咖米篮球公园",
    "score": 0,
    "orgId": 793271278,
    "latitude": 24.4918
  },
  {
    "tags": [
      {
        "type": 2,
        "value": "评分：-"
      },
      {
        "type": 1,
        "value": "可淋浴"
      }
    ],
    "orgAddr": "湖里区岐山路5号（小掌柜正对面）",
    "mtId": 1344606978,
    "phone": "13850072028",
    "desc": "营业时间：周一至周日 08:00-24:00",
    "areaCode": "350206",
    "longitude": 118.1593,
    "note": "",
    "orgName": "北区热带篮球馆",
    "score": 0,
    "orgId": 1344606978,
    "latitude": 24.5256
  },
  {
    "tags": [
      {
        "type": 2,
        "value": "评分：-"
      }
    ],
    "orgAddr": "湖里区双浦东里37-104号",
    "mtId": 788199743,
    "phone": "0592-3910100",
    "desc": "营业时间：周一至周日 10:00-22:00",
    "areaCode": "350206",
    "longitude": 118.1416,
    "note": "",
    "orgName": "炫威篮球训练营",
    "score": 0,
    "orgId": 788199743,
    "latitude": 24.4959
  },
  {
    "tags": [
      {
        "type": 2,
        "value": "评分：-"
      }
    ],
    "orgAddr": "海沧区沧虹路503号",
    "mtId": 1395914755,
    "phone": "19996811585/0592-8844661",
    "desc": "营业时间：",
    "areaCode": "350205",
    "longitude": 118.0378,
    "note": "",
    "orgName": "篮球协会",
    "score": 0,
    "orgId": 1395914755,
    "latitude": 24.5004
  },
  {
    "tags": [
      {
        "type": 2,
        "value": "评分：-"
      }
    ],
    "orgAddr": "湖里区悦华路101-27号",
    "mtId": 1820950365,
    "phone": "18359207413",
    "desc": "营业时间：周一至周日 08:30-22:00",
    "areaCode": "350206",
    "longitude": 118.1043,
    "note": "",
    "orgName": "Sky Park篮球公园",
    "score": 0,
    "orgId": 1820950365,
    "latitude": 24.5158
  },
  {
    "tags": [
      {
        "type": 2,
        "value": "评分：-"
      }
    ],
    "orgAddr": "同安区观浪路236号美峰体育公园篮球场",
    "mtId": 582252001,
    "phone": "13225086889",
    "desc": "营业时间：周一至周日 08:00-22:00",
    "areaCode": "350212",
    "longitude": 118.1405,
    "note": "",
    "orgName": "袭卷篮球公园",
    "score": 0,
    "orgId": 582252001,
    "latitude": 24.6116
  },
  {
    "tags": [
      {
        "type": 2,
        "value": "评分：-"
      }
    ],
    "orgAddr": "湖里区软件园西门观日路一号佰翔酒店副楼萝欧国际健身会所（万达）（近软件员公寓）",
    "mtId": 74885975,
    "phone": "",
    "desc": "营业时间：周一至周日 10:00-22:00",
    "areaCode": "350206",
    "longitude": 118.1782,
    "note": "",
    "orgName": "软件园篮球场（望海路店）",
    "score": 0,
    "orgId": 74885975,
    "latitude": 24.4917
  },
  {
    "tags": [
      {
        "type": 2,
        "value": "评分：-"
      }
    ],
    "orgAddr": "翔安区洪钟东路与溪尾北路交叉口东南300米",
    "mtId": 641832339,
    "phone": "",
    "desc": "营业时间：",
    "areaCode": "350213",
    "longitude": 118.2596,
    "note": "",
    "orgName": "追跃体育",
    "score": 0,
    "orgId": 641832339,
    "latitude": 24.6081
  },
  {
    "tags": [
      {
        "type": 2,
        "value": "评分：-"
      }
    ],
    "orgAddr": "湖里区东渡路127之19号",
    "mtId": 752455777,
    "phone": "18860005688",
    "desc": "营业时间：周一至周日 10:00-21:00",
    "areaCode": "350206",
    "longitude": 118.0813,
    "note": "",
    "orgName": "牛头山篮球场",
    "score": 0,
    "orgId": 752455777,
    "latitude": 24.4942
  },
  {
    "tags": [
      {
        "type": 2,
        "value": "评分：-"
      }
    ],
    "orgAddr": "翔安区祥吴一路翔安区青少年校外体育活动中心",
    "mtId": 1470194059,
    "phone": "",
    "desc": "营业时间：",
    "areaCode": "350213",
    "longitude": 118.2412,
    "note": "",
    "orgName": "白头鹰篮球俱乐部",
    "score": 0,
    "orgId": 1470194059,
    "latitude": 24.6213
  },
  {
    "tags": [
      {
        "type": 2,
        "value": "评分：-"
      }
    ],
    "orgName": "锦园九组篮球场",
    "mtId": 153818527,
    "phone": "",
    "desc": "营业时间：周一至周日 09:00-22:00",
    "areaCode": "350211",
    "longitude": 118.0311,
    "note": "",
    "orgAddr": "集美区锦园锦东路86号",
    "score": 0,
    "orgId": 153818527,
    "latitude": 24.5914
  },
  {
    "tags": [
      {
        "type": 2,
        "value": "评分：-"
      }
    ],
    "orgName": "厦门国际会展中心篮球羽乒馆",
    "mtId": 1410844604,
    "phone": "0592-5959138",
    "desc": "营业时间：周一至周五 15:00-21:00  周六,周日 09:00-12:00 14:00-21:00",
    "areaCode": "350203",
    "longitude": 118.1834,
    "note": "",
    "orgAddr": "思明区会展路198号",
    "score": 0,
    "orgId": 1410844604,
    "latitude": 24.4642
  },
  {
    "tags": [
      {
        "type": 2,
        "value": "评分：-"
      }
    ],
    "orgName": "兄弟连篮球新阳训练馆",
    "mtId": 944375118,
    "phone": "18050033303",
    "desc": "营业时间：",
    "areaCode": "350205",
    "longitude": 118.0073,
    "note": "",
    "orgAddr": "海沧区林东路5号",
    "score": 0,
    "orgId": 944375118,
    "latitude": 24.5245
  },
  {
    "tags": [
      {
        "type": 2,
        "value": "评分：-"
      }
    ],
    "orgName": "江头篮球场",
    "mtId": 1362410122,
    "phone": "15980768507",
    "desc": "营业时间：",
    "areaCode": "350206",
    "longitude": 118.1324,
    "note": "",
    "orgAddr": "湖里区台湾街233号",
    "score": 0,
    "orgId": 1362410122,
    "latitude": 24.498
  },
  {
    "tags": [
      {
        "type": 2,
        "value": "评分：-"
      },
      {
        "type": 1,
        "value": "免费WiFi"
      }
    ],
    "orgName": "劲兔篮球馆",
    "mtId": 963924251,
    "phone": "17750632463/17705924318",
    "desc": "营业时间：",
    "areaCode": "350203",
    "longitude": 118.0853,
    "note": "",
    "orgAddr": "思明区禾祥西路39-2号C101室",
    "score": 0,
    "orgId": 963924251,
    "latitude": 24.4648
  },
  {
    "tags": [
      {
        "type": 2,
        "value": "评分：-"
      }
    ],
    "orgName": "威枫体育篮球运动馆",
    "mtId": 976668958,
    "phone": "15606000819",
    "desc": "营业时间：周一至周日 09:00-22:00",
    "areaCode": "350211",
    "longitude": 118.079,
    "note": "",
    "orgAddr": "集美区兑英西路厦门稀土所B区5号楼",
    "score": 0,
    "orgId": 976668958,
    "latitude": 24.6097
  },
  {
    "tags": [
      {
        "type": 2,
        "value": "评分：-"
      }
    ],
    "orgName": "酋长篮球训练营",
    "mtId": 1021304872,
    "phone": "18106981714",
    "desc": "营业时间：周一,周日 10:00-21:00",
    "areaCode": "350212",
    "longitude": 118.133,
    "note": "",
    "orgAddr": "同安区观学路9号",
    "score": 0,
    "orgId": 1021304872,
    "latitude": 24.6082
  },
  {
    "tags": [
      {
        "type": 2,
        "value": "评分：-"
      }
    ],
    "orgName": "DB篮球公园（卓布斯大厦店）",
    "mtId": 536839248,
    "phone": "15880273582",
    "desc": "营业时间：",
    "areaCode": "350206",
    "longitude": 118.1216,
    "note": "",
    "orgAddr": "湖里区高崎道778号",
    "score": 0,
    "orgId": 536839248,
    "latitude": 24.5529
  },
  {
    "tags": [
      {
        "type": 2,
        "value": "评分：-"
      }
    ],
    "orgName": "厦城之星体育篮球俱乐部",
    "mtId": 1844144009,
    "phone": "15280226067",
    "desc": "营业时间：",
    "areaCode": "350213",
    "longitude": 118.2393,
    "note": "",
    "orgAddr": "翔安区舫山北路联发欣悦学府西侧约90米",
    "score": 0,
    "orgId": 1844144009,
    "latitude": 24.6639
  }
]
